time,x,y,z,vx,vy,vz,ax,ay,az,jx,jy,jz,sx,sy,sz,roll,pitch,yaw,p,q,r
0.000000,-2.684614,-0.229951,-1.470814,0.012646,-0.016628,-0.006672,0.162462,1.551649,0.116544,-9.421739,-43.697032,-2.025960,306.333003,972.841086,43.564786,0.158703,-0.016758,0.000000,-4.424748,0.962943,0.000000
0.010000,-2.684481,-0.230046,-1.470875,0.013849,-0.003141,-0.005601,0.082721,1.160858,0.098344,-6.608345,-34.701318,-1.625538,257.221091,828.763210,36.643782,0.118964,-0.008518,0.000000,-3.541744,0.677012,0.000000
0.020000,-2.684339,-0.230025,-1.470927,0.014386,0.006865,-0.004693,0.028745,0.853063,0.083815,-4.260255,-27.073759,-1.290666,213.227751,699.088049,30.448316,0.087484,-0.002955,0.000000,-2.773770,0.436731,-0.000000
0.030000,-2.684195,-0.229918,-1.470970,0.014495,0.014154,-0.003915,-0.003869,0.615291,0.072336,-2.327619,-20.673993,-1.014280,174.085729,583.082083,24.940422,0.063103,0.000397,0.000000,-2.121214,0.238516,0.000000
0.040000,-2.684050,-0.229749,-1.471005,0.014367,0.019366,-0.003238,-0.019035,0.435935,0.063357,-0.763260,-15.368998,-0.789692,139.527788,480.011783,20.082132,0.044697,0.001953,0.000000,-1.577323,0.078074,0.000000
0.050000,-2.683908,-0.229536,-1.471035,0.014161,0.023033,-0.002641,-0.020213,0.304681,0.056391,0.477329,-11.033083,-0.610598,109.286944,389.143698,15.835499,0.031228,0.002072,0.000000,-1.132025,-0.049044,-0.000000
0.060000,-2.683767,-0.229292,-1.471058,0.013999,0.025589,-0.002105,-0.010428,0.212438,0.051013,1.435979,-7.547895,-0.471070,83.095586,309.744229,12.162535,0.021765,0.001069,0.000000,-0.774110,-0.147161,-0.000000
0.070000,-2.683627,-0.229027,-1.471077,0.013980,0.027385,-0.001616,0.007698,0.151258,0.046856,2.151849,-4.802415,-0.365562,60.686612,241.079887,9.025284,0.015492,-0.000788,0.000000,-0.492357,-0.220349,0.000000
0.080000,-2.683487,-0.228746,-1.471091,0.014174,0.028695,-0.001165,0.031922,0.114270,0.043606,2.661428,-2.692959,-0.288905,41.792733,182.417155,6.385788,0.011700,-0.003269,0.000000,-0.276055,-0.272391,-0.000000
0.090000,-2.683343,-0.228454,-1.471100,0.014632,0.029731,-0.000742,0.060352,0.095601,0.040998,2.998530,-1.123178,-0.236313,26.146602,133.022519,4.206093,0.009786,-0.006178,0.000000,-0.115216,-0.306767,-0.000000
0.100000,-2.683193,-0.228152,-1.471106,0.015389,0.030652,-0.000343,0.091422,0.090305,0.038814,3.194303,-0.004060,-0.203378,13.481723,92.162447,2.448149,0.009241,-0.009356,0.000000,-0.000636,-0.326673,-0.000000
0.110000,-2.683034,-0.227841,-1.471107,0.016465,0.031568,0.000035,0.123862,0.094291,0.036878,3.277211,0.746074,-0.186071,3.529956,59.103435,1.074093,0.009647,-0.012673,0.000000,0.076102,-0.335018,-0.000000
0.120000,-2.682863,-0.227520,-1.471105,0.017868,0.032557,0.000395,0.156676,0.104246,0.035053,3.273056,1.201567,-0.180743,-3.975617,33.111961,0.045925,0.010663,-0.016027,0.000000,0.122639,-0.334440,-0.000000
0.130000,-2.682676,-0.227189,-1.471100,0.019597,0.033664,0.000736,0.189110,0.117564,0.033234,3.204962,1.429427,-0.184126,-9.302245,13.454502,-0.674315,0.012022,-0.019340,0.000000,0.145856,-0.327304,0.000000
0.140000,-2.682470,-0.226846,-1.471091,0.021647,0.034913,0.001059,0.220630,0.132275,0.031351,3.093383,1.489326,-0.193330,-12.717183,-0.602470,-1.124581,0.013523,-0.022559,0.000000,0.151874,-0.315705,0.000000
0.150000,-2.682242,-0.226490,-1.471078,0.024006,0.036310,0.001363,0.250893,0.146966,0.029357,2.956100,1.433601,-0.205844,-14.487663,-9.792497,-1.342832,0.015020,-0.025646,0.000000,0.146062,-0.301468,-0.000000
0.160000,-2.681989,-0.226120,-1.471063,0.026660,0.037849,0.001646,0.279718,0.160712,0.027230,2.808225,1.307256,-0.219542,-14.880615,-14.848922,-1.367216,0.016420,-0.028585,0.000000,0.133035,-0.286144,-0.000000
0.170000,-2.681707,-0.225733,-1.471046,0.029595,0.039519,0.001907,0.307064,0.173002,0.024968,2.662190,1.147956,-0.232669,-14.163768,-16.505479,-1.235439,0.017670,-0.031371,0.000000,0.116653,-0.271012,0.000000
0.180000,-2.681396,-0.225329,-1.471025,0.032797,0.041304,0.002145,0.333000,0.183664,0.022583,2.527759,0.986034,-0.243857,-12.604240,-15.495609,-0.985554,0.018752,-0.034010,0.000000,0.100020,-0.257076,0.000000
0.190000,-2.681051,-0.224906,-1.471003,0.036251,0.043187,0.002358,0.357681,0.192792,0.020100,2.412023,0.844487,-0.252113,-10.469422,-12.552840,-0.655483,0.019677,-0.036520,0.000000,0.085487,-0.245063,0.000000
0.200000,-2.680670,-0.224465,-1.470978,0.039947,0.045155,0.002546,0.381318,0.200674,0.017553,2.319409,0.738976,-0.256828,-8.025462,-8.410646,-0.283414,0.020474,-0.038920,0.000000,0.074651,-0.235429,0.000000
0.210000,-2.680251,-0.224003,-1.470952,0.043872,0.047190,0.002709,0.402994,0.204716,0.014809,1.986574,-0.009214,-0.296194,-10.780905,-17.383683,-0.666640,0.020879,-0.041119,0.000000,-0.001743,-0.201183,0.000000
0.220000,-2.679792,-0.223521,-1.470924,0.048006,0.049251,0.002843,0.424839,0.210255,0.012179,2.543123,1.531038,-0.206479,75.749160,205.374433,11.891915,0.021436,-0.043333,0.000000,0.155353,-0.258102,0.000000
0.230000,-2.679290,-0.223018,-1.470895,0.052388,0.051449,0.002955,0.451610,0.229469,0.010354,2.528473,1.577133,-0.199414,-80.138939,-199.895918,-10.690502,0.023387,-0.046052,0.000000,0.159927,-0.256464,0.000000
0.240000,-2.678743,-0.222491,-1.470865,0.057017,0.053787,0.003047,0.472921,0.235315,0.007830,1.877518,-0.037100,-0.284435,-3.284098,-1.700362,0.465896,0.023974,-0.048209,0.000000,-0.004693,-0.189645,-0.000000
0.250000,-2.678149,-0.221942,-1.470834,0.061843,0.056149,0.003112,0.492772,0.238058,0.005189,2.065286,0.513533,-0.247713,-5.805890,-9.037892,0.117268,0.024244,-0.050216,0.000000,0.051412,-0.208781,0.000000
0.260000,-2.677506,-0.221368,-1.470803,0.066873,0.058553,0.003151,0.513053,0.242445,0.002716,1.989151,0.355783,-0.246954,-5.794897,-9.996155,0.179681,0.024682,-0.052266,0.000000,0.035325,-0.200895,0.000000
0.270000,-2.676811,-0.220771,-1.470771,0.072102,0.060995,0.003166,0.532850,0.246159,0.000264,1.982699,0.428837,-0.242791,0.976942,12.481429,0.511175,0.025051,-0.054265,0.000000,0.042732,-0.200118,0.000000
0.280000,-2.676063,-0.220148,-1.470740,0.077530,0.063478,0.003157,0.552543,0.250428,-0.002145,1.934631,0.350777,-0.239706,-10.704608,-28.468152,0.100652,0.025476,-0.056253,0.000000,0.034768,-0.195109,-0.000000
0.290000,-2.675260,-0.219501,-1.470708,0.083150,0.065995,0.003123,0.571359,0.252520,-0.004536,1.839810,0.105004,-0.237936,-4.705813,-8.434450,0.395280,0.025680,-0.058150,0.000000,0.009774,-0.185357,-0.000000
0.300000,-2.674399,-0.218828,-1.470677,0.088955,0.068525,0.003066,0.589618,0.253472,-0.006890,1.810260,0.078114,-0.233027,-4.751689,-9.152293,0.443614,0.025768,-0.059990,0.000000,0.007044,-0.182259,-0.000000
0.310000,-2.673480,-0.218130,-1.470647,0.094941,0.071062,0.002986,0.607501,0.253753,-0.009200,1.766963,-0.023058,-0.228880,-4.513137,-9.275850,0.485153,0.025787,-0.061790,0.000000,-0.003227,-0.177768,-0.000000
0.320000,-2.672500,-0.217407,-1.470618,0.101104,0.073597,0.002882,0.624916,0.253153,-0.011459,1.714401,-0.090761,-0.222413,-5.411548,-6.013277,0.709746,0.025718,-0.063542,0.000000,-0.010081,-0.172361,0.000000
0.330000,-2.671457,-0.216659,-1.470589,0.107438,0.076123,0.002757,0.641824,0.251853,-0.013652,1.671077,-0.180044,-0.216754,-3.235114,-11.896651,0.418198,0.025577,-0.065242,0.000000,-0.019121,-0.167894,-0.000000
0.340000,-2.670351,-0.215885,-1.470563,0.113939,0.078631,0.002609,0.658376,0.249459,-0.015798,1.637797,-0.293259,-0.212090,-4.014616,-8.978009,0.612356,0.025326,-0.066905,0.000000,-0.030585,-0.164446,-0.000000
0.350000,-2.669178,-0.215086,-1.470537,0.120604,0.081109,0.002441,0.674541,0.246125,-0.017885,1.595838,-0.374593,-0.205361,-3.785564,-9.049636,0.634235,0.024980,-0.068528,0.000000,-0.038798,-0.160140,0.000000
0.360000,-2.667938,-0.214263,-1.470514,0.127428,0.083550,0.002252,0.690325,0.241913,-0.019908,1.561699,-0.468066,-0.199260,-3.537734,-9.067344,0.650190,0.024544,-0.070112,0.000000,-0.048238,-0.156629,-0.000000
0.370000,-2.666629,-0.213415,-1.470492,0.134409,0.085945,0.002043,0.705743,0.236810,-0.021864,1.520529,-0.550615,-0.191773,-4.215000,-8.001009,0.783188,0.024020,-0.071658,0.000000,-0.056558,-0.152423,0.000000
0.380000,-2.665249,-0.212544,-1.470473,0.141542,0.088284,0.001815,0.720766,0.230874,-0.023746,1.487500,-0.639814,-0.184937,-2.375582,-9.855393,0.581344,0.023411,-0.073164,0.000000,-0.065549,-0.149045,-0.000000
0.390000,-2.663798,-0.211650,-1.470456,0.148824,0.090559,0.001568,0.735526,0.223984,-0.025566,1.463289,-0.736379,-0.178882,-2.952331,-8.891382,0.692861,0.022706,-0.074643,0.000000,-0.075284,-0.146558,-0.000000
0.400000,-2.662272,-0.210733,-1.470442,0.156252,0.092760,0.001304,0.750002,0.216192,-0.027319,1.432569,-0.822413,-0.171635,-2.707269,-8.877198,0.692527,0.021910,-0.076093,0.000000,-0.083941,-0.143427,-0.000000
0.410000,-2.660672,-0.209795,-1.470430,0.163823,0.094880,0.001022,0.764190,0.207531,-0.029001,1.405162,-0.909456,-0.164824,-2.522758,-8.789467,0.690615,0.021026,-0.077514,0.000000,-0.092697,-0.140635,-0.000000
0.420000,-2.658995,-0.208836,-1.470421,0.171535,0.096908,0.000724,0.778132,0.197985,-0.030614,1.384422,-1.000561,-0.157634,-1.869898,-9.178146,0.725973,0.020054,-0.078909,0.000000,-0.101860,-0.138524,-0.000000
0.430000,-2.657241,-0.207857,-1.470416,0.179385,0.098836,0.000410,0.791873,0.187535,-0.032155,1.362631,-1.087703,-0.150749,-2.496194,-8.241007,0.649999,0.018991,-0.080284,0.000000,-0.110618,-0.136309,0.000000
0.440000,-2.655407,-0.206859,-1.470413,0.187371,0.100656,0.000081,0.805378,0.176247,-0.033630,1.339433,-1.170449,-0.144220,-1.897125,-8.561323,0.676569,0.017843,-0.081635,0.000000,-0.118927,-0.133954,-0.000000
0.450000,-2.653493,-0.205844,-1.470414,0.195492,0.102359,-0.000262,0.818687,0.164110,-0.035038,1.322585,-1.256745,-0.137396,-1.717577,-8.443279,0.666445,0.016610,-0.082966,0.000000,-0.127593,-0.132247,-0.000000
0.460000,-2.651497,-0.204813,-1.470419,0.203744,0.103935,-0.000619,0.831836,0.151120,-0.036379,1.307721,-1.340933,-0.130828,-1.496210,-8.340693,0.655498,0.015292,-0.084281,0.000000,-0.136042,-0.130741,-0.000000
0.470000,-2.649418,-0.203766,-1.470427,0.212128,0.105378,-0.000990,0.844829,0.137299,-0.037654,1.290442,-1.423056,-0.124211,-1.726298,-8.133862,0.659774,0.013890,-0.085580,0.000000,-0.144279,-0.128996,0.000000
0.480000,-2.647254,-0.202706,-1.470438,0.220640,0.106679,-0.001372,0.857663,0.122661,-0.038864,1.278095,-1.504661,-0.117804,-0.736151,-8.187757,0.621306,0.012407,-0.086863,0.000000,-0.152462,-0.127750,-0.000000
0.490000,-2.645005,-0.201633,-1.470454,0.229281,0.107829,-0.001767,0.870410,0.107207,-0.040011,1.270982,-1.585762,-0.111618,-0.922699,-7.980270,0.624251,0.010841,-0.088138,0.000000,-0.160592,-0.127033,-0.000000
0.500000,-2.642668,-0.200549,-1.470474,0.238048,0.108820,-0.002172,0.883071,0.090954,-0.041096,1.261630,-1.664685,-0.105381,-0.713219,-7.854789,0.614628,0.009196,-0.089403,0.000000,-0.168498,-0.126092,-0.000000
0.510000,-2.640243,-0.199457,-1.470498,0.246942,0.109645,-0.002588,0.895654,0.073915,-0.042119,1.255213,-1.742862,-0.099276,-0.528202,-7.726960,0.606779,0.007471,-0.090661,0.000000,-0.176326,-0.125449,-0.000000
0.520000,-2.637729,-0.198357,-1.470526,0.255961,0.110296,-0.003014,0.908185,0.056105,-0.043082,1.251442,-1.818723,-0.093236,-0.268597,-7.495568,0.601505,0.005670,-0.091913,0.000000,-0.183918,-0.125073,0.000000
0.530000,-2.635123,-0.197252,-1.470558,0.265106,0.110765,-0.003450,0.920687,0.037543,-0.043984,1.248946,-1.893833,-0.087244,-0.232898,-7.527330,0.597258,0.003793,-0.093162,0.000000,-0.191431,-0.124827,0.000000
0.540000,-2.632426,-0.196143,-1.470595,0.274375,0.111044,-0.003894,0.933167,0.018230,-0.044826,1.247602,-1.968217,-0.081275,0.004822,-7.296946,0.597473,0.001842,-0.094410,0.000000,-0.198868,-0.124699,0.000000
0.550000,-2.629636,-0.195031,-1.470636,0.283769,0.111127,-0.004346,0.945648,-0.001813,-0.045609,1.248664,-2.040195,-0.075285,0.164030,-7.149482,0.600741,-0.000183,-0.095657,0.000000,-0.206059,-0.124814,-0.000000
0.560000,-2.626750,-0.193921,-1.470682,0.293288,0.111006,-0.004806,0.958142,-0.022573,-0.046332,1.250306,-2.111575,-0.069208,0.302296,-7.006964,0.608791,-0.002279,-0.096906,0.000000,-0.213185,-0.124989,0.000000
0.570000,-2.623769,-0.192812,-1.470732,0.302932,0.110673,-0.005273,0.970669,-0.044030,-0.046994,1.255963,-2.179225,-0.063156,0.692672,-6.637312,0.608906,-0.004445,-0.098159,0.000000,-0.219932,-0.125569,-0.000000
0.580000,-2.620691,-0.191708,-1.470787,0.312702,0.110123,-0.005746,0.983259,-0.066157,-0.047594,1.261296,-2.246719,-0.056877,0.368333,-6.863881,0.647824,-0.006678,-0.099417,0.000000,-0.226659,-0.126119,-0.000000
0.590000,-2.617515,-0.190610,-1.470847,0.322597,0.109348,-0.006224,0.995892,-0.088965,-0.048130,1.266036,-2.314153,-0.050311,0.714634,-6.505652,0.659803,-0.008979,-0.100681,0.000000,-0.233377,-0.126613,-0.000000
0.600000,-2.614239,-0.189522,-1.470911,0.332620,0.108341,-0.006708,1.008594,-0.112426,-0.048600,1.274405,-2.377795,-0.043606,0.821966,-6.337318,0.688928,-0.011344,-0.101951,0.000000,-0.239709,-0.127473,0.000000
0.610000,-2.610862,-0.188444,-1.470981,0.342769,0.107097,-0.007196,1.021383,-0.136515,-0.049001,1.283678,-2.439621,-0.036425,0.939505,-6.141320,0.725921,-0.013772,-0.103231,0.000000,-0.245853,-0.128430,-0.000000
0.620000,-2.607383,-0.187381,-1.471055,0.353048,0.105609,-0.007688,1.034264,-0.161221,-0.049329,1.292307,-2.501653,-0.029285,0.875256,-6.152160,0.726042,-0.016261,-0.104520,0.000000,-0.252014,-0.129323,0.000000
0.630000,-2.603801,-0.186333,-1.471135,0.363455,0.103871,-0.008182,1.047237,-0.186536,-0.049584,1.303052,-2.560297,-0.021400,1.275223,-5.571941,0.852790,-0.018811,-0.105818,0.000000,-0.257831,-0.130436,-0.000000
0.640000,-2.600114,-0.185304,-1.471219,0.373993,0.101876,-0.008679,1.060333,-0.212414,-0.049754,1.315953,-2.615320,-0.012666,1.211995,-5.543835,0.872265,-0.021417,-0.107130,0.000000,-0.263279,-0.131774,0.000000
0.650000,-2.596320,-0.184296,-1.471308,0.384662,0.099620,-0.009177,1.073552,-0.238844,-0.049837,1.328043,-2.670192,-0.003736,1.294745,-5.317005,0.938376,-0.024077,-0.108454,0.000000,-0.268710,-0.133035,0.000000
0.660000,-2.592420,-0.183313,-1.471403,0.395464,0.097098,-0.009675,1.086897,-0.265808,-0.049825,1.341145,-2.722290,0.006166,1.357815,-5.090645,1.014453,-0.026790,-0.109792,0.000000,-0.273860,-0.134408,-0.000000
0.670000,-2.588411,-0.182355,-1.471502,0.406400,0.094303,-0.010173,1.100379,-0.293281,-0.049713,1.355478,-2.771881,0.016313,1.474220,-4.836533,1.044554,-0.029553,-0.111144,0.000000,-0.278754,-0.135908,0.000000
0.680000,-2.584291,-0.181427,-1.471606,0.417472,0.091230,-0.010669,1.114007,-0.321238,-0.049495,1.369904,-2.819211,0.027677,1.408189,-4.628502,1.230543,-0.032364,-0.112511,0.000000,-0.283422,-0.137432,0.000000
0.690000,-2.580061,-0.180532,-1.471715,0.428681,0.087876,-0.011163,1.127777,-0.349657,-0.049155,1.384273,-2.864215,0.040384,1.497006,-4.360638,1.283769,-0.035221,-0.113894,0.000000,-0.287858,-0.138968,0.000000
0.700000,-2.575717,-0.179671,-1.471829,0.440028,0.084236,-0.011652,1.141696,-0.378513,-0.048686,1.399521,-2.906486,0.053621,1.518297,-4.102458,1.393893,-0.038120,-0.115293,0.000000,-0.292019,-0.140599,-0.000000
0.710000,-2.571260,-0.178848,-1.471948,0.451515,0.080305,-0.012136,1.155766,-0.407779,-0.048077,1.414596,-2.946219,0.068352,1.527365,-3.836243,1.515576,-0.041060,-0.116708,0.000000,-0.295930,-0.142232,0.000000
0.720000,-2.566687,-0.178066,-1.472072,0.463144,0.076079,-0.012613,1.169991,-0.437428,-0.047318,1.430329,-2.983122,0.083611,1.585999,-3.549453,1.574839,-0.044038,-0.118140,0.000000,-0.299559,-0.143941,0.000000
0.730000,-2.561996,-0.177327,-1.472200,0.474916,0.071555,-0.013082,1.184371,-0.467432,-0.046399,1.445618,-3.017316,0.100658,1.468866,-3.288090,1.837212,-0.047051,-0.119589,0.000000,-0.302926,-0.145629,0.000000
0.740000,-2.557188,-0.176636,-1.472334,0.486832,0.066729,-0.013540,1.198901,-0.497765,-0.045298,1.460306,-3.048726,0.119635,1.498712,-2.986042,1.922298,-0.050096,-0.121056,0.000000,-0.306025,-0.147284,0.000000
0.750000,-2.552259,-0.175994,-1.472471,0.498894,0.061599,-0.013987,1.213579,-0.528396,-0.044004,1.475281,-3.077064,0.139451,1.463125,-2.686567,2.079833,-0.053170,-0.122539,0.000000,-0.308824,-0.148983,-0.000000
0.760000,-2.547209,-0.175405,-1.472613,0.511104,0.056160,-0.014420,1.228404,-0.559296,-0.042501,1.489561,-3.102381,0.161334,1.415677,-2.377891,2.249378,-0.056271,-0.124039,0.000000,-0.311338,-0.150643,-0.000000
0.770000,-2.542037,-0.174872,-1.472760,0.523463,0.050412,-0.014836,1.243370,-0.590434,-0.040775,1.503785,-3.124615,0.184020,1.403344,-2.065170,2.336505,-0.059396,-0.125557,0.000000,-0.313555,-0.152314,-0.000000
0.780000,-2.536740,-0.174397,-1.472910,0.535972,0.044351,-0.015235,1.258476,-0.621778,-0.038813,1.517085,-3.143606,0.209086,1.253922,-1.731376,2.679610,-0.062541,-0.127091,0.000000,-0.315470,-0.153930,-0.000000
0.790000,-2.531317,-0.173986,-1.473064,0.548633,0.037976,-0.015612,1.273708,-0.653295,-0.036585,1.529314,-3.159262,0.236682,1.214277,-1.400708,2.793271,-0.065704,-0.128641,0.000000,-0.317080,-0.155480,-0.000000
0.800000,-2.525767,-0.173639,-1.473222,0.561447,0.031285,-0.015965,1.289061,-0.684952,-0.034076,1.541127,-3.171571,0.265383,1.122397,-1.057191,2.995799,-0.068882,-0.130207,0.000000,-0.318376,-0.157012,-0.000000
0.810000,-2.520087,-0.173361,-1.473383,0.574414,0.024276,-0.016292,1.304526,-0.716714,-0.031268,1.551698,-3.180326,0.296696,1.017992,-0.703654,3.209408,-0.072071,-0.131788,0.000000,-0.319351,-0.158465,-0.000000
0.820000,-2.514278,-0.173155,-1.473548,0.587537,0.016950,-0.016590,1.320094,-0.748547,-0.028140,1.561710,-3.185718,0.329055,0.955481,-0.362280,3.320446,-0.075268,-0.133385,0.000000,-0.320017,-0.159888,0.000000
0.830000,-2.508336,-0.173023,-1.473715,0.600817,0.009305,-0.016854,1.335755,-0.780416,-0.024677,1.570198,-3.187312,0.364321,0.739398,0.045311,3.735694,-0.078470,-0.134995,0.000000,-0.320346,-0.161210,0.000000
0.840000,-2.502261,-0.172969,-1.473885,0.614253,0.001342,-0.017082,1.351492,-0.812280,-0.020843,1.577017,-3.185003,0.402637,0.650205,0.406863,3.870977,-0.081674,-0.136618,0.000000,-0.320334,-0.162423,0.000000
0.850000,-2.496050,-0.172997,-1.474057,0.627847,-0.006940,-0.017270,1.367293,-0.844104,-0.016620,1.582934,-3.179051,0.442247,0.503984,0.796118,4.109017,-0.084876,-0.138254,0.000000,-0.319996,-0.163579,0.000000
0.860000,-2.489703,-0.173109,-1.474230,0.641599,-0.015540,-0.017413,1.383145,-0.875847,-0.011987,1.587058,-3.168855,0.484883,0.347196,1.198749,4.355189,-0.088072,-0.139901,0.000000,-0.319291,-0.164616,0.000000
0.870000,-2.483218,-0.173309,-1.474405,0.655510,-0.024457,-0.017508,1.399031,-0.907471,-0.006920,1.590122,-3.155465,0.528777,0.235492,1.524932,4.486082,-0.091261,-0.141559,0.000000,-0.318311,-0.165585,0.000000
0.880000,-2.476593,-0.173600,-1.474580,0.669580,-0.033689,-0.017550,1.414940,-0.938940,-0.001400,1.591137,-3.137400,0.575912,-0.034934,2.090964,4.943143,-0.094437,-0.143226,0.000000,-0.316930,-0.166416,-0.000000
0.890000,-2.469826,-0.173984,-1.474756,0.683808,-0.043235,-0.017534,1.430847,-0.970203,0.004610,1.589972,-3.114512,0.626397,-0.170538,2.443242,5.091645,-0.097598,-0.144902,0.000000,-0.315139,-0.167101,-0.000000
0.900000,-2.462916,-0.174465,-1.474931,0.698196,-0.053092,-0.017456,1.446735,-1.001220,0.011131,1.587454,-3.088129,0.678284,-0.363350,2.879348,5.347475,-0.100739,-0.146584,0.000000,-0.313055,-0.167695,-0.000000
0.910000,-2.455861,-0.175047,-1.475104,0.712743,-0.063258,-0.017310,1.462587,-1.031951,0.018188,1.582422,-3.057408,0.733431,-0.570497,3.315103,5.607398,-0.103858,-0.148272,0.000000,-0.310616,-0.168113,0.000000
0.920000,-2.448661,-0.175731,-1.475276,0.727448,-0.073730,-0.017090,1.478383,-1.062349,0.025803,1.576700,-3.021349,0.789743,-0.646776,3.850439,5.727067,-0.106950,-0.149965,0.000000,-0.307703,-0.168506,0.000000
0.930000,-2.441312,-0.176522,-1.475446,0.742310,-0.084504,-0.016792,1.494110,-1.092365,0.033994,1.567959,-2.981372,0.849480,-1.104571,4.144711,6.222019,-0.110011,-0.151661,0.000000,-0.304486,-0.168679,0.000000
0.940000,-2.433814,-0.177423,-1.475612,0.757330,-0.095576,-0.016408,1.509731,-1.121964,0.042804,1.556039,-2.937466,0.912711,-1.207990,4.686001,6.350582,-0.113039,-0.153358,0.000000,-0.300970,-0.168619,0.000000
0.950000,-2.426165,-0.178435,-1.475774,0.772505,-0.106942,-0.015934,1.525229,-1.151095,0.052251,1.543168,-2.888034,0.977091,-1.439118,5.153801,6.597439,-0.116029,-0.155055,0.000000,-0.296969,-0.168514,-0.000000
0.960000,-2.418363,-0.179562,-1.475930,0.787834,-0.118596,-0.015361,1.540589,-1.179712,0.062357,1.528484,-2.834608,1.044582,-1.652864,5.622803,6.839934,-0.118977,-0.156751,0.000000,-0.292660,-0.168310,-0.000000
0.970000,-2.410408,-0.180808,-1.476081,0.803316,-0.130534,-0.014684,1.555779,-1.207764,0.073146,1.508676,-2.774721,1.113314,-2.159570,6.268559,6.962929,-0.121880,-0.158443,0.000000,-0.287783,-0.167649,-0.000000
0.980000,-2.402296,-0.182174,-1.476224,0.818949,-0.142749,-0.013896,1.570762,-1.235195,0.084634,1.488426,-2.711040,1.185023,-1.886361,6.466535,7.378945,-0.124732,-0.160129,0.000000,-0.282619,-0.167027,-0.000000
0.990000,-2.394028,-0.183664,-1.476358,0.834730,-0.155236,-0.012989,1.585548,-1.261973,0.096857,1.467902,-2.643593,1.259686,-2.370481,7.112670,7.493102,-0.127531,-0.161810,0.000000,-0.277171,-0.166461,-0.000000
1.000000,-2.385601,-0.185280,-1.476483,0.850659,-0.167986,-0.011956,1.600100,-1.288043,0.109830,1.442293,-2.569502,1.335336,-2.601811,7.619371,7.693228,-0.130273,-0.163484,0.000000,-0.271136,-0.165441,-0.000000
1.010000,-2.377014,-0.187024,-1.476597,0.866732,-0.180994,-0.010790,1.614395,-1.313351,0.123572,1.416480,-2.491487,1.413337,-2.819147,8.126720,7.878070,-0.132953,-0.165148,0.000000,-0.264794,-0.164478,-0.000000
1.020000,-2.368266,-0.188900,-1.476698,0.882946,-0.194251,-0.009482,1.628402,-1.337844,0.138100,1.383523,-2.405627,1.492601,-3.523472,8.910227,7.997400,-0.135566,-0.166800,0.000000,-0.257751,-0.162861,-0.000000
1.030000,-2.359355,-0.190910,-1.476786,0.899299,-0.207748,-0.008025,1.642070,-1.361453,0.153430,1.351232,-2.316121,1.573761,-2.928175,8.989010,8.232181,-0.138107,-0.168436,0.000000,-0.250418,-0.161379,-0.000000
1.040000,-2.350280,-0.193056,-1.476858,0.915786,-0.221477,-0.006411,1.655431,-1.384155,0.169582,1.319879,-2.223024,1.656662,-3.596115,9.771333,8.318882,-0.140574,-0.170059,0.000000,-0.242795,-0.160059,-0.000000
1.050000,-2.341039,-0.195340,-1.476914,0.932406,-0.235428,-0.004631,1.668439,-1.405884,0.186565,1.281416,-2.121819,1.740285,-3.846525,10.334319,8.427614,-0.142960,-0.171666,0.000000,-0.234431,-0.158078,-0.000000
1.060000,-2.331631,-0.197765,-1.476950,0.949154,-0.249591,-0.002677,1.681025,-1.426542,0.204392,1.234332,-2.007961,1.825268,-4.267405,11.072930,8.516638,-0.145258,-0.173250,0.000000,-0.224878,-0.155296,0.000000
1.070000,-2.322055,-0.200333,-1.476967,0.966025,-0.263955,-0.000540,1.693218,-1.446129,0.223069,1.208046,-1.912894,1.910088,-2.256294,9.268008,8.489808,-0.147466,-0.174814,0.000000,-0.217193,-0.154626,-0.000000
1.080000,-2.312310,-0.203045,-1.476961,0.983017,-0.278510,0.001787,1.705113,-1.464714,0.242598,1.162625,-1.794734,1.995959,-6.867372,14.406045,8.681094,-0.149593,-0.176369,0.000000,-0.207281,-0.152097,0.000000
1.090000,-2.302395,-0.205904,-1.476930,1.000125,-0.293245,0.004315,1.716391,-1.481930,0.262992,1.096313,-1.651597,2.082662,-5.116352,12.882240,8.607099,-0.151603,-0.177883,0.000000,-0.194945,-0.147517,-0.000000
1.100000,-2.292307,-0.208910,-1.476874,1.017343,-0.308144,0.007050,1.727126,-1.497826,0.284247,1.049477,-1.525739,2.168399,-5.522442,13.622574,8.582065,-0.153500,-0.179363,0.000000,-0.184295,-0.144901,0.000000
1.110000,-2.282048,-0.212067,-1.476788,1.034666,-0.323197,0.010002,1.737362,-1.512412,0.306358,0.997869,-1.390934,2.253587,-5.729325,14.173311,8.513480,-0.155286,-0.180814,0.000000,-0.172752,-0.141823,-0.000000
1.120000,-2.271614,-0.215375,-1.476673,1.052088,-0.338388,0.013180,1.747001,-1.525559,0.329321,0.926366,-1.234620,2.339137,-7.663158,16.274366,8.528592,-0.156947,-0.182225,0.000000,-0.159091,-0.136771,-0.000000
1.130000,-2.261005,-0.218835,-1.476524,1.069604,-0.353703,0.016592,1.755926,-1.537125,0.353134,0.863671,-1.082561,2.422740,-4.844533,14.109149,8.183853,-0.158469,-0.183587,0.000000,-0.145784,-0.132584,-0.000000
1.140000,-2.250221,-0.222449,-1.476340,1.087205,-0.369126,0.020246,1.764316,-1.547235,0.377767,0.811228,-0.936066,2.503934,-6.554440,16.006705,8.110607,-0.159865,-0.184915,0.000000,-0.132944,-0.129404,-0.000000
1.150000,-2.239261,-0.226218,-1.476118,1.104888,-0.384642,0.024150,1.772073,-1.555765,0.403211,0.740404,-0.769458,2.584287,-6.696134,16.493801,7.891233,-0.161120,-0.186200,0.000000,-0.118059,-0.124360,-0.000000
1.160000,-2.228123,-0.230142,-1.475856,1.122644,-0.400235,0.028312,1.779155,-1.562646,0.429440,0.676259,-0.606535,2.661129,-6.803023,16.920703,7.617731,-0.162227,-0.187438,0.000000,-0.103413,-0.119929,0.000000
1.170000,-2.216808,-0.234223,-1.475551,1.140469,-0.415889,0.032741,1.785540,-1.567814,0.456435,0.598206,-0.423442,2.737855,-8.152146,18.886766,7.577061,-0.163180,-0.188625,0.000000,-0.086677,-0.114082,-0.000000
1.180000,-2.205314,-0.238460,-1.475201,1.158353,-0.431586,0.037444,1.791147,-1.571139,0.484179,0.526973,-0.245824,2.809518,-6.071846,16.608988,6.743733,-0.163963,-0.189753,0.000000,-0.070300,-0.108820,-0.000000
1.190000,-2.193641,-0.242855,-1.474801,1.176289,-0.447306,0.042427,1.796111,-1.572759,0.512605,0.463593,-0.074954,2.875475,-7.261971,18.379022,6.584598,-0.164588,-0.190834,0.000000,-0.054393,-0.104239,-0.000000
1.200000,-2.181788,-0.247406,-1.474351,1.194272,-0.463035,0.047698,1.800365,-1.572561,0.541686,0.387358,0.114793,2.939831,-7.326826,18.755491,6.134691,-0.165042,-0.191860,0.000000,-0.036438,-0.098294,0.000000
1.210000,-2.169755,-0.252115,-1.473846,1.212294,-0.478751,0.053263,1.803839,-1.570442,0.571379,0.306537,0.310447,2.997685,-7.569223,19.295617,5.626076,-0.165314,-0.192824,0.000000,-0.017634,-0.091721,0.000000
1.220000,-2.157542,-0.256981,-1.473285,1.230347,-0.494437,0.059127,1.806590,-1.566422,0.601638,0.247642,0.490755,3.054028,-5.437046,17.810869,5.442142,-0.165401,-0.193730,0.000000,-0.000160,-0.087344,-0.000000
1.230000,-2.145148,-0.262004,-1.472663,1.248424,-0.510074,0.065297,1.808727,-1.560561,0.632431,0.172028,0.688599,3.102325,-9.722322,21.788659,4.203466,-0.165309,-0.194588,0.000000,0.019382,-0.081053,-0.000000
1.240000,-2.132573,-0.267183,-1.471978,1.266518,-0.525641,0.071777,1.809960,-1.552579,0.663654,0.078096,0.905316,3.141843,-7.821169,20.495721,3.886978,-0.165005,-0.195365,0.000000,0.041182,-0.072631,0.000000
1.250000,-2.119818,-0.272516,-1.471226,1.284621,-0.541118,0.078572,1.810381,-1.542522,0.695261,0.005128,1.107429,3.178259,-8.005905,20.977090,3.194451,-0.164491,-0.196069,0.000000,0.061802,-0.066264,0.000000
1.260000,-2.106881,-0.278005,-1.470405,1.302723,-0.556485,0.085684,1.810056,-1.530365,0.727186,-0.069478,1.325442,3.205494,-7.973481,21.494672,2.446377,-0.163761,-0.196707,0.000000,0.084477,-0.059481,-0.000000
1.270000,-2.093763,-0.283646,-1.469512,1.320819,-0.571719,0.093116,1.808906,-1.516088,0.759361,-0.164039,1.526861,3.228890,-9.905208,19.876827,2.030064,-0.162809,-0.197266,0.000000,0.105656,-0.050460,0.000000
1.280000,-2.080465,-0.289438,-1.468542,1.338898,-0.586800,0.100872,1.806825,-1.499761,0.791728,-0.245887,1.745812,3.241848,-6.429041,23.940870,0.548294,-0.161639,-0.197734,0.000000,0.129168,-0.042468,-0.000000
1.290000,-2.066985,-0.295381,-1.467493,1.356953,-0.601706,0.108951,1.804044,-1.481101,0.824160,-0.313401,1.983409,3.243666,-8.110915,22.466354,0.005568,-0.160216,-0.198131,0.000000,0.155193,-0.035675,0.000000
1.300000,-2.053326,-0.301472,-1.466362,1.374977,-0.616414,0.117355,1.800478,-1.460168,0.856587,-0.399217,2.204331,3.240151,-8.013686,22.808479,-0.912379,-0.158542,-0.198447,0.000000,0.179783,-0.026750,0.000000
1.310000,-2.039486,-0.307709,-1.465145,1.392960,-0.630902,0.126082,1.796072,-1.437007,0.888919,-0.482354,2.427401,3.224432,-8.033410,22.895313,-1.895266,-0.156618,-0.198673,0.000000,0.205126,-0.017751,0.000000
1.320000,-2.025467,-0.314089,-1.463839,1.410895,-0.645147,0.135133,1.790877,-1.411528,0.921070,-0.554523,2.672137,3.205272,-6.959089,24.972075,-2.274850,-0.154429,-0.198811,0.000000,0.233218,-0.009748,-0.000000
1.330000,-2.011268,-0.320611,-1.462441,1.428775,-0.659124,0.144503,1.784955,-1.383614,0.952974,-0.633265,2.904175,3.171846,-8.804415,21.389865,-4.426304,-0.151957,-0.198866,0.000000,0.260502,-0.000639,0.000000
1.340000,-1.996891,-0.327271,-1.460948,1.446592,-0.672812,0.154191,1.778184,-1.353503,0.984454,-0.719215,3.121292,3.123363,-7.816732,23.099171,-4.939680,-0.149223,-0.198820,0.000000,0.286716,0.009682,0.000000
1.350000,-1.982337,-0.334066,-1.459356,1.464336,-0.686187,0.164190,1.770617,-1.321108,1.015431,-0.794352,3.356742,3.070112,-7.772367,22.902618,-6.049499,-0.146213,-0.198675,0.000000,0.315357,0.019054,-0.000000
1.360000,-1.967605,-0.340993,-1.457663,1.482001,-0.699226,0.174497,1.762281,-1.286425,1.045803,-0.872874,3.578830,3.001988,-7.699276,22.576816,-7.203892,-0.142920,-0.198431,0.000000,0.343084,0.029226,0.000000
1.370000,-1.952697,-0.348049,-1.455865,1.499579,-0.711908,0.185104,1.753181,-1.249457,1.075463,-0.946157,3.817910,2.929419,-7.176578,24.183318,-7.676856,-0.139342,-0.198086,0.000000,0.373072,0.039036,-0.000000
1.380000,-1.937614,-0.355230,-1.453960,1.517063,-0.724207,0.196004,1.743351,-1.210130,1.104335,-1.021007,4.040345,2.840760,-7.796343,20.258848,-10.068278,-0.135464,-0.197640,0.000000,0.401768,0.049475,-0.000000
1.390000,-1.922356,-0.362532,-1.451944,1.534444,-0.736103,0.207187,1.732754,-1.168721,1.132219,-1.097495,4.243944,2.735381,-7.272025,21.501864,-10.641394,-0.131313,-0.197085,0.000000,0.428868,0.060568,0.000000
1.400000,-1.906925,-0.369951,-1.449815,1.551715,-0.747575,0.218645,1.721424,-1.125187,1.159031,-1.168269,4.461207,2.624796,-7.101814,20.889795,-11.842281,-0.126879,-0.196421,0.000000,0.457796,0.071249,-0.000000
1.410000,-1.891322,-0.377482,-1.447571,1.568870,-0.758600,0.230364,1.709419,-1.079526,1.184663,-1.231410,4.670456,2.499489,-6.752288,20.344772,-13.039114,-0.122158,-0.195651,0.000000,0.486247,0.081498,0.000000
1.420000,-1.875548,-0.385121,-1.445207,1.585901,-0.769158,0.242334,1.696708,-1.031847,1.208996,-1.314547,4.862322,2.365686,-8.677029,18.603685,-13.894019,-0.117161,-0.194768,0.000000,0.512949,0.094235,-0.000000
1.430000,-1.859605,-0.392864,-1.442723,1.602801,-0.779231,0.254539,1.683197,-0.982274,1.231929,-1.379802,5.054622,2.217992,-4.333179,19.863689,-15.647673,-0.111898,-0.193759,0.000000,0.540012,0.105371,-0.000000
1.440000,-1.843493,-0.400704,-1.440116,1.619564,-0.788797,0.266967,1.669187,-0.930748,1.253308,-1.425302,5.247510,2.056316,-5.969311,18.110788,-16.508172,-0.106359,-0.192654,0.000000,0.567393,0.114653,-0.000000
1.450000,-1.827214,-0.408638,-1.437383,1.636183,-0.797839,0.279600,1.654609,-0.877396,1.273031,-1.488903,5.421641,1.886416,-5.547299,17.294289,-17.642549,-0.100558,-0.191443,0.000000,0.592666,0.126174,0.000000
1.460000,-1.810769,-0.416659,-1.434523,1.652654,-0.806339,0.292422,1.639461,-0.822316,1.290995,-1.539744,5.593420,1.704482,-5.135801,16.438923,-18.735957,-0.094506,-0.190123,0.000000,0.617733,0.136546,-0.000000
1.470000,-1.794161,-0.424763,-1.431534,1.668971,-0.814280,0.305414,1.623786,-0.765607,1.307085,-1.596360,5.744561,1.511841,-5.686721,14.369716,-19.788116,-0.088213,-0.188696,0.000000,0.640367,0.147800,-0.000000
1.480000,-1.777391,-0.432943,-1.428414,1.685128,-0.821647,0.318557,1.607571,-0.707429,1.321197,-1.642977,5.893009,1.308807,-3.622408,15.325530,-20.811283,-0.081699,-0.187159,0.000000,0.662560,0.158129,-0.000000
1.490000,-1.760459,-0.441194,-1.425163,1.701121,-0.828424,0.331831,1.590966,-0.647751,1.333228,-1.678974,6.038819,1.095828,-4.084822,13.224765,-21.773547,-0.074963,-0.185527,0.000000,0.684236,0.167419,0.000000
1.500000,-1.743369,-0.449509,-1.421777,1.716946,-0.834597,0.345214,1.573965,-0.586737,1.343082,-1.720446,6.162310,0.873497,-3.708549,12.055772,-22.685776,-0.068025,-0.183798,0.000000,0.703007,0.177460,-0.000000
1.510000,-1.726121,-0.457884,-1.418258,1.732599,-0.840155,0.358685,1.556534,-0.524584,1.350680,-1.766385,6.264730,0.644842,-3.596456,10.529735,-23.488043,-0.060913,-0.181967,0.000000,0.718907,0.188055,0.000000
1.520000,-1.708717,-0.466310,-1.414603,1.748075,-0.845085,0.372220,1.538794,-0.461323,1.355917,-1.775096,6.392098,0.399782,0.019702,12.878200,-25.073405,-0.053635,-0.180047,0.000000,0.737306,0.194624,-0.000000
1.530000,-1.691160,-0.474783,-1.410813,1.763374,-0.849377,0.385795,1.520950,-0.396892,1.358672,-1.804500,6.478945,0.152831,-5.961174,4.415216,-24.291409,-0.046187,-0.178060,0.000000,0.750365,0.203449,0.000000
1.540000,-1.673450,-0.483296,-1.406888,1.778493,-0.853022,0.399385,1.502611,-0.331907,1.358975,-1.857348,6.521703,-0.094702,-2.763018,6.197962,-25.646759,-0.038649,-0.175963,0.000000,0.757612,0.214814,-0.000000
1.550000,-1.655591,-0.491841,-1.402826,1.793426,-0.856013,0.412966,1.483951,-0.266353,1.356724,-1.875508,6.585107,-0.356081,-2.713313,4.408007,-26.174337,-0.031024,-0.173777,0.000000,0.766625,0.222301,-0.000000
1.560000,-1.637583,-0.500414,-1.398628,1.808171,-0.858347,0.426511,1.465036,-0.200444,1.351861,-1.908061,6.589988,-0.616850,-2.679290,2.092858,-26.584351,-0.023346,-0.171509,0.000000,0.768048,0.231219,-0.000000
1.570000,-1.619428,-0.509006,-1.394296,1.822725,-0.860021,0.439994,1.445882,-0.134182,1.344325,-1.918804,6.677785,-0.893190,-0.554669,10.100759,-28.070962,-0.015623,-0.169161,0.000000,0.778372,0.237713,0.000000
1.580000,-1.601129,-0.517612,-1.389829,1.837088,-0.861028,0.453388,1.426610,-0.067216,1.334016,-1.941930,6.679398,-1.165415,-4.102703,-9.940224,-26.341973,-0.007820,-0.166749,0.000000,0.777812,0.245295,-0.000000
1.590000,-1.582687,-0.526224,-1.385228,1.851256,-0.861368,0.466666,1.406989,-0.000947,1.321040,-1.978841,6.587705,-1.431893,-2.179953,-2.969328,-27.545647,-0.000110,-0.164250,0.000000,0.765602,0.254085,0.000000
1.600000,-1.564104,-0.534837,-1.380496,1.865227,-0.861049,0.479800,1.387123,0.064894,1.305326,-1.994754,6.574313,-1.710919,-2.090519,-5.090716,-27.643031,0.007531,-0.161678,0.000000,0.761704,0.260424,-0.000000
1.610000,-1.545383,-0.543443,-1.375633,1.878998,-0.860071,0.492763,1.367175,0.130630,1.286832,-1.991457,6.577974,-1.988009,-1.436759,-5.491228,-27.705389,0.015132,-0.159052,0.000000,0.758972,0.264237,-0.000000
1.620000,-1.526525,-0.552036,-1.370641,1.892570,-0.858438,0.505527,1.346975,0.195521,1.265569,-2.061966,6.360603,-2.264243,-8.594911,-26.966494,-27.582453,0.022600,-0.156357,0.000000,0.729955,0.276162,-0.000000
1.630000,-1.507532,-0.560610,-1.365523,1.905936,-0.856168,0.518065,1.326148,0.258345,1.241546,-2.077919,6.269909,-2.540535,5.532817,9.187126,-27.664191,0.029787,-0.153553,0.000000,0.714963,0.281526,0.000000
1.640000,-1.488407,-0.569158,-1.360281,1.919094,-0.853270,0.530349,1.305650,0.321482,1.214760,-2.033577,6.322119,-2.816152,-0.770880,-9.837120,-27.390486,0.036961,-0.150751,0.000000,0.715673,0.279713,0.000000
1.650000,-1.469151,-0.577673,-1.354917,1.932049,-0.849741,0.542351,1.285174,0.383905,1.185235,-2.058515,6.167638,-3.088539,-0.127162,-9.984022,-27.128183,0.043997,-0.147921,0.000000,0.692066,0.285415,-0.000000
1.660000,-1.449767,-0.586150,-1.349435,1.944797,-0.845596,0.554045,1.264545,0.445032,1.153008,-2.067921,6.055417,-3.355916,0.029605,-10.978392,-26.735703,0.050824,-0.145046,0.000000,0.672828,0.288951,-0.000000
1.670000,-1.430256,-0.594583,-1.343837,1.957340,-0.840844,0.565402,1.243965,0.505101,1.118098,-2.041582,5.961693,-3.626680,3.495926,-9.203708,-27.013587,0.057462,-0.142152,0.000000,0.655178,0.288209,-0.000000
1.680000,-1.410620,-0.602965,-1.338128,1.969677,-0.835497,0.576398,1.223636,0.564166,1.080510,-2.034587,5.841137,-3.887730,-2.158398,-14.956153,-25.170919,0.063915,-0.139265,0.000000,0.634147,0.289211,0.000000
1.690000,-1.390863,-0.611291,-1.332311,1.981812,-0.829566,0.587004,1.203186,0.621815,1.040384,-2.049778,5.691524,-4.137728,0.865089,-13.522992,-25.209566,0.070132,-0.136348,0.000000,0.609652,0.292236,-0.000000
1.700000,-1.370985,-0.619555,-1.326389,1.993741,-0.823065,0.597197,1.182780,0.678076,0.997747,-2.032327,5.558213,-4.388320,0.870012,-14.593340,-24.503431,0.076116,-0.133423,0.000000,0.586732,0.291354,-0.000000
1.710000,-1.350989,-0.627751,-1.320368,2.005468,-0.816010,0.606951,1.162435,0.732683,0.952668,-2.038417,5.354819,-4.625609,0.636222,-16.665691,-23.668273,0.081834,-0.130494,0.000000,0.556011,0.292637,-0.000000
1.720000,-1.330876,-0.635873,-1.314252,2.016990,-0.808417,0.616242,1.142225,0.785869,0.905204,-1.994623,5.311520,-4.868149,5.467530,-1.143538,-24.122657,0.087313,-0.127574,0.000000,0.542866,0.288255,-0.000000
1.730000,-1.310650,-0.643917,-1.308045,2.028314,-0.800294,0.625047,1.122410,0.838418,0.855369,-1.984795,5.139892,-5.093025,-3.589275,-33.465820,-20.819988,0.092637,-0.124694,0.000000,0.515605,0.287173,-0.000000
1.740000,-1.290311,-0.651877,-1.301753,2.039438,-0.791658,0.633343,1.102382,0.888125,0.803414,-2.012884,4.827344,-5.298629,0.643535,-19.801512,-21.003848,0.097567,-0.121791,0.000000,0.473380,0.289751,-0.000000
1.750000,-1.269862,-0.659749,-1.295380,2.050361,-0.782538,0.641108,1.082353,0.935629,0.749375,-1.994671,4.665670,-5.506868,0.332646,-21.723639,-19.925284,0.102177,-0.118893,0.000000,0.447813,0.287127,0.000000
1.760000,-1.249304,-0.667526,-1.288932,2.061085,-0.772952,0.648324,1.062476,0.981331,0.693327,-1.979363,4.477024,-5.701042,0.446250,-22.259564,-18.849565,0.106513,-0.116019,0.000000,0.419687,0.284486,-0.000000
1.770000,-1.228640,-0.675206,-1.282415,2.071611,-0.762919,0.654969,1.042584,1.024644,0.635395,-2.006739,4.163163,-5.883235,-3.705034,-34.405651,-17.633049,0.110516,-0.113153,0.000000,0.378677,0.286124,-0.000000
1.780000,-1.207873,-0.682783,-1.275835,2.081936,-0.752470,0.661026,1.022448,1.064865,0.575698,-2.006926,3.917123,-6.054643,3.737653,-14.591104,-16.644373,0.114118,-0.110274,0.000000,0.345561,0.284557,0.000000
1.790000,-1.187002,-0.690254,-1.269197,2.092061,-0.741628,0.666477,1.002564,1.103293,0.514339,-1.976797,3.748627,-6.214986,0.051807,-25.231927,-15.367860,0.117461,-0.107438,0.000000,0.321155,0.279553,0.000000
1.800000,-1.166032,-0.697615,-1.262507,2.101987,-0.730412,0.671307,0.982739,1.139347,0.451442,-1.986890,3.465085,-6.362344,0.159700,-25.330031,-14.150636,0.120492,-0.104626,0.000000,0.285305,0.278569,0.000000
1.810000,-1.144963,-0.704861,-1.255773,2.111715,-0.718850,0.675501,0.962877,1.172768,0.387129,-1.985658,3.219916,-6.498360,0.120107,-25.498420,-12.921614,0.123188,-0.101832,0.000000,0.254180,0.276183,-0.000000
1.820000,-1.123798,-0.711991,-1.249000,2.121245,-0.706965,0.679045,0.943027,1.203594,0.321527,-1.984187,2.938804,-6.619542,0.140594,-28.945741,-11.436042,0.125562,-0.099061,0.000000,0.220097,0.273557,-0.000000
1.830000,-1.102539,-0.719000,-1.242194,2.130576,-0.694787,0.681928,0.923190,1.231626,0.254774,-1.983553,2.678306,-6.729634,-0.015782,-23.081970,-10.584311,0.127601,-0.096317,0.000000,0.188915,0.270865,-0.000000
1.840000,-1.081187,-0.725886,-1.235363,2.139709,-0.682341,0.684137,0.903353,1.257254,0.186970,-1.983855,2.441884,-6.828695,-0.012406,-25.963750,-9.101667,0.129352,-0.093600,0.000000,0.160916,0.268130,-0.000000
1.850000,-1.059746,-0.732646,-1.228514,2.148643,-0.669651,0.685664,0.883514,1.280330,0.118252,-1.984107,2.174416,-6.912712,-0.072278,-25.744832,-7.826064,0.130808,-0.090910,0.000000,0.130544,0.265234,0.000000
1.860000,-1.038215,-0.739278,-1.221652,2.157379,-0.656743,0.686500,0.863643,1.300778,0.048753,-1.990895,1.915347,-6.985052,-0.251600,-25.609466,-6.552045,0.131969,-0.088247,0.000000,0.101789,0.262890,0.000000
1.870000,-1.016599,-0.745780,-1.214786,2.165916,-0.643643,0.686637,0.843774,1.318679,-0.021399,-1.979632,1.666578,-7.042936,1.499637,-24.566573,-5.113168,0.132851,-0.085615,0.000000,0.074817,0.258619,-0.000000
1.880000,-0.994898,-0.752150,-1.207922,2.174255,-0.630378,0.686070,0.823997,1.334098,-0.092067,-1.981988,1.415127,-7.089176,-2.001962,-25.726732,-4.139053,0.133467,-0.083023,0.000000,0.048307,0.255655,-0.000000
1.890000,-0.973114,-0.758387,-1.201067,2.182395,-0.616970,0.684794,0.804076,1.346969,-0.163145,-1.999346,1.161016,-7.123988,-0.455001,-24.648233,-2.737272,0.133818,-0.080450,0.000000,0.022254,0.254105,0.000000
1.900000,-0.951250,-0.764489,-1.194228,2.190336,-0.603446,0.682806,0.784085,1.357365,-0.234499,-1.999671,0.918622,-7.144725,-0.618536,-24.258430,-1.500754,0.133919,-0.077903,0.000000,-0.001956,0.250799,-0.000000
1.910000,-0.929308,-0.770456,-1.187413,2.198077,-0.589831,0.680104,0.764069,1.365382,-0.306006,-2.003384,0.686606,-7.154913,-0.646667,-23.629046,-0.303815,0.133785,-0.075388,0.000000,-0.024527,0.247802,0.000000
1.920000,-0.907290,-0.776286,-1.180629,2.205617,-0.576147,0.676686,0.743974,1.370997,-0.377538,-2.017381,0.432442,-7.148698,-1.640640,-25.752201,1.313341,0.133421,-0.072898,0.000000,-0.048542,0.245743,-0.000000
1.930000,-0.885196,-0.781978,-1.173882,2.212956,-0.562419,0.672554,0.723744,1.374121,-0.448952,-2.025447,0.202014,-7.133550,0.046470,-20.285519,1.704693,0.132825,-0.070431,0.000000,-0.069708,0.243106,0.000000
1.940000,-0.863031,-0.787534,-1.167180,2.220092,-0.548671,0.667708,0.703492,1.375135,-0.520183,-2.026691,-0.002508,-7.110052,-0.806209,-22.079123,3.221778,0.132038,-0.067996,0.000000,-0.087914,0.239835,0.000000
1.950000,-0.840795,-0.792952,-1.160530,2.227026,-0.534924,0.662151,0.683171,1.373978,-0.591098,-2.037137,-0.227184,-7.071184,-0.767088,-21.402149,4.315586,0.131060,-0.065588,0.000000,-0.107469,0.237425,0.000000
1.960000,-0.818491,-0.798232,-1.153939,2.233755,-0.521199,0.655887,0.662788,1.370434,-0.661573,-2.038697,-0.486715,-7.021999,-0.620340,-21.794348,5.403439,0.129875,-0.063210,0.000000,-0.129804,0.234197,0.000000
1.970000,-0.796121,-0.803376,-1.147415,2.240281,-0.507522,0.648921,0.642315,1.364938,-0.731511,-2.059398,-0.582911,-6.964276,-2.471358,-5.893998,6.244387,0.128530,-0.060857,0.000000,-0.136451,0.232808,0.000000
1.980000,-0.773686,-0.808383,-1.140963,2.246601,-0.493904,0.641259,0.621654,1.358370,-0.800819,-2.066118,-0.781955,-6.894942,1.162314,-34.171288,7.618866,0.127109,-0.058520,0.000000,-0.152386,0.230120,-0.000000
1.990000,-0.751190,-0.813254,-1.134592,2.252714,-0.480365,0.632907,0.601052,1.348852,-0.869371,-2.057275,-1.095136,-6.814256,-0.448268,-19.918564,8.400538,0.125443,-0.056222,0.000000,-0.178395,0.226040,0.000000
2.000000,-0.728633,-0.817991,-1.128307,2.258622,-0.466934,0.623874,0.580431,1.337136,-0.937081,-2.066098,-1.252460,-6.726143,-0.263109,-20.033359,9.324008,0.123604,-0.053956,0.000000,-0.189685,0.223672,0.000000
2.010000,-0.706018,-0.822593,-1.122117,2.264323,-0.453628,0.614169,0.559795,1.323607,-1.003872,-2.060071,-1.452767,-6.630791,0.015140,-19.520597,10.146288,0.121632,-0.051720,0.000000,-0.204654,0.220013,0.000000
2.020000,-0.683347,-0.827064,-1.116026,2.269818,-0.440468,0.603800,0.539121,1.308140,-1.069637,-2.079194,-1.637862,-6.519631,-2.433025,-17.933232,11.681105,0.119518,-0.049513,0.000000,-0.217871,0.218691,-0.000000
2.030000,-0.660622,-0.831403,-1.110043,2.275105,-0.427472,0.592780,0.518285,1.290854,-1.134258,-2.079208,-1.820538,-6.405658,2.469759,-18.578879,11.092193,0.117275,-0.047321,0.000000,-0.230704,0.215720,0.000000
2.040000,-0.637846,-0.835614,-1.104173,2.280184,-0.414657,0.581119,0.497617,1.271739,-1.197748,-2.058423,-1.999179,-6.289952,0.257902,-16.634288,12.440061,0.114905,-0.045175,0.000000,-0.243033,0.210994,-0.000000
2.050000,-0.615019,-0.839697,-1.098422,2.285057,-0.402042,0.568829,0.477010,1.250950,-1.260004,-2.062117,-2.156296,-6.160433,0.413053,-15.209635,13.055962,0.112423,-0.043064,0.000000,-0.253187,0.208545,-0.000000
2.060000,-0.592145,-0.843655,-1.092798,2.289724,-0.389642,0.555923,0.456326,1.229223,-1.320981,-2.076955,-2.169904,-6.034957,0.042654,-10.873014,13.482505,0.109895,-0.040973,0.000000,-0.250609,0.207211,-0.000000
2.070000,-0.569225,-0.847491,-1.087306,2.294184,-0.377463,0.542414,0.435736,1.205799,-1.380572,-2.029869,-2.588305,-5.877598,6.035326,-50.060961,16.573456,0.107257,-0.038918,0.000000,-0.283537,0.200379,-0.000000
2.080000,-0.546262,-0.851205,-1.081952,2.298440,-0.365540,0.528317,0.415559,1.178668,-1.438586,-2.026346,-2.693691,-5.733200,-5.443012,29.714769,12.255244,0.104332,-0.036926,0.000000,-0.288741,0.197620,0.000000
2.090000,-0.523257,-0.854802,-1.076742,2.302494,-0.353882,0.513647,0.395021,1.153258,-1.495298,-2.071502,-2.453212,-5.604130,-0.232570,-4.542551,14.974677,0.101597,-0.034927,0.000000,-0.263944,0.199276,-0.000000
2.100000,-0.500213,-0.858284,-1.071681,2.306341,-0.342475,0.498416,0.374378,1.127947,-1.550547,-2.059676,-2.589873,-5.445879,-0.759618,0.056452,15.253835,0.098909,-0.032942,0.000000,-0.272093,0.195922,-0.000000
2.110000,-0.477131,-0.861653,-1.066775,2.309981,-0.331325,0.482641,0.353668,1.101920,-1.604223,-2.084759,-2.615720,-5.288297,-1.413364,2.249423,15.665827,0.096195,-0.030975,0.000000,-0.270651,0.195902,-0.000000
2.120000,-0.454014,-0.864911,-1.062030,2.313414,-0.320435,0.466337,0.332892,1.076312,-1.656348,-2.061782,-2.476491,-5.138081,3.247238,18.282391,14.950354,0.093554,-0.029024,0.000000,-0.255161,0.191816,-0.000000
2.130000,-0.430864,-0.868062,-1.057450,2.316640,-0.309794,0.449519,0.312282,1.052115,-1.706945,-2.077764,-2.403697,-4.977254,-6.526361,-3.995483,17.230823,0.091068,-0.027108,0.000000,-0.245575,0.191191,-0.000000
2.140000,-0.407682,-0.871108,-1.053041,2.319657,-0.299393,0.432204,0.291173,1.027917,-1.755851,-2.136326,-2.410121,-4.805145,-2.390547,10.006418,16.608390,0.088614,-0.025170,0.000000,-0.242875,0.194280,-0.000000
2.150000,-0.384471,-0.874051,-1.048807,2.322462,-0.289232,0.414408,0.269757,1.004539,-1.803082,-2.149070,-2.267094,-4.640178,-2.926483,11.213743,16.963151,0.086263,-0.023225,0.000000,-0.227627,0.193510,-0.000000
2.160000,-0.361233,-0.876893,-1.044754,2.325052,-0.279300,0.396148,0.248264,0.981886,-1.848600,-2.145798,-2.277674,-4.462064,-2.533860,9.947522,17.412726,0.084003,-0.021291,0.000000,-0.225602,0.191438,-0.000000
2.170000,-0.337971,-0.879638,-1.040886,2.327426,-0.269590,0.377441,0.226358,0.960834,-1.892409,-2.255873,-1.854534,-4.303410,-13.524452,51.990871,15.525495,0.081907,-0.019340,0.000000,-0.187055,0.199138,0.000000
2.180000,-0.314686,-0.882286,-1.037207,2.329576,-0.260069,0.358305,0.203439,0.943685,-1.934597,-2.291243,-1.714113,-4.126207,6.646508,-24.652539,19.951104,0.080166,-0.017320,0.000000,-0.172757,0.200469,-0.000000
2.190000,-0.291380,-0.884840,-1.033721,2.331497,-0.250722,0.338756,0.180858,0.925318,-1.974857,-2.243028,-1.890178,-3.928885,-2.997156,12.272212,18.290366,0.078348,-0.015345,0.000000,-0.185168,0.194802,0.000000
2.200000,-0.268056,-0.887301,-1.030433,2.333192,-0.241559,0.318814,0.158123,0.907624,-2.013258,-2.300076,-1.663139,-3.750090,-2.423384,10.338514,18.682103,0.076609,-0.013373,0.000000,-0.163831,0.198162,-0.000000
2.210000,-0.244717,-0.889671,-1.027346,2.334658,-0.232564,0.298497,0.135011,0.891716,-2.049838,-2.321955,-1.513170,-3.565935,-2.179813,10.814471,18.893441,0.075042,-0.011383,0.000000,-0.149171,0.198620,-0.000000
2.220000,-0.221364,-0.891953,-1.024464,2.335891,-0.223722,0.277823,0.111674,0.876658,-2.084509,-2.345749,-1.528110,-3.365409,-2.354488,-5.216071,20.482519,0.073567,-0.009388,0.000000,-0.148374,0.199311,-0.000000
2.230000,-0.198000,-0.894146,-1.021791,2.336891,-0.215032,0.256813,0.088115,0.861570,-2.117174,-2.364352,-1.437159,-3.171591,-1.360075,23.686750,18.255031,0.072109,-0.007388,0.000000,-0.138868,0.199666,0.000000
2.240000,-0.174627,-0.896254,-1.019329,2.337653,-0.206484,0.235486,0.064407,0.848378,-2.147973,-2.377512,-1.227646,-2.985693,-1.500443,9.571205,19.654130,0.070827,-0.005386,0.000000,-0.119697,0.199659,-0.000000
2.250000,-0.151248,-0.898276,-1.017082,2.338178,-0.198060,0.213860,0.040554,0.836354,-2.176825,-2.392527,-1.171808,-2.784791,-1.282706,10.251055,19.792491,0.069659,-0.003383,0.000000,-0.113368,0.199894,0.000000
2.260000,-0.127864,-0.900215,-1.015053,2.338464,-0.189753,0.191956,0.016475,0.825422,-2.203691,-2.425697,-1.006335,-2.588441,-1.535429,11.732938,19.912016,0.068599,-0.001371,0.000000,-0.098087,0.201731,0.000000
2.270000,-0.104479,-0.902072,-1.013244,2.338507,-0.181549,0.169793,-0.007658,0.815374,-2.228554,-2.388183,-1.039192,-2.382578,5.325474,-7.489776,20.834358,0.067627,0.000636,0.000000,-0.099280,0.197799,-0.000000
2.280000,-0.081095,-0.903847,-1.011658,2.338312,-0.173447,0.147392,-0.031471,0.805195,-2.251359,-2.397127,-0.929119,-2.180696,-7.234026,29.853068,19.527018,0.066659,0.002609,0.000000,-0.088741,0.197831,0.000000
2.290000,-0.057714,-0.905541,-1.010297,2.337876,-0.165436,0.124773,-0.055803,0.797406,-2.272187,-2.457913,-0.660430,-1.983487,-1.182146,12.988077,20.341860,0.065902,0.004619,0.000000,-0.065273,0.202230,0.000000
2.300000,-0.034338,-0.907156,-1.009163,2.337195,-0.157494,0.101955,-0.080344,0.791179,-2.290992,-2.452591,-0.576724,-1.777513,-1.485737,14.620892,20.425525,0.065287,0.006639,0.000000,-0.057105,0.201263,-0.000000
2.310000,-0.010971,-0.908691,-1.008258,2.336269,-0.149608,0.078960,-0.104931,0.786075,-2.307734,-2.464548,-0.445038,-1.570511,-1.485650,15.156612,20.578153,0.064777,0.008659,0.000000,-0.045056,0.201822,0.000000
2.320000,0.012386,-0.910148,-1.007584,2.335096,-0.141767,0.055807,-0.129682,0.782576,-2.322429,-2.487622,-0.242035,-1.369602,-2.563565,22.091366,19.988579,0.064410,0.010688,0.000000,-0.027257,0.203386,-0.000000
2.330000,0.035730,-0.911527,-1.007143,2.333674,-0.133950,0.032518,-0.154657,0.781094,-2.335103,-2.503939,-0.073620,-1.162654,-0.679621,11.475887,21.413145,0.064220,0.012733,0.000000,-0.012334,0.204494,0.000000
2.340000,0.059059,-0.912827,-1.006934,2.332003,-0.126141,0.009112,-0.179730,0.780944,-2.345657,-2.512556,0.054883,-0.949120,-1.609404,17.587145,20.905563,0.064150,0.014785,0.000000,-0.000694,0.205076,0.000000
2.350000,0.082370,-0.914049,-1.006961,2.330079,-0.118325,-0.014388,-0.204951,0.782470,-2.354111,-2.531218,0.249170,-0.741234,-1.551334,17.889459,21.059422,0.064229,0.016847,0.000000,0.016270,0.206577,-0.000000
2.360000,0.105660,-0.915193,-1.007222,2.327903,-0.110485,-0.037963,-0.230317,0.785795,-2.360462,-2.541203,0.414559,-0.528457,-1.397009,17.999565,21.222050,0.064465,0.018922,0.000000,0.030871,0.207473,0.000000
2.370000,0.128927,-0.916259,-1.007720,2.325473,-0.102603,-0.061591,-0.255847,0.790993,-2.364697,-2.567860,0.634851,-0.319309,-3.002140,23.299665,20.874372,0.064865,0.021012,0.000000,0.049932,0.209832,-0.000000
2.380000,0.152168,-0.917245,-1.008454,2.322785,-0.094658,-0.085250,-0.281624,0.798363,-2.366830,-2.581677,0.822637,-0.105368,0.272372,14.155893,21.922484,0.065453,0.023124,0.000000,0.066366,0.211249,0.000000
2.390000,0.175382,-0.918152,-1.009425,2.319840,-0.086631,-0.108920,-0.307425,0.807300,-2.366785,-2.581082,0.973146,0.113760,-1.085019,18.699506,21.634534,0.066180,0.025241,0.000000,0.079806,0.211604,0.000000
2.400000,0.198564,-0.918978,-1.010633,2.316636,-0.078506,-0.132578,-0.333312,0.818038,-2.364571,-2.595333,1.172802,0.329611,-0.827226,18.456012,21.803958,0.067066,0.027371,0.000000,0.097283,0.213277,-0.000000
2.410000,0.221714,-0.919722,-1.012077,2.313173,-0.070264,-0.156204,-0.359300,0.830679,-2.360176,-2.601863,1.354878,0.549602,-0.589616,18.265107,21.981158,0.068120,0.029514,0.000000,0.113399,0.214437,-0.000000
2.420000,0.244827,-0.920382,-1.013757,2.309450,-0.061886,-0.179775,-0.385350,0.845154,-2.353590,-2.608102,1.540767,0.767282,-0.541976,18.588356,21.760581,0.069336,0.031670,0.000000,0.129886,0.215681,0.000000
2.430000,0.267902,-0.920959,-1.015672,2.305466,-0.053355,-0.203269,-0.411448,0.861470,-2.344815,-2.610268,1.719853,0.989132,0.116488,17.205744,22.615283,0.070716,0.033838,0.000000,0.145926,0.216714,0.000000
2.440000,0.290935,-0.921449,-1.017822,2.301221,-0.044651,-0.226663,-0.437540,0.879522,-2.333791,-2.607957,1.890905,1.215409,0.236574,17.305630,22.431610,0.072253,0.036014,0.000000,0.161438,0.217510,-0.000000
2.450000,0.313925,-0.921851,-1.020205,2.296716,-0.035759,-0.249937,-0.463605,0.899297,-2.320518,-2.604498,2.063053,1.439512,0.571804,16.799273,22.595244,0.073946,0.038199,0.000000,0.177146,0.218324,-0.000000
2.460000,0.336869,-0.922163,-1.022820,2.291949,-0.026660,-0.273066,-0.489615,0.920763,-2.304987,-2.596885,2.229374,1.667007,0.925613,16.262753,22.754845,0.075794,0.040392,0.000000,0.192533,0.218925,-0.000000
2.470000,0.359763,-0.922384,-1.025666,2.286924,-0.017338,-0.296029,-0.515533,0.943850,-2.287185,-2.586180,2.386327,1.893222,1.247027,15.301486,22.629431,0.077794,0.042590,0.000000,0.207293,0.219388,0.000000
2.480000,0.382606,-0.922509,-1.028740,2.281639,-0.007778,-0.318802,-0.541324,0.968477,-2.267111,-2.571286,2.539065,2.122561,1.735834,15.241102,23.240768,0.079940,0.044792,0.000000,0.221891,0.219637,0.000000
2.490000,0.405395,-0.922538,-1.032041,2.276098,0.002037,-0.341364,-0.566944,0.994617,-2.244722,-2.551964,2.687197,2.355096,2.103531,14.188155,23.119283,0.082232,0.046996,0.000000,0.236313,0.219654,0.000000
2.500000,0.428128,-0.922468,-1.035566,2.270301,0.012120,-0.363689,-0.592352,1.022180,-2.220017,-2.528913,2.824207,2.586120,2.538018,13.389991,23.226447,0.084663,0.049200,0.000000,0.250002,0.219479,0.000000
2.510000,0.450801,-0.922295,-1.039314,2.264251,0.022485,-0.385756,-0.617504,1.051079,-2.192991,-2.500737,2.954141,2.819253,2.999633,12.527218,23.314507,0.087231,0.051401,0.000000,0.263330,0.219009,0.000000
2.520000,0.473412,-0.922017,-1.043281,2.257952,0.033145,-0.407541,-0.642359,1.081229,-2.163636,-2.469791,3.074009,3.051583,3.289718,11.495160,23.227468,0.089928,0.053596,0.000000,0.276038,0.218424,0.000000
2.530000,0.495959,-0.921631,-1.047464,2.251405,0.044113,-0.429021,-0.666879,1.112530,-2.131954,-2.432844,3.185079,3.285393,4.105102,10.711478,23.532598,0.092750,0.055785,0.000000,0.288260,0.217466,0.000000
2.540000,0.518439,-0.921134,-1.051860,2.244616,0.055399,-0.450172,-0.690994,1.144900,-2.097923,-2.389617,3.286886,3.520534,4.443886,9.582729,23.410413,0.095691,0.057963,0.000000,0.299966,0.216106,-0.000000
2.550000,0.540850,-0.920522,-1.056466,2.237587,0.067014,-0.470972,-0.714662,1.178228,-2.061550,-2.343089,3.377058,3.754183,4.961819,8.501780,23.394493,0.098746,0.060127,0.000000,0.310943,0.214575,0.000000
2.560000,0.563190,-0.919792,-1.061278,2.230324,0.078967,-0.491396,-0.737833,1.212406,-2.022839,-2.289966,3.456609,3.987815,5.501803,7.370969,23.339153,0.101908,0.062274,0.000000,0.321295,0.212601,-0.000000
2.570000,0.585456,-0.918941,-1.066292,2.222832,0.091265,-0.511421,-0.760457,1.247320,-1.981795,-2.234520,3.524047,4.220968,5.746148,6.137494,23.272590,0.105170,0.064401,0.000000,0.330894,0.210533,-0.000000
2.580000,0.607646,-0.917966,-1.071505,2.215117,0.103915,-0.531024,-0.782497,1.282848,-1.938424,-2.171711,3.579806,4.452872,6.821474,5.007581,23.101272,0.108524,0.066506,0.000000,0.339775,0.207937,-0.000000
2.590000,0.629758,-0.916862,-1.076911,2.207184,0.116924,-0.550182,-0.803864,1.318876,-1.892743,-2.101269,3.623475,4.683113,7.108086,3.690171,22.952482,0.111963,0.068583,0.000000,0.347901,0.204779,-0.000000
2.600000,0.651789,-0.915626,-1.082507,2.199042,0.130294,-0.568871,-0.824517,1.355272,-1.844767,-2.028192,3.653717,4.911670,7.666037,2.379763,22.738331,0.115479,0.070627,0.000000,0.355155,0.201471,-0.000000
2.610000,0.673738,-0.914255,-1.088287,2.190697,0.144030,-0.587069,-0.844401,1.391909,-1.794521,-1.947720,3.671478,5.137078,8.234007,1.040791,22.464144,0.119063,0.072637,0.000000,0.361599,0.197590,-0.000000
2.620000,0.695602,-0.912744,-1.094247,2.182157,0.158133,-0.604754,-0.863468,1.428647,-1.742025,-1.865312,3.673251,5.361975,8.434843,-0.571145,22.382085,0.122707,0.074607,0.000000,0.366954,0.193608,-0.000000
2.630000,0.717380,-0.911091,-1.100381,2.173430,0.172603,-0.621902,-0.881680,1.465333,-1.687299,-1.775096,3.662477,5.581925,9.612712,-1.586042,21.595354,0.126400,0.076536,0.000000,0.371459,0.188983,0.000000
2.640000,0.739070,-0.909291,-1.106683,2.164526,0.187439,-0.638493,-0.898942,1.501855,-1.630406,-1.676902,3.638953,5.796234,9.833891,-3.247466,21.383657,0.130133,0.078415,0.000000,0.375079,0.183677,0.000000
2.650000,0.760670,-0.907341,-1.113148,2.155455,0.202639,-0.654503,-0.915215,1.538054,-1.571379,-1.576851,3.598450,6.008343,10.363075,-4.736767,20.902972,0.133897,0.080241,0.000000,0.377467,0.178225,0.000000
2.660000,0.782179,-0.905237,-1.119771,2.146225,0.218198,-0.669913,-0.930455,1.573769,-1.510264,-1.470205,3.541856,6.213578,10.871566,-6.299541,20.350161,0.137678,0.082009,0.000000,0.378629,0.172170,0.000000
2.670000,0.803594,-0.902976,-1.126545,2.136849,0.234112,-0.684702,-0.944610,1.608862,-1.447109,-1.360352,3.475011,6.417150,11.185149,-7.354762,20.144331,0.141468,0.083716,0.000000,0.379109,0.165826,-0.000000
2.680000,0.824915,-0.900554,-1.133463,2.127337,0.250373,-0.698849,-0.957642,1.643202,-1.381952,-1.244694,3.388781,6.611853,11.944649,-9.904620,18.779698,0.145255,0.085357,0.000000,0.378007,0.158896,-0.000000
2.690000,0.846141,-0.897967,-1.140519,2.117700,0.266973,-0.712335,-0.969485,1.676568,-1.314906,-1.123381,3.282496,6.796799,12.221845,-11.073903,18.411747,0.149022,0.086926,0.000000,0.375210,0.151362,0.000000
2.700000,0.867269,-0.895213,-1.147707,2.107951,0.283901,-0.725141,-0.980103,1.708819,-1.246025,-0.999595,3.164823,6.978081,12.620103,-12.746497,17.623054,0.152757,0.088418,0.000000,0.371518,0.143531,-0.000000
2.710000,0.888299,-0.892288,-1.155020,2.098102,0.301145,-0.737249,-0.989483,1.739738,-1.175383,-0.876444,3.014163,7.148720,12.879302,-14.715446,16.757616,0.156441,0.089830,0.000000,0.364887,0.135607,0.000000
2.720000,0.909231,-0.889189,-1.162450,2.088166,0.318691,-0.748643,-0.997553,1.769254,-1.103059,-0.734080,2.895079,7.315451,14.738059,-11.693928,16.323197,0.160068,0.091156,0.000000,0.361116,0.125847,-0.000000
2.730000,0.930062,-0.885913,-1.169990,2.078156,0.336525,-0.759305,-1.004198,1.797453,-1.029118,-0.599638,2.725874,7.469619,12.117695,-22.225227,14.492360,0.163646,0.092382,0.000000,0.352778,0.116574,-0.000000
2.740000,0.950794,-0.882458,-1.177634,2.068086,0.354632,-0.769220,-1.009584,1.823572,-0.953714,-0.474665,2.503114,7.610264,13.728338,-19.703396,13.884283,0.167105,0.093522,0.000000,0.339407,0.107927,0.000000
2.750000,0.971424,-0.878820,-1.185372,2.057969,0.372990,-0.778375,-1.013618,1.847659,-0.876928,-0.332468,2.309720,7.744915,13.850397,-21.575884,12.779328,0.170447,0.094564,0.000000,0.328547,0.097522,-0.000000
2.760000,0.991953,-0.874997,-1.193198,2.047818,0.391578,-0.786755,-1.016253,1.869580,-0.798861,-0.194359,2.069793,7.866461,13.970913,-23.533498,11.620771,0.173658,0.095501,0.000000,0.313164,0.087207,-0.000000
2.770000,1.012380,-0.870988,-1.201105,2.037649,0.410374,-0.794348,-1.017486,1.889223,-0.719630,-0.051271,1.865701,7.978064,14.442800,-20.044735,10.592534,0.176725,0.096332,0.000000,0.300749,0.076157,0.000000
2.780000,1.032706,-0.866789,-1.209083,2.027474,0.429356,-0.801144,-1.017285,1.906705,-0.639346,0.090225,1.610983,8.076070,13.845364,-30.962492,8.996148,0.179654,0.097048,0.000000,0.283299,0.064921,-0.000000
2.790000,1.052930,-0.862400,-1.217125,2.017308,0.448498,-0.807132,-1.015690,1.921244,-0.558157,0.229563,1.303166,8.159777,14.218388,-27.767814,7.834715,0.182370,0.097651,0.000000,0.260390,0.053531,0.000000
2.800000,1.073052,-0.857819,-1.225223,2.007164,0.467771,-0.812304,-1.012678,1.932940,-0.476188,0.372803,1.032438,8.231743,14.225274,-29.139467,6.451094,0.184876,0.098134,0.000000,0.240367,0.041417,-0.000000
2.810000,1.093073,-0.853044,-1.233368,1.997059,0.487148,-0.816654,-1.008170,1.942033,-0.393592,0.530752,0.791431,8.284505,14.531201,-29.014309,4.928195,0.187189,0.098486,0.000000,0.222467,0.027445,0.000000
2.820000,1.112993,-0.848076,-1.241553,1.987006,0.506602,-0.820174,-1.002283,1.947965,-0.310481,0.637288,0.360958,8.337832,9.513612,-47.355273,4.918679,0.189248,0.098713,0.000000,0.186117,0.018111,-0.000000
2.830000,1.132813,-0.842912,-1.249769,1.977017,0.526093,-0.822862,-0.995288,1.949717,-0.226926,0.778491,0.048461,8.365708,18.803993,-14.810052,0.624394,0.190951,0.098840,0.000000,0.159854,0.004948,0.000000
