time,x,y,z,vx,vy,vz,ax,ay,az,jx,jy,jz,sx,sy,sz,roll,pitch,yaw,p,q,r
0.000000,-2.988347,0.294028,-1.496351,0.014441,-0.008883,-0.001382,0.032207,0.577721,-0.013843,0.483052,21.051098,-0.149100,-85.466078,-702.236919,46.676351,0.058740,-0.003278,0.000000,2.134562,-0.049036,0.000000
0.010000,-2.988202,0.293939,-1.496364,0.014763,-0.003106,-0.001521,0.037038,0.788232,-0.015334,-0.371609,14.028729,0.317664,-115.479852,-1505.100587,66.772214,0.080052,-0.003770,0.000000,1.421260,0.037578,-0.000000
0.020000,-2.988051,0.293966,-1.496381,0.015182,0.006882,-0.001689,0.024775,0.858296,-0.007490,-1.826545,-9.050914,1.186344,-57.823846,-1820.476821,50.834392,0.087203,-0.002524,0.000000,-0.904397,0.185038,-0.000000
0.030000,-2.987899,0.294077,-1.496398,0.015258,0.014060,-0.001671,0.000507,0.607214,0.008393,-1.528086,-22.380807,1.334351,96.037647,-417.672159,-15.649173,0.061871,-0.000052,0.000000,-2.266250,0.155596,-0.000000
0.040000,-2.987746,0.294247,-1.496414,0.015192,0.019026,-0.001521,-0.005787,0.410680,0.019197,0.094208,-17.404357,0.873361,145.779007,452.678633,-41.700764,0.041921,0.000591,0.000000,-1.770765,-0.009561,-0.000000
0.050000,-2.987595,0.294457,-1.496429,0.015143,0.022274,-0.001287,0.002391,0.259127,0.025860,1.387494,-13.327235,0.500336,114.947455,368.300912,-33.455971,0.026478,-0.000244,0.000000,-1.359819,-0.141773,-0.000000
0.060000,-2.987443,0.294693,-1.496440,0.015240,0.024209,-0.001004,0.021963,0.144135,0.029204,2.393157,-10.038339,0.204241,88.123556,294.686208,-26.279560,0.014735,-0.002246,0.000000,-1.025806,-0.244698,-0.000000
0.070000,-2.987290,0.294942,-1.496449,0.015582,0.025157,-0.000703,0.050254,0.058360,0.029945,3.149965,-7.433511,-0.025255,65.046020,231.139952,-20.101158,0.005967,-0.005138,0.000000,-0.760057,-0.322053,-0.000000
0.080000,-2.987132,0.295196,-1.496454,0.016245,0.025376,-0.000405,0.084962,-0.004535,0.028699,3.694077,-5.415540,-0.197782,45.453592,176.967576,-14.850404,-0.000464,-0.008686,0.000000,-0.553631,-0.377463,-0.000000
0.090000,-2.986965,0.295449,-1.496457,0.017281,0.025066,-0.000129,0.124136,-0.049951,0.025989,4.059037,-3.894159,-0.322263,29.084980,131.474510,-10.456922,-0.005105,-0.012687,0.000000,-0.397775,-0.414374,0.000000
0.100000,-2.986786,0.295697,-1.496457,0.018727,0.024377,0.000115,0.166143,-0.082418,0.022253,4.275777,-2.786049,-0.406920,15.678886,93.966186,-6.850333,-0.008419,-0.016973,0.000000,-0.284173,-0.436003,-0.000000
0.110000,-2.986591,0.295937,-1.496454,0.020604,0.023418,0.000317,0.209651,-0.105672,0.017851,4.372615,-2.014835,-0.459270,4.974064,63.748034,-3.960273,-0.010789,-0.021407,0.000000,-0.205080,-0.445309,-0.000000
0.120000,-2.986374,0.296165,-1.496450,0.022920,0.022263,0.000472,0.253595,-0.122715,0.013068,4.375258,-1.511089,-0.486126,-3.290844,40.125485,-1.716387,-0.012521,-0.025879,0.000000,-0.153400,-0.444977,-0.000000
0.130000,-2.986132,0.296382,-1.496445,0.025676,0.020963,0.000578,0.297156,-0.135893,0.008128,4.306798,-1.212326,-0.493598,-9.377120,22.403969,-0.048296,-0.013857,-0.030307,0.000000,-0.122721,-0.437415,-0.000000
0.140000,-2.985861,0.296585,-1.496439,0.028863,0.019546,0.000634,0.339731,-0.146962,0.003196,4.187716,-1.063009,-0.487092,-13.545779,9.888925,1.114415,-0.014976,-0.034629,0.000000,-0.107342,-0.424743,0.000000
0.150000,-2.985555,0.296773,-1.496432,0.032471,0.018024,0.000642,0.380911,-0.157154,-0.001614,4.035882,-1.014547,-0.471309,-16.058306,1.885778,1.842076,-0.016004,-0.038803,0.000000,-0.102276,-0.408804,-0.000000
0.160000,-2.985211,0.296945,-1.496426,0.036482,0.016402,0.000602,0.420449,-0.167253,-0.006230,3.866550,-1.025294,-0.450250,-17.176299,-2.300050,2.205013,-0.017021,-0.042806,0.000000,-0.103257,-0.391155,-0.000000
0.170000,-2.984825,0.297101,-1.496420,0.040880,0.014679,0.000517,0.458242,-0.177660,-0.010619,3.692356,-1.060548,-0.427209,-17.198105,-3.460603,2.284581,-0.018069,-0.046627,0.000000,-0.106739,-0.373077,0.000000
0.180000,-2.984394,0.297239,-1.496416,0.045646,0.012849,0.000390,0.494296,-0.188464,-0.014774,3.522587,-1.094506,-0.404558,-17.039300,-3.993767,2.341936,-0.019156,-0.050269,0.000000,-0.110090,-0.355504,0.000000
0.190000,-2.983912,0.297358,-1.496413,0.050765,0.010910,0.000222,0.528693,-0.199550,-0.018710,3.351570,-1.140424,-0.380370,-16.735156,-4.005116,2.381440,-0.020271,-0.053739,0.000000,-0.114662,-0.337869,0.000000
0.200000,-2.983378,0.297457,-1.496411,0.056220,0.008858,0.000015,0.561328,-0.211272,-0.022382,3.187884,-1.174608,-0.356930,-11.718020,8.379619,1.065702,-0.021449,-0.057028,0.000000,-0.118043,-0.321030,0.000000
0.210000,-2.982788,0.297535,-1.496412,0.061992,0.006684,-0.000226,0.592451,-0.223042,-0.025848,3.117210,-0.972831,-0.359056,-2.766472,31.119226,-1.384082,-0.022632,-0.060161,0.000000,-0.097424,-0.313506,0.000000
0.220000,-2.982138,0.297591,-1.496416,0.068069,0.004397,-0.000502,0.623672,-0.230729,-0.029563,3.132555,-0.552224,-0.384611,-3.991063,27.471513,-0.861053,-0.023398,-0.063299,0.000000,-0.054599,-0.314536,-0.000000
0.230000,-2.981427,0.297623,-1.496422,0.074465,0.002070,-0.000817,0.655102,-0.234086,-0.033541,3.037389,-0.423401,-0.376277,-15.957912,-4.056671,2.776203,-0.023724,-0.066453,0.000000,-0.041507,-0.304588,0.000000
0.240000,-2.980649,0.297632,-1.496432,0.081171,-0.000284,-0.001172,0.684420,-0.239197,-0.037088,2.813397,-0.633357,-0.329087,-19.686848,-14.075752,3.994698,-0.024228,-0.069393,0.000000,-0.062843,-0.281940,0.000000
0.250000,-2.979803,0.297617,-1.496446,0.088154,-0.002714,-0.001559,0.711370,-0.246753,-0.040122,2.643652,-0.704916,-0.296383,-13.021406,3.050768,2.291540,-0.024981,-0.072094,0.000000,-0.070105,-0.264751,-0.000000
0.260000,-2.978886,0.297578,-1.496463,0.095399,-0.005219,-0.001975,0.737293,-0.253295,-0.043016,2.552969,-0.572342,-0.283256,-9.027966,13.294684,1.456099,-0.025630,-0.074690,0.000000,-0.056662,-0.255439,0.000000
0.270000,-2.977895,0.297513,-1.496485,0.102900,-0.007780,-0.002419,0.762429,-0.258200,-0.045788,2.463093,-0.439022,-0.267261,-10.096702,10.309329,1.802155,-0.026114,-0.077205,0.000000,-0.043176,-0.246257,-0.000000
0.280000,-2.976828,0.297422,-1.496512,0.110647,-0.010383,-0.002891,0.786554,-0.262075,-0.048361,2.351034,-0.366155,-0.247213,-11.778883,5.628176,2.020705,-0.026494,-0.079617,0.000000,-0.035837,-0.234902,-0.000000
0.290000,-2.975682,0.297305,-1.496543,0.118631,-0.013022,-0.003386,0.809450,-0.265523,-0.050732,2.227515,-0.326459,-0.226847,-12.059503,4.643469,2.041996,-0.026831,-0.081905,0.000000,-0.031865,-0.222430,0.000000
0.300000,-2.974455,0.297162,-1.496579,0.126836,-0.015694,-0.003905,0.831105,-0.268605,-0.052898,2.109844,-0.273286,-0.206373,-11.426157,6.304057,2.053145,-0.027131,-0.084067,0.000000,-0.026541,-0.210581,-0.000000
0.310000,-2.973145,0.296991,-1.496621,0.135253,-0.018394,-0.004444,0.851647,-0.270989,-0.054859,1.998992,-0.200378,-0.185784,-11.091276,7.315514,2.054654,-0.027362,-0.086118,0.000000,-0.019236,-0.199450,0.000000
0.320000,-2.971750,0.296794,-1.496668,0.143869,-0.021114,-0.005002,0.871085,-0.272612,-0.056614,1.888019,-0.126975,-0.165280,-11.047771,7.051924,2.024095,-0.027516,-0.088058,0.000000,-0.011891,-0.188336,0.000000
0.330000,-2.970268,0.296569,-1.496721,0.152675,-0.023846,-0.005577,0.889407,-0.273529,-0.058165,1.778036,-0.059339,-0.145303,-10.877544,6.596054,1.963343,-0.027599,-0.089886,0.000000,-0.005137,-0.177343,0.000000
0.340000,-2.968697,0.296317,-1.496780,0.161657,-0.026584,-0.006166,0.906645,-0.273799,-0.059520,1.670468,0.004946,-0.126013,-10.699854,6.496935,1.902821,-0.027619,-0.091606,0.000000,0.001274,-0.166612,-0.000000
0.350000,-2.967035,0.296037,-1.496844,0.170807,-0.029322,-0.006767,0.922817,-0.273430,-0.060685,1.564039,0.070600,-0.107246,-10.621927,6.674858,1.851888,-0.027574,-0.093220,0.000000,0.007818,-0.156014,0.000000
0.360000,-2.965281,0.295730,-1.496915,0.180114,-0.032053,-0.007379,0.937926,-0.272387,-0.061665,1.458029,0.138443,-0.088976,-10.543067,6.791842,1.790010,-0.027462,-0.094728,0.000000,0.014578,-0.145473,0.000000
0.370000,-2.963433,0.295396,-1.496992,0.189566,-0.034770,-0.008000,0.951977,-0.270661,-0.062465,1.353178,0.206436,-0.071446,-10.342007,6.746431,1.696545,-0.027282,-0.096130,0.000000,0.021351,-0.135061,0.000000
0.380000,-2.961489,0.295035,-1.497075,0.199153,-0.037466,-0.008629,0.964990,-0.268258,-0.063094,1.251189,0.273371,-0.055045,-10.054590,6.656614,1.578080,-0.027035,-0.097430,0.000000,0.028018,-0.124943,0.000000
0.390000,-2.959450,0.294647,-1.497165,0.208866,-0.040135,-0.009262,0.977001,-0.265193,-0.063566,1.152086,0.339569,-0.039884,-9.836379,6.631110,1.462374,-0.026722,-0.098630,0.000000,0.034612,-0.115116,-0.000000
0.400000,-2.957312,0.294232,-1.497260,0.218693,-0.042770,-0.009900,0.988031,-0.261467,-0.063891,1.054462,0.405994,-0.025797,-9.664957,6.620780,1.354620,-0.026343,-0.099733,0.000000,0.041232,-0.105439,0.000000
0.410000,-2.955076,0.293792,-1.497363,0.228626,-0.045364,-0.010540,0.998090,-0.257073,-0.064081,0.958787,0.471984,-0.012792,-9.439428,6.561491,1.237051,-0.025897,-0.100740,0.000000,0.047811,-0.095957,0.000000
0.420000,-2.952740,0.293325,-1.497471,0.238655,-0.047911,-0.011182,1.007207,-0.252027,-0.064147,0.865673,0.537223,-0.001056,-9.246073,6.577569,1.100247,-0.025387,-0.101653,0.000000,0.054319,-0.086729,-0.000000
0.430000,-2.950303,0.292833,-1.497586,0.248771,-0.050405,-0.011823,1.015404,-0.246329,-0.064103,0.773865,0.603536,0.009213,-9.120788,6.697480,0.950792,-0.024811,-0.102475,0.000000,0.060940,-0.077624,-0.000000
0.440000,-2.947764,0.292317,-1.497708,0.258963,-0.052838,-0.012464,1.022684,-0.239956,-0.063963,0.683257,0.671173,0.017960,-8.937234,6.745961,0.801813,-0.024168,-0.103206,0.000000,0.067701,-0.068630,0.000000
0.450000,-2.945123,0.291777,-1.497836,0.269224,-0.055204,-0.013102,1.029069,-0.232906,-0.063743,0.595121,0.738455,0.025249,-8.701619,6.700400,0.656076,-0.023457,-0.103848,0.000000,0.074432,-0.059873,-0.000000
0.460000,-2.942380,0.291213,-1.497970,0.279545,-0.057496,-0.013738,1.034587,-0.225187,-0.063458,0.509225,0.805181,0.031081,-8.499129,6.681069,0.506142,-0.022679,-0.104404,0.000000,0.081115,-0.051328,-0.000000
0.470000,-2.939532,0.290627,-1.498110,0.289916,-0.059708,-0.014371,1.039253,-0.216802,-0.063122,0.425138,0.872076,0.035372,-8.269557,6.705520,0.347475,-0.021835,-0.104875,0.000000,0.087822,-0.042951,0.000000
0.480000,-2.936581,0.290019,-1.498257,0.300330,-0.061832,-0.015001,1.043090,-0.207746,-0.062751,0.343834,0.939291,0.038031,-7.981277,6.731401,0.183617,-0.020923,-0.105263,0.000000,0.094568,-0.034837,0.000000
0.490000,-2.933526,0.289390,-1.498410,0.310778,-0.063863,-0.015627,1.046130,-0.198016,-0.062361,0.265513,1.006704,0.039044,-7.725004,6.744897,0.022165,-0.019943,-0.105572,0.000000,0.101342,-0.027005,0.000000
0.500000,-2.930366,0.288741,-1.498570,0.321252,-0.065792,-0.016248,1.048400,-0.187612,-0.061970,0.189334,1.074189,0.038474,-7.509583,6.752648,-0.135291,-0.018896,-0.105803,0.000000,0.108130,-0.019371,-0.000000
0.510000,-2.927101,0.288074,-1.498735,0.331746,-0.067615,-0.016866,1.049917,-0.176532,-0.061592,0.115321,1.141757,0.036339,-7.273240,6.761364,-0.292274,-0.017781,-0.105959,0.000000,0.114933,-0.011937,-0.000000
0.520000,-2.923731,0.287389,-1.498907,0.342251,-0.069323,-0.017480,1.050706,-0.164777,-0.061243,0.043869,1.209417,0.032628,-7.023938,6.763550,-0.449433,-0.016597,-0.106042,0.000000,0.121751,-0.004742,0.000000
0.530000,-2.920256,0.286688,-1.499085,0.352760,-0.070910,-0.018091,1.050794,-0.152344,-0.060939,-0.025158,1.277028,0.027350,-6.786154,6.754239,-0.604224,-0.015346,-0.106054,0.000000,0.128569,0.002228,-0.000000
0.540000,-2.916676,0.285971,-1.499269,0.363267,-0.072370,-0.018699,1.050203,-0.139236,-0.060696,-0.091854,1.344501,0.020544,-6.543835,6.743465,-0.753905,-0.014026,-0.105997,0.000000,0.135378,0.008982,-0.000000
0.550000,-2.912990,0.285240,-1.499459,0.373764,-0.073695,-0.019305,1.048957,-0.125454,-0.060528,-0.156034,1.411898,0.012272,-6.279554,6.744409,-0.898245,-0.012638,-0.105874,0.000000,0.142182,0.015500,0.000000
0.560000,-2.909200,0.284497,-1.499655,0.384246,-0.074879,-0.019909,1.047082,-0.110998,-0.060450,-0.217445,1.479390,0.002579,-6.006837,6.748319,-1.037372,-0.011182,-0.105687,0.000000,0.148997,0.021756,-0.000000
0.570000,-2.905306,0.283743,-1.499857,0.394706,-0.075915,-0.020514,1.044608,-0.095866,-0.060477,-0.276171,1.546864,-0.008476,-5.765205,6.718568,-1.168375,-0.009658,-0.105439,0.000000,0.155811,0.027758,0.000000
0.580000,-2.901306,0.282979,-1.500065,0.405138,-0.076796,-0.021119,1.041559,-0.080061,-0.060620,-0.332749,1.613761,-0.020788,-5.550050,6.657891,-1.289424,-0.008066,-0.105132,0.000000,0.162567,0.033559,-0.000000
0.590000,-2.897203,0.282207,-1.500279,0.415537,-0.077516,-0.021726,1.037953,-0.063591,-0.060892,-0.387172,1.680022,-0.034264,-5.309107,6.614852,-1.402439,-0.006407,-0.104768,0.000000,0.169255,0.039155,-0.000000
0.600000,-2.892996,0.281428,-1.500500,0.425897,-0.078068,-0.022337,1.033816,-0.046460,-0.061305,-0.438931,1.746058,-0.048837,-5.050015,6.582788,-1.509788,-0.004681,-0.104349,0.000000,0.175918,0.044495,0.000000
0.610000,-2.888685,0.280645,-1.500726,0.436213,-0.078445,-0.022952,1.029175,-0.028670,-0.061869,-0.488172,1.811677,-0.064460,-4.807172,6.529533,-1.608345,-0.002889,-0.103878,0.000000,0.182532,0.049592,-0.000000
0.620000,-2.884271,0.279860,-1.500959,0.446480,-0.078642,-0.023574,1.024052,-0.010227,-0.062594,-0.535075,1.876649,-0.081004,-4.548802,6.483618,-1.688388,-0.001030,-0.103357,0.000000,0.189075,0.054463,0.000000
0.630000,-2.879755,0.279073,-1.501198,0.456694,-0.078650,-0.024204,1.018473,0.008863,-0.063489,-0.579149,1.941350,-0.098228,-4.261884,6.456860,-1.748932,0.000893,-0.102789,0.000000,0.195581,0.059055,-0.000000
0.640000,-2.875137,0.278287,-1.501443,0.466850,-0.078464,-0.024844,1.012469,0.028600,-0.064559,-0.620313,2.005786,-0.115983,-3.993328,6.406796,-1.801162,0.002881,-0.102176,0.000000,0.202050,0.063357,0.000000
0.650000,-2.870418,0.277503,-1.501694,0.476944,-0.078078,-0.025495,1.006067,0.048979,-0.065809,-0.659015,2.069486,-0.134251,-3.748139,6.330342,-1.849141,0.004934,-0.101522,0.000000,0.208434,0.067415,-0.000000
0.660000,-2.865599,0.276725,-1.501953,0.486971,-0.077485,-0.026160,0.999289,0.069990,-0.067244,-0.695275,2.132393,-0.152966,-3.494521,6.256050,-1.883603,0.007050,-0.100828,0.000000,0.214724,0.071228,0.000000
0.670000,-2.860679,0.275954,-1.502218,0.496929,-0.076678,-0.026840,0.992161,0.091627,-0.068868,-0.728906,2.194607,-0.171923,-3.233996,6.177829,-1.891952,0.009228,-0.100097,0.000000,0.220930,0.074775,-0.000000
0.680000,-2.855660,0.275191,-1.502490,0.506814,-0.075652,-0.027537,0.984711,0.113882,-0.070683,-0.759955,2.255949,-0.190805,-2.978396,6.084670,-1.875297,0.011468,-0.099332,0.000000,0.227032,0.078057,0.000000
0.690000,-2.850543,0.274441,-1.502768,0.516624,-0.074401,-0.028254,0.976962,0.136746,-0.072684,-0.788473,2.316300,-0.209429,-2.723335,5.986913,-1.848629,0.013769,-0.098536,0.000000,0.233017,0.081078,-0.000000
0.700000,-2.845327,0.273703,-1.503055,0.526354,-0.072917,-0.028991,0.968941,0.160208,-0.074871,-0.814422,2.375688,-0.227777,-2.465606,5.888831,-1.817425,0.016129,-0.097711,0.000000,0.238888,0.083833,-0.000000
0.710000,-2.840015,0.272982,-1.503348,0.536002,-0.071196,-0.029751,0.960674,0.184260,-0.077240,-0.837786,2.434077,-0.245777,-2.209262,5.782329,-1.770127,0.018547,-0.096859,0.000000,0.244640,0.086319,0.000000
0.720000,-2.834607,0.272279,-1.503650,0.545567,-0.069232,-0.030536,0.952186,0.208890,-0.079787,-0.858607,2.491334,-0.263180,-1.959205,5.660263,-1.690646,0.021021,-0.095984,0.000000,0.250259,0.088539,-0.000000
0.730000,-2.829104,0.271598,-1.503959,0.555046,-0.067019,-0.031347,0.943502,0.234086,-0.082503,-0.876970,2.547282,-0.279590,-1.714713,5.524799,-1.580862,0.023552,-0.095088,0.000000,0.255729,0.090497,0.000000
0.740000,-2.823506,0.270939,-1.504277,0.564437,-0.064550,-0.032186,0.934646,0.259835,-0.085378,-0.892901,2.601830,-0.294797,-1.470039,5.384440,-1.460895,0.026136,-0.094173,0.000000,0.261039,0.092194,-0.000000
0.750000,-2.817815,0.270307,-1.504603,0.573739,-0.061822,-0.033055,0.925644,0.286123,-0.088399,-0.906370,2.654971,-0.308808,-1.223807,5.239979,-1.338054,0.028772,-0.093243,0.000000,0.266191,0.093627,0.000000
0.760000,-2.812032,0.269703,-1.504938,0.582950,-0.058828,-0.033954,0.916519,0.312935,-0.091555,-0.917378,2.706630,-0.321558,-0.980385,5.085336,-1.197641,0.031460,-0.092300,0.000000,0.271176,0.094796,-0.000000
0.770000,-2.806156,0.269130,-1.505282,0.592069,-0.055563,-0.034886,0.907296,0.340255,-0.094831,-0.925978,2.756678,-0.332761,-0.743966,4.918239,-1.019925,0.034196,-0.091346,0.000000,0.275984,0.095705,-0.000000
0.780000,-2.800190,0.268591,-1.505635,0.601096,-0.052023,-0.035851,0.897999,0.368068,-0.098210,-0.932257,2.804994,-0.341957,-0.513824,4.740620,-0.807925,0.036979,-0.090385,0.000000,0.280605,0.096359,-0.000000
0.790000,-2.794134,0.268090,-1.505999,0.610029,-0.048202,-0.036850,0.888651,0.396355,-0.101670,-0.936255,2.851490,-0.348919,-0.284968,4.554601,-0.587167,0.039808,-0.089418,0.000000,0.285032,0.096761,0.000000
0.800000,-2.787990,0.267627,-1.506372,0.618869,-0.044096,-0.037884,0.879274,0.425098,-0.105188,-0.937956,2.896087,-0.353700,-0.054963,4.358952,-0.366752,0.042680,-0.088448,0.000000,0.289260,0.096910,0.000000
0.810000,-2.781757,0.267208,-1.506756,0.627615,-0.039700,-0.038954,0.869892,0.454277,-0.108744,-0.937354,2.938669,-0.356254,0.172319,4.152110,-0.128755,0.045593,-0.087478,0.000000,0.293280,0.096807,-0.000000
0.820000,-2.775437,0.266833,-1.507151,0.636267,-0.035010,-0.040059,0.860527,0.483871,-0.112313,-0.934510,2.979129,-0.356275,0.389813,3.936693,0.149859,0.048545,-0.086510,0.000000,0.297084,0.096457,-0.000000
0.830000,-2.769032,0.266507,-1.507558,0.644825,-0.030022,-0.041200,0.851202,0.513860,-0.115869,-0.929558,3.017403,-0.353257,0.598040,3.713757,0.464745,0.051535,-0.085547,0.000000,0.300671,0.095869,0.000000
0.840000,-2.762541,0.266233,-1.507975,0.653291,-0.024733,-0.042376,0.841936,0.544219,-0.119378,-0.922549,3.053404,-0.346980,0.806123,3.478983,0.785319,0.054559,-0.084590,0.000000,0.304038,0.095048,-0.000000
0.850000,-2.755966,0.266013,-1.508405,0.661664,-0.019138,-0.043587,0.832751,0.574928,-0.122809,-0.913435,3.086983,-0.337551,1.017668,3.227015,1.101020,0.057615,-0.083643,0.000000,0.307173,0.093993,0.000000
0.860000,-2.749308,0.265850,-1.508847,0.669946,-0.013234,-0.044832,0.823667,0.605959,-0.126129,-0.902196,3.117944,-0.324960,1.226171,2.960836,1.432643,0.060702,-0.082707,0.000000,0.310061,0.092701,0.000000
0.870000,-2.742567,0.265748,-1.509302,0.678137,-0.007019,-0.046110,0.814707,0.637287,-0.129308,-0.888912,3.146199,-0.308898,1.422362,2.693957,1.805528,0.063817,-0.081785,0.000000,0.312699,0.091182,-0.000000
0.880000,-2.735745,0.265710,-1.509769,0.686240,-0.000489,-0.047419,0.805889,0.668883,-0.132307,-0.873748,3.171823,-0.288849,1.607070,2.424637,2.214105,0.066956,-0.080880,0.000000,0.315102,0.089447,0.000000
0.890000,-2.728842,0.265738,-1.510250,0.694255,0.006359,-0.048756,0.797232,0.700723,-0.135085,-0.856770,3.194692,-0.264616,1.792689,2.134121,2.623938,0.070119,-0.079992,0.000000,0.317266,0.087504,-0.000000
0.900000,-2.721860,0.265837,-1.510745,0.702185,0.013526,-0.050120,0.788754,0.732777,-0.137600,-0.837895,3.214506,-0.236370,1.987987,1.826686,3.022403,0.073302,-0.079125,0.000000,0.319165,0.085347,0.000000
0.910000,-2.714799,0.266009,-1.511253,0.710030,0.021014,-0.051508,0.780474,0.765013,-0.139812,-0.817011,3.231226,-0.204168,2.184126,1.513931,3.432290,0.076502,-0.078281,0.000000,0.320800,0.082967,0.000000
0.920000,-2.707659,0.266257,-1.511775,0.717794,0.028826,-0.052917,0.772413,0.797401,-0.141683,-0.794212,3.244784,-0.167725,2.358020,1.178361,3.882958,0.079718,-0.077461,0.000000,0.322174,0.080373,-0.000000
0.930000,-2.700443,0.266585,-1.512311,0.725479,0.036962,-0.054342,0.764590,0.829909,-0.143167,-0.769850,3.254793,-0.126509,2.514402,0.813036,4.367676,0.082946,-0.076668,0.000000,0.323257,0.077596,0.000000
0.940000,-2.693150,0.266997,-1.512862,0.733086,0.045424,-0.055780,0.757016,0.862497,-0.144213,-0.743924,3.261045,-0.080371,2.684159,0.442895,4.845682,0.086183,-0.075904,0.000000,0.324037,0.074637,-0.000000
0.950000,-2.685781,0.267494,-1.513427,0.740619,0.054212,-0.057226,0.749711,0.895130,-0.144774,-0.716167,3.263651,-0.029595,2.853624,0.083924,5.303860,0.089427,-0.075170,0.000000,0.324531,0.071472,-0.000000
0.960000,-2.678337,0.268081,-1.514006,0.748080,0.063327,-0.058675,0.742693,0.927770,-0.144805,-0.686852,3.262724,0.025706,3.003815,-0.282323,5.768447,0.092674,-0.074469,0.000000,0.324755,0.068130,-0.000000
0.970000,-2.670819,0.268760,-1.514600,0.755473,0.072768,-0.060122,0.735974,0.960384,-0.144260,-0.656091,3.258004,0.085774,3.181240,-0.695592,6.267386,0.095922,-0.073801,0.000000,0.324692,0.064620,0.000000
0.980000,-2.663228,0.269536,-1.515208,0.762800,0.082535,-0.061561,0.729571,0.992930,-0.143090,-0.623227,3.248812,0.151054,3.398477,-1.153951,6.791807,0.099168,-0.073170,0.000000,0.324285,0.060875,0.000000
0.990000,-2.655563,0.270411,-1.515831,0.770064,0.092626,-0.062984,0.723510,1.025360,-0.141239,-0.588121,3.234925,0.221610,3.589041,-1.603326,7.302197,0.102408,-0.072578,0.000000,0.323521,0.056879,-0.000000
1.000000,-2.647827,0.271389,-1.516468,0.777270,0.103042,-0.064385,0.717809,1.057629,-0.138657,-0.551446,3.216745,0.297098,3.716622,-2.016270,7.787104,0.105638,-0.072027,0.000000,0.322443,0.052703,0.000000
1.010000,-2.640018,0.272472,-1.517119,0.784420,0.113779,-0.065757,0.712481,1.089695,-0.135297,-0.513789,3.194600,0.377352,3.828621,-2.430429,8.270931,0.108857,-0.071518,0.000000,0.321089,0.048405,-0.000000
1.020000,-2.632138,0.273664,-1.517783,0.791519,0.124836,-0.067091,0.707533,1.121521,-0.131110,-0.474874,3.168137,0.462516,4.010620,-2.913082,8.775987,0.112060,-0.071053,0.000000,0.319431,0.043956,-0.000000
1.030000,-2.624188,0.274969,-1.518461,0.798571,0.136209,-0.068379,0.702983,1.153058,-0.126047,-0.433576,3.136338,0.552872,4.229942,-3.434981,9.293772,0.115246,-0.070633,0.000000,0.317377,0.039240,-0.000000
1.040000,-2.616167,0.276388,-1.519151,0.805579,0.147897,-0.069612,0.698861,1.184248,-0.120053,-0.390275,3.099437,0.648392,4.376181,-3.909569,9.791225,0.118408,-0.070263,0.000000,0.314956,0.034294,0.000000
1.050000,-2.608076,0.277927,-1.519853,0.812548,0.159894,-0.070780,0.695178,1.215047,-0.113079,-0.346053,3.058147,0.748696,4.574791,-4.458171,10.253172,0.121545,-0.069942,0.000000,0.312241,0.029226,0.000000
1.060000,-2.599916,0.279586,-1.520566,0.819483,0.172198,-0.071874,0.691940,1.245411,-0.105079,-0.298779,3.010274,0.853455,4.887625,-5.127067,10.699248,0.124653,-0.069674,0.000000,0.309013,0.023824,-0.000000
1.070000,-2.591686,0.281371,-1.521290,0.826387,0.184803,-0.072882,0.689202,1.275252,-0.096010,-0.248300,2.955606,0.962681,4.931684,-5.549153,11.162198,0.127726,-0.069462,0.000000,0.305254,0.018068,-0.000000
1.080000,-2.583388,0.283282,-1.522024,0.833267,0.197703,-0.073794,0.686974,1.304523,-0.085825,-0.200145,2.899290,1.076699,4.685474,-5.709728,11.633804,0.130759,-0.069309,0.000000,0.301487,0.012504,0.000000
1.090000,-2.575021,0.285325,-1.522766,0.840126,0.210893,-0.074598,0.685199,1.333238,-0.074476,-0.154591,2.841411,1.195357,4.680147,-6.116376,12.065449,0.133756,-0.069210,0.000000,0.297723,0.007157,-0.000000
1.100000,-2.566585,0.287500,-1.523516,0.846971,0.224368,-0.075284,0.683883,1.361351,-0.061918,-0.106542,2.776963,1.318008,4.869086,-6.713657,12.448710,0.136713,-0.069165,0.000000,0.293455,0.001522,-0.000000
1.110000,-2.558082,0.289812,-1.524272,0.853804,0.238120,-0.075837,0.683068,1.388777,-0.048116,-0.057209,2.707138,1.444332,4.903730,-7.169463,12.812306,0.139625,-0.069179,0.000000,0.288798,-0.004286,0.000000
1.120000,-2.549509,0.292263,-1.525033,0.860632,0.252143,-0.076246,0.682738,1.415494,-0.033032,-0.008468,2.633574,1.574254,5.056718,-7.774336,13.163465,0.142490,-0.069252,0.000000,0.283916,-0.010081,0.000000
1.130000,-2.540869,0.294855,-1.525797,0.867459,0.266430,-0.076497,0.682899,1.441449,-0.016631,0.043925,2.551651,1.707601,5.474847,-8.674643,13.488314,0.145304,-0.069383,0.000000,0.278343,-0.016293,0.000000
1.140000,-2.532160,0.297591,-1.526563,0.874290,0.280972,-0.076578,0.683617,1.466527,0.001120,0.101029,2.460081,1.844021,5.753492,-9.440670,13.773569,0.148057,-0.069581,0.000000,0.271942,-0.023034,-0.000000
1.150000,-2.523383,0.300474,-1.527329,0.881131,0.295760,-0.076475,0.684920,1.490650,0.020250,0.158995,2.362838,1.983072,5.759681,-9.900574,14.021315,0.150743,-0.069849,0.000000,0.265101,-0.029922,0.000000
1.160000,-2.514538,0.303506,-1.528092,0.887988,0.310785,-0.076173,0.686797,1.513784,0.040782,0.216223,2.262069,2.124447,5.780593,-10.360482,14.235199,0.153359,-0.070187,0.000000,0.258025,-0.036800,0.000000
1.170000,-2.505623,0.306690,-1.528852,0.894867,0.326036,-0.075659,0.689244,1.535892,0.062739,0.274607,2.155628,2.267776,6.063108,-11.174832,14.400454,0.155904,-0.070594,0.000000,0.250488,-0.043864,-0.000000
1.180000,-2.496640,0.310027,-1.529605,0.901773,0.341503,-0.074919,0.692289,1.556896,0.086137,0.337485,2.038573,2.412456,6.497097,-12.235448,14.510301,0.158369,-0.071075,0.000000,0.241975,-0.051454,0.000000
1.190000,-2.487588,0.313520,-1.530350,0.908713,0.357174,-0.073937,0.695994,1.576663,0.110988,0.404549,1.910919,2.557982,6.770898,-13.080210,14.579560,0.160743,-0.071636,0.000000,0.232466,-0.059548,-0.000000
1.200000,-2.478466,0.317171,-1.531084,0.915693,0.373036,-0.072699,0.700380,1.595114,0.137297,0.472903,1.776969,2.704047,6.992746,-13.759234,14.617757,0.163019,-0.072282,0.000000,0.222376,-0.067860,-0.000000
1.210000,-2.469274,0.320981,-1.531804,0.922721,0.389076,-0.071191,0.705452,1.612203,0.165069,0.544404,1.635735,2.850337,7.356230,-14.568199,14.609506,0.165191,-0.073012,0.000000,0.211584,-0.076588,0.000000
1.220000,-2.460012,0.324952,-1.532508,0.929802,0.405280,-0.069398,0.711268,1.627829,0.194304,0.620028,1.485605,2.996237,7.511246,-15.285181,14.521749,0.167250,-0.073835,0.000000,0.199899,-0.085839,0.000000
1.230000,-2.450678,0.329086,-1.533192,0.936946,0.421633,-0.067305,0.717852,1.641915,0.224994,0.694629,1.330031,3.140772,7.390445,-15.779566,14.353830,0.169189,-0.074754,0.000000,0.187639,-0.095093,0.000000
1.240000,-2.441273,0.333385,-1.533854,0.944159,0.438119,-0.064898,0.725161,1.654430,0.257119,0.767836,1.170013,3.283314,7.485928,-16.377356,14.144756,0.171003,-0.075765,0.000000,0.174877,-0.104314,-0.000000
1.250000,-2.431795,0.337849,-1.534490,0.951449,0.454721,-0.062162,0.733209,1.665315,0.290660,0.844347,1.002484,3.423668,7.738156,-17.215529,13.907216,0.172686,-0.076871,0.000000,0.161270,-0.113992,-0.000000
1.260000,-2.422244,0.342479,-1.535097,0.958823,0.471425,-0.059084,0.742048,1.674479,0.325593,0.922600,0.825703,3.561458,7.820097,-18.056070,13.610248,0.174228,-0.078080,0.000000,0.146612,-0.123978,0.000000
1.270000,-2.412618,0.347277,-1.535672,0.966290,0.488211,-0.055650,0.751661,1.681829,0.361889,1.000749,0.641362,3.695872,8.040873,-18.607746,13.215809,0.175618,-0.079390,0.000000,0.131033,-0.134085,0.000000
1.280000,-2.402918,0.352243,-1.536210,0.973857,0.505061,-0.051847,0.762063,1.687307,0.399510,1.083417,0.453548,3.825774,8.518516,-18.958743,12.726032,0.176849,-0.080804,0.000000,0.114896,-0.144792,0.000000
1.290000,-2.393141,0.357378,-1.536709,0.981531,0.521957,-0.047660,0.773329,1.690900,0.438404,1.171120,0.262188,3.950393,8.798411,-19.481546,12.187357,0.177916,-0.082332,0.000000,0.098152,-0.156164,0.000000
1.300000,-2.383287,0.362683,-1.537164,0.989323,0.538879,-0.043079,0.785485,1.692550,0.478518,1.259385,0.063917,4.069522,8.879982,-20.075861,11.635873,0.178811,-0.083978,0.000000,0.080427,-0.167745,-0.000000
1.310000,-2.373355,0.368156,-1.537570,0.997241,0.555808,-0.038090,0.798517,1.692178,0.519795,1.348719,-0.139330,4.183111,9.068125,-20.502968,11.034965,0.179524,-0.085742,0.000000,0.061886,-0.179596,-0.000000
1.320000,-2.363342,0.373799,-1.537925,1.005294,0.572723,-0.032683,0.812459,1.689764,0.562180,1.440748,-0.346143,4.290221,9.209879,-21.105786,10.280620,0.180048,-0.087629,0.000000,0.042625,-0.191892,0.000000
1.330000,-2.353249,0.379610,-1.538224,1.013490,0.589603,-0.026846,0.827332,1.685255,0.605599,1.532917,-0.561445,4.388723,9.184941,-21.993753,9.373563,0.180375,-0.089644,0.000000,0.022058,-0.204351,0.000000
1.340000,-2.343073,0.385591,-1.538462,1.021840,0.606428,-0.020571,0.843118,1.678535,0.649954,1.624447,-0.786018,4.477692,9.228675,-22.668766,8.453393,0.180488,-0.091784,0.000000,0.000046,-0.216885,-0.000000
1.350000,-2.332812,0.391739,-1.538636,1.030353,0.623174,-0.013847,0.859821,1.669535,0.695153,1.717490,-1.014821,4.557791,9.410603,-22.974542,7.581696,0.180375,-0.094054,0.000000,-0.022914,-0.229731,0.000000
1.360000,-2.322466,0.398054,-1.538739,1.039037,0.639819,-0.006668,0.877467,1.658239,0.741110,1.812659,-1.245508,4.629326,9.562170,-23.256071,6.659849,0.180029,-0.096456,0.000000,-0.046602,-0.242964,0.000000
1.370000,-2.312031,0.404535,-1.538769,1.047902,0.656339,0.000975,0.896074,1.644625,0.787740,1.908734,-1.479942,4.690988,9.574506,-23.810435,5.535417,0.179442,-0.098994,0.000000,-0.071267,-0.256442,-0.000000
1.380000,-2.301508,0.411181,-1.538720,1.056958,0.672711,0.009087,0.915642,1.628640,0.834930,2.004149,-1.721717,4.740034,9.517219,-24.505033,4.232181,0.178602,-0.101669,0.000000,-0.097380,-0.269963,0.000000
1.390000,-2.290892,0.417990,-1.538587,1.066215,0.688912,0.017674,0.936157,1.610191,0.882540,2.099078,-1.970043,4.775631,9.520175,-24.955454,2.954927,0.177493,-0.104481,0.000000,-0.124911,-0.283528,-0.000000
1.400000,-2.280183,0.424959,-1.538366,1.075681,0.704915,0.026738,0.957624,1.589239,0.930443,2.194552,-2.220826,4.799133,9.479345,-25.256647,1.765351,0.176102,-0.107431,0.000000,-0.153425,-0.297253,0.000000
1.410000,-2.269379,0.432088,-1.538052,1.085367,0.720697,0.036282,0.980048,1.565774,0.978523,2.288665,-2.475176,4.810938,9.317880,-25.644083,0.525594,0.174422,-0.110520,0.000000,-0.183055,-0.310922,0.000000
1.420000,-2.258476,0.439373,-1.537641,1.095282,0.736231,0.046308,1.003397,1.539735,1.026661,2.380910,-2.733708,4.809645,9.342658,-25.780580,-0.903206,0.172439,-0.113746,0.000000,-0.213917,-0.324445,-0.000000
1.430000,-2.247473,0.446813,-1.537126,1.105435,0.751491,0.056816,1.027666,1.511100,1.074716,2.475518,-2.990787,4.792874,9.594206,-25.541779,-2.479577,0.170142,-0.117107,0.000000,-0.245462,-0.338237,-0.000000
1.440000,-2.236367,0.454403,-1.536504,1.115836,0.766453,0.067803,1.052907,1.479920,1.122519,2.572794,-3.244543,4.760053,9.639700,-25.405570,-4.015666,0.167528,-0.120610,0.000000,-0.277487,-0.352306,-0.000000
1.450000,-2.225156,0.462142,-1.535770,1.126493,0.781090,0.079266,1.079122,1.446209,1.169917,2.668312,-3.498899,4.712561,9.408274,-25.581505,-5.454164,0.164591,-0.124254,0.000000,-0.310384,-0.366146,-0.000000
1.460000,-2.213837,0.470025,-1.534919,1.137418,0.795377,0.091201,1.106274,1.409942,1.216770,2.760959,-3.756174,4.650970,9.191851,-25.723142,-6.916823,0.161319,-0.128034,0.000000,-0.344391,-0.379605,-0.000000
1.470000,-2.202408,0.478049,-1.533946,1.148619,0.809288,0.103601,1.134341,1.371086,1.262936,2.852149,-4.013362,4.574225,9.075443,-25.353057,-8.530623,0.157701,-0.131946,0.000000,-0.379179,-0.392786,0.000000
1.480000,-2.190865,0.486211,-1.532847,1.160105,0.822798,0.116460,1.163317,1.329674,1.308255,2.942468,-4.263235,4.480358,8.924203,-24.591126,-10.250276,0.153734,-0.135988,0.000000,-0.413929,-0.405684,-0.000000
1.490000,-2.179206,0.494505,-1.531617,1.171885,0.835882,0.129767,1.193191,1.285821,1.352544,3.030633,-4.505184,4.369219,8.646095,-24.057873,-11.899291,0.149421,-0.140157,0.000000,-0.448507,-0.418096,-0.000000
1.500000,-2.167427,0.502928,-1.530252,1.183969,0.848515,0.143511,1.223929,1.239571,1.395639,3.115390,-4.744392,4.242372,8.463840,-23.672601,-13.463693,0.144762,-0.144444,0.000000,-0.483410,-0.429849,0.000000
1.510000,-2.155526,0.511475,-1.528747,1.196364,0.860673,0.157679,1.255499,1.190933,1.437391,3.199910,-4.978636,4.099945,8.410825,-23.032796,-15.050643,0.139752,-0.148844,0.000000,-0.518319,-0.441254,-0.000000
1.520000,-2.143500,0.520142,-1.527098,1.209079,0.872334,0.172258,1.287927,1.139998,1.477638,3.283607,-5.205048,3.941359,7.847330,-22.475230,-16.654723,0.134395,-0.153356,0.000000,-0.552820,-0.452177,0.000000
1.530000,-2.131345,0.528922,-1.525302,1.222122,0.883473,0.187232,1.321171,1.086832,1.516218,3.356857,-5.428141,3.766851,6.718828,-22.225737,-18.225223,0.128695,-0.157969,0.000000,-0.587315,-0.461438,0.000000
1.540000,-2.119057,0.537811,-1.523353,1.235502,0.894070,0.202583,1.355065,1.031435,1.552975,3.417983,-5.649563,3.576854,5.910494,-21.770530,-19.764689,0.122648,-0.162661,0.000000,-0.621888,-0.468771,0.000000
1.550000,-2.106635,0.546803,-1.521250,1.249224,0.904102,0.218292,1.389530,0.973841,1.587755,3.475067,-5.863551,3.371557,5.631335,-20.534161,-21.301850,0.116257,-0.167415,0.000000,-0.655770,-0.475052,0.000000
1.560000,-2.094073,0.555893,-1.518988,1.263293,0.913547,0.234338,1.424566,0.914164,1.620406,3.530610,-6.060246,3.150817,5.274737,-18.910208,-22.819521,0.109534,-0.172225,0.000000,-0.687666,-0.480509,-0.000000
1.570000,-2.081369,0.565074,-1.516563,1.277715,0.922385,0.250700,1.460143,0.852636,1.650772,3.580561,-6.241756,2.915167,4.453234,-18.376839,-24.225906,0.102505,-0.177081,0.000000,-0.717653,-0.484615,0.000000
1.580000,-2.068519,0.574341,-1.513974,1.292495,0.930600,0.267353,1.496177,0.789329,1.678709,3.619675,-6.427783,2.666299,3.432441,-18.673635,-25.516989,0.095182,-0.181967,0.000000,-0.747915,-0.486722,-0.000000
1.590000,-2.055519,0.583686,-1.511216,1.307638,0.938172,0.284274,1.532536,0.724080,1.704098,3.649210,-6.615228,2.404827,2.690006,-17.823709,-26.802213,0.087548,-0.186859,0.000000,-0.777972,-0.486938,0.000000
1.600000,-2.042366,0.593104,-1.508288,1.323146,0.945081,0.301435,1.569161,0.657024,1.726806,3.673475,-6.784257,2.130255,1.815420,-16.869547,-28.071753,0.079624,-0.191742,0.000000,-0.805314,-0.485713,-0.000000
1.610000,-2.029056,0.602588,-1.505187,1.339022,0.951312,0.318810,1.606006,0.588395,1.746703,3.685519,-6.952619,1.843392,0.541374,-17.023567,-29.242482,0.071444,-0.196602,0.000000,-0.831914,-0.482197,-0.000000
1.620000,-2.015586,0.612131,-1.501912,1.355266,0.956849,0.336369,1.642872,0.517972,1.763674,3.684302,-7.124728,1.545405,0.104166,-14.833524,-30.343225,0.062989,-0.201408,0.000000,-0.858182,-0.476261,0.000000
1.630000,-2.001951,0.621725,-1.498460,1.371879,0.961672,0.354084,1.679692,0.445901,1.777611,3.687602,-7.249290,1.236527,0.625099,-9.757210,-31.388536,0.054284,-0.206144,0.000000,-0.877791,-0.470007,-0.000000
1.640000,-1.988148,0.631364,-1.494830,1.388860,0.965767,0.371922,1.716624,0.372986,1.788404,3.696804,-7.319873,0.917635,0.390977,-6.650706,-32.319635,0.045437,-0.210820,0.000000,-0.889792,-0.463605,0.000000
1.650000,-1.974174,0.641040,-1.491022,1.406212,0.969132,0.389852,1.753628,0.299503,1.795963,3.695421,-7.382304,0.590134,-0.600703,-5.911084,-33.179805,0.036492,-0.215424,0.000000,-0.899630,-0.455122,-0.000000
1.660000,-1.960024,0.650747,-1.487033,1.423933,0.971757,0.407841,1.790532,0.225340,1.800207,3.684790,-7.438094,0.254039,-1.203224,-4.265848,-33.995319,0.027449,-0.219927,0.000000,-0.907433,-0.444726,-0.000000
1.670000,-1.945695,0.660476,-1.482865,1.442022,0.973638,0.425856,1.827324,0.150741,1.801044,3.671357,-7.467621,-0.089772,-1.845155,-1.896089,-34.594736,0.018348,-0.224320,0.000000,-0.910761,-0.433220,0.000000
1.680000,-1.931183,0.670219,-1.478516,1.460479,0.974772,0.443862,1.863959,0.075988,1.798412,3.647887,-7.476016,-0.437856,-2.988741,-0.131582,-34.940974,0.009238,-0.228591,0.000000,-0.910206,-0.419865,0.000000
1.690000,-1.916485,0.679971,-1.473987,1.479301,0.975158,0.461824,1.900281,0.001221,1.792287,3.611582,-7.470252,-0.788591,-3.939971,1.552877,-35.264677,0.000148,-0.232716,0.000000,-0.906632,-0.404421,-0.000000
1.700000,-1.901597,0.689723,-1.469280,1.498485,0.974797,0.479707,1.936191,-0.073417,1.782640,3.569088,-7.444958,-1.143150,-4.309312,4.363187,-35.691451,-0.008891,-0.236678,0.000000,-0.899424,-0.387696,-0.000000
1.710000,-1.886516,0.699467,-1.464393,1.518025,0.973690,0.497477,1.971663,-0.147678,1.769424,3.525396,-7.382989,-1.502420,-4.609094,7.774435,-36.049205,-0.017836,-0.240469,0.000000,-0.886561,-0.370302,0.000000
1.720000,-1.871237,0.709196,-1.459330,1.537918,0.971843,0.515096,2.006699,-0.221077,1.752591,3.476906,-7.289470,-1.864134,-5.655938,8.792004,-36.016651,-0.026618,-0.244084,0.000000,-0.868766,-0.351936,-0.000000
1.730000,-1.855757,0.718904,-1.454091,1.558159,0.969268,0.532529,2.041201,-0.293468,1.732141,3.412277,-7.207149,-2.222753,-7.263438,7.553353,-35.634715,-0.035208,-0.247510,0.000000,-0.851320,-0.331505,-0.000000
1.740000,-1.840074,0.728582,-1.448679,1.578742,0.965974,0.549739,2.074944,-0.365220,1.708136,3.331637,-7.138403,-2.576828,-8.356620,8.088964,-35.327526,-0.043641,-0.250718,0.000000,-0.834592,-0.309170,-0.000000
1.750000,-1.824182,0.738223,-1.443097,1.599658,0.961964,0.566691,2.107834,-0.436236,1.680605,3.245145,-7.045369,-2.929304,-9.098803,10.175870,-35.162367,-0.051897,-0.253699,0.000000,-0.814140,-0.286110,0.000000
1.760000,-1.808080,0.747821,-1.437346,1.620899,0.957249,0.583351,2.139847,-0.506127,1.649550,3.149661,-6.934885,-3.280075,-10.180808,11.142212,-34.851372,-0.059922,-0.256448,0.000000,-0.790934,-0.262045,0.000000
1.770000,-1.791764,0.757368,-1.431430,1.642455,0.951841,0.599682,2.170827,-0.574933,1.615003,3.041529,-6.822525,-3.626331,-10.935160,12.485365,-34.272849,-0.067714,-0.258949,0.000000,-0.766967,-0.236733,0.000000
1.780000,-1.775231,0.766858,-1.425352,1.664315,0.945750,0.615651,2.200678,-0.642578,1.577024,2.930958,-6.685178,-3.965532,-11.083828,15.225473,-33.521876,-0.075260,-0.261194,0.000000,-0.739660,-0.211498,-0.000000
1.790000,-1.758478,0.776283,-1.419117,1.686469,0.938990,0.631223,2.229446,-0.708637,1.535693,2.819852,-6.518016,-4.296769,-11.594737,17.069215,-32.745501,-0.082506,-0.263192,0.000000,-0.708654,-0.186644,-0.000000
1.800000,-1.741502,0.785638,-1.412728,1.708904,0.931578,0.646365,2.257075,-0.772938,1.491088,2.699063,-6.343794,-4.620442,-12.603773,17.555457,-31.973864,-0.089432,-0.264940,0.000000,-0.676783,-0.161194,0.000000
1.810000,-1.724300,0.794915,-1.406189,1.731610,0.923531,0.661045,2.283428,-0.835513,1.443284,2.567777,-6.166906,-4.936246,-13.438392,18.286351,-31.113950,-0.096042,-0.266430,0.000000,-0.644679,-0.135147,0.000000
1.820000,-1.706870,0.804108,-1.399507,1.754573,0.914867,0.675230,2.308430,-0.896276,1.392363,2.430295,-5.978067,-5.242721,-14.009177,19.708372,-30.082613,-0.102326,-0.267657,0.000000,-0.611406,-0.109091,-0.000000
1.830000,-1.689209,0.813212,-1.392685,1.777779,0.905605,0.688892,2.332033,-0.955074,1.338429,2.287593,-5.772739,-5.537898,-14.561287,21.249101,-28.910964,-0.108271,-0.268624,0.000000,-0.576614,-0.083246,-0.000000
1.840000,-1.671314,0.822220,-1.385729,1.801213,0.895766,0.701999,2.354182,-1.011731,1.281605,2.139069,-5.553085,-5.820941,-15.150755,22.432811,-27.715170,-0.113859,-0.269333,0.000000,-0.540703,-0.057615,-0.000000
1.850000,-1.653184,0.831127,-1.378645,1.824862,0.885371,0.714524,2.374815,-1.066136,1.222011,1.984578,-5.324083,-6.092202,-15.653635,23.415249,-26.530054,-0.119086,-0.269786,0.000000,-0.504347,-0.032212,-0.000000
1.860000,-1.634817,0.839928,-1.371438,1.848710,0.874443,0.726439,2.393874,-1.118213,1.159761,1.825997,-5.084780,-6.351542,-16.048432,24.472203,-25.283932,-0.123948,-0.269984,0.000000,-0.467537,-0.007274,-0.000000
1.870000,-1.616210,0.848616,-1.364116,1.872740,0.863007,0.737719,2.411335,-1.167831,1.094980,1.663609,-4.834639,-6.597881,-16.611331,25.238860,-23.906093,-0.128439,-0.269934,0.000000,-0.430323,0.017118,-0.000000
1.880000,-1.597362,0.857188,-1.356684,1.896936,0.851086,0.748339,2.427146,-1.214906,1.027804,1.493770,-4.580002,-6.829664,-17.350337,25.604691,-22.426393,-0.132557,-0.269641,0.000000,-0.393511,0.041288,0.000000
1.890000,-1.578271,0.865638,-1.349149,1.921283,0.838708,0.758275,2.441210,-1.259432,0.958387,1.316603,-4.322545,-7.046408,-17.883119,26.073095,-20.947862,-0.136311,-0.269103,0.000000,-0.357336,0.065190,0.000000
1.900000,-1.558936,0.873962,-1.341518,1.945761,0.825898,0.767507,2.453478,-1.301356,0.886875,1.136108,-4.058541,-7.248621,-18.230539,26.619267,-19.478249,-0.139706,-0.268327,0.000000,-0.321421,0.088417,0.000000
1.910000,-1.539356,0.882156,-1.333799,1.970352,0.812681,0.776013,2.463932,-1.340602,0.813414,0.951992,-3.790160,-7.435973,-18.643319,26.891577,-17.958772,-0.142742,-0.267319,0.000000,-0.286042,0.110997,0.000000
1.920000,-1.519529,0.890216,-1.325998,1.995039,0.799086,0.783775,2.472518,-1.377160,0.738156,0.763241,-3.520709,-7.607796,-18.963017,27.078374,-16.400924,-0.145429,-0.266086,0.000000,-0.251577,0.133025,0.000000
1.930000,-1.499455,0.898138,-1.318124,2.019803,0.785138,0.790776,2.479197,-1.411017,0.661258,0.572731,-3.248592,-7.763992,-19.076698,27.168451,-14.831405,-0.147777,-0.264632,0.000000,-0.217857,0.154220,-0.000000
1.940000,-1.479133,0.905918,-1.310183,2.044623,0.770865,0.797000,2.483973,-1.442131,0.582876,0.381707,-2.977340,-7.904424,-19.223804,26.888266,-13.243557,-0.149789,-0.262969,0.000000,-0.185244,0.174482,-0.000000
1.950000,-1.458563,0.913555,-1.302184,2.069482,0.756295,0.802433,2.486831,-1.470563,0.503170,0.188255,-2.710827,-8.028863,-19.552087,27.160635,-11.656186,-0.151484,-0.261105,0.000000,-0.154123,0.194025,-0.000000
1.960000,-1.437744,0.921044,-1.294134,2.094360,0.741454,0.807063,2.487738,-1.496348,0.422299,-0.009334,-2.434127,-8.137548,-19.884062,28.087860,-10.083700,-0.152874,-0.259045,0.000000,-0.122962,0.213052,-0.000000
1.970000,-1.416676,0.928384,-1.286042,2.119237,0.726368,0.810879,2.486645,-1.519246,0.340419,-0.209426,-2.149070,-8.230537,-19.875532,26.873703,-8.484417,-0.153946,-0.256795,0.000000,-0.091962,0.231431,-0.000000
1.980000,-1.395359,0.935572,-1.277916,2.144093,0.711069,0.813872,2.483549,-1.539329,0.257688,-0.406845,-1.896653,-8.307236,-19.558016,23.371891,-6.867470,-0.154716,-0.254363,0.000000,-0.065153,0.248678,-0.000000
1.990000,-1.373794,0.942605,-1.269765,2.168908,0.695582,0.816033,2.478508,-1.557179,0.174274,-0.600586,-1.681632,-8.367886,-19.395732,21.465691,-5.304238,-0.155251,-0.251763,0.000000,-0.042840,0.264753,-0.000000
2.000000,-1.351981,0.949483,-1.261596,2.193663,0.679926,0.817357,2.471537,-1.572962,0.090330,-0.794760,-1.467339,-8.413321,-19.563491,21.645075,-3.753239,-0.155574,-0.249005,0.000000,-0.021332,0.280116,-0.000000
2.010000,-1.329921,0.956204,-1.253418,2.218339,0.664123,0.817840,2.462613,-1.586526,0.006008,-0.991856,-1.248730,-8.442951,-19.743056,21.307332,-2.181337,-0.155679,-0.246093,0.000000,-0.000142,0.295029,0.000000
2.020000,-1.307614,0.962766,-1.245239,2.242915,0.648195,0.817477,2.451700,-1.597937,-0.078529,-1.189621,-1.041193,-8.456948,-19.523548,20.032204,-0.750789,-0.155579,-0.243033,0.000000,0.019290,0.309315,0.000000
2.030000,-1.285062,0.969168,-1.237068,2.267373,0.632164,0.816269,2.438820,-1.607350,-0.163131,-1.382327,-0.848086,-8.457967,-19.059570,19.097425,0.489663,-0.155294,-0.239832,0.000000,0.036768,0.322541,-0.000000
2.040000,-1.262267,0.975409,-1.228914,2.291692,0.616048,0.814215,2.424054,-1.614898,-0.247688,-1.570812,-0.659244,-8.447155,-18.889489,18.837387,1.759228,-0.154844,-0.236504,0.000000,0.053327,0.334860,0.000000
2.050000,-1.239228,0.981489,-1.220784,2.315854,0.599866,0.811315,2.407404,-1.620534,-0.332075,-1.760117,-0.471338,-8.422782,-18.685763,16.738221,3.246185,-0.154229,-0.233055,0.000000,0.069269,0.346739,0.000000
2.060000,-1.215950,0.987406,-1.212687,2.339840,0.583637,0.807573,2.388851,-1.624325,-0.416144,-1.944527,-0.324480,-8.382231,-18.130973,12.862447,4.779942,-0.153460,-0.229487,0.000000,0.080877,0.357632,0.000000
2.070000,-1.192432,0.993162,-1.204632,2.363631,0.567379,0.802993,2.368513,-1.627024,-0.499719,-2.122736,-0.214089,-8.327184,-18.279105,14.297662,5.855150,-0.152612,-0.225818,0.000000,0.088754,0.367509,-0.000000
2.080000,-1.168677,0.998754,-1.196627,2.387210,0.551097,0.797579,2.346397,-1.628607,-0.582687,-2.310109,-0.038527,-8.265128,-19.324009,21.191669,6.517712,-0.151685,-0.222051,0.000000,0.102363,0.377956,0.000000
2.090000,-1.144687,1.004184,-1.188681,2.410559,0.534807,0.791339,2.322311,-1.627795,-0.665022,-2.509216,0.209744,-8.196829,-19.784837,23.814893,7.442769,-0.150566,-0.218171,0.000000,0.122212,0.389222,0.000000
2.100000,-1.120466,1.009450,-1.180801,2.433656,0.518541,0.784279,2.296212,-1.624412,-0.746624,-2.705806,0.437771,-8.116273,-19.234875,21.954324,8.632825,-0.149242,-0.214178,0.000000,0.139738,0.399916,-0.000000
2.110000,-1.096014,1.014554,-1.172995,2.456483,0.502319,0.776406,2.268195,-1.619039,-0.827347,-2.893914,0.648830,-8.024173,-18.701010,22.085841,9.638793,-0.147772,-0.210083,0.000000,0.155358,0.409560,0.000000
2.120000,-1.071336,1.019497,-1.165273,2.479020,0.486160,0.767732,2.238334,-1.611435,-0.907107,-3.079826,0.879488,-7.923497,-19.024621,22.486469,10.587804,-0.146136,-0.205896,0.000000,0.172401,0.418811,-0.000000
2.130000,-1.046434,1.024278,-1.157641,2.501250,0.470090,0.758264,2.206598,-1.601449,-0.985817,-3.274406,1.098560,-7.812417,-19.772355,20.417913,11.662291,-0.144325,-0.201617,0.000000,0.188031,0.428616,0.000000
2.140000,-1.021311,1.028898,-1.150107,2.523152,0.454131,0.748015,2.172846,-1.589464,-1.063356,-3.475274,1.287846,-7.690251,-19.880901,18.810709,12.647315,-0.142376,-0.197234,0.000000,0.200705,0.438761,0.000000
2.150000,-0.995971,1.033360,-1.142680,2.544706,0.438301,0.736997,2.137093,-1.575692,-1.139622,-3.672024,1.474774,-7.559470,-19.963503,20.642104,13.378247,-0.140311,-0.192752,0.000000,0.212970,0.448401,0.000000
2.160000,-0.970417,1.037664,-1.135367,2.565894,0.422617,0.725223,2.099406,-1.559969,-1.214545,-3.874544,1.700688,-7.422686,-20.650121,23.570761,14.019883,-0.138117,-0.188177,0.000000,0.228462,0.458468,-0.000000
2.170000,-0.944653,1.041813,-1.128176,2.586695,0.407102,0.712706,2.059602,-1.541679,-1.288076,-4.085027,1.946189,-7.279073,-20.023826,20.415442,14.942488,-0.135742,-0.183494,0.000000,0.245421,0.469142,-0.000000
2.180000,-0.918683,1.045806,-1.121113,2.607086,0.391784,0.699461,2.017705,-1.521045,-1.360126,-4.275020,2.108997,-7.123836,-17.776770,11.851337,16.088386,-0.133209,-0.178707,0.000000,0.255010,0.477915,-0.000000
2.190000,-0.892511,1.049648,-1.114187,2.627049,0.376681,0.685504,1.974102,-1.499499,-1.430553,-4.440562,2.183216,-6.957305,-16.591491,7.515454,16.965376,-0.130642,-0.173850,0.000000,0.256911,0.484513,-0.000000
2.200000,-0.866142,1.053340,-1.107403,2.646568,0.361794,0.670850,1.928894,-1.477381,-1.499273,-4.606850,2.259306,-6.784529,-16.789239,7.306627,17.629669,-0.128070,-0.168933,0.000000,0.259011,0.491208,0.000000
2.210000,-0.839580,1.056884,-1.100770,2.665627,0.347133,0.655518,1.881965,-1.454313,-1.566243,-4.776347,2.329348,-6.604712,-16.544476,4.856852,18.401231,-0.125461,-0.163945,0.000000,0.260611,0.498207,0.000000
2.220000,-0.812830,1.060283,-1.094293,2.684207,0.332708,0.639525,1.833367,-1.430794,-1.631367,-4.937739,2.356443,-6.416504,-15.636050,2.446543,19.020944,-0.122857,-0.158889,0.000000,0.258611,0.504549,-0.000000
2.230000,-0.785896,1.063538,-1.087979,2.702294,0.318517,0.622891,1.783210,-1.407184,-1.694573,-5.089068,2.378279,-6.224293,-14.766474,2.625789,19.354523,-0.120288,-0.153776,0.000000,0.256308,0.510152,0.000000
2.240000,-0.758784,1.066653,-1.081835,2.719871,0.304564,0.605634,1.731585,-1.383228,-1.755853,-5.233069,2.408959,-6.029414,-14.082801,1.745784,19.785194,-0.117731,-0.148612,0.000000,0.254892,0.515285,0.000000
2.250000,-0.731498,1.069630,-1.075866,2.736926,0.290853,0.587774,1.678549,-1.359005,-1.815161,-5.370724,2.413195,-5.828589,-13.109512,-2.012430,20.431150,-0.115190,-0.143398,0.000000,0.251353,0.520002,0.000000
2.260000,-0.704045,1.072470,-1.070079,2.753442,0.277384,0.569331,1.624171,-1.334964,-1.872424,-5.495259,2.368711,-5.620791,-11.824955,-5.924129,21.021142,-0.112703,-0.138141,0.000000,0.243865,0.523745,-0.000000
2.270000,-0.676430,1.075177,-1.064480,2.769409,0.264153,0.550325,1.568643,-1.311630,-1.927577,-5.607223,2.294712,-5.408166,-11.424995,-6.302090,21.341445,-0.110312,-0.132856,0.000000,0.234098,0.526609,0.000000
2.280000,-0.648657,1.077753,-1.059073,2.784815,0.251151,0.530779,1.512026,-1.289070,-1.980588,-5.723759,2.242669,-5.193962,-11.965419,-3.990043,21.483673,-0.108020,-0.127544,0.000000,0.226358,0.530068,0.000000
2.290000,-0.620733,1.080200,-1.053864,2.799650,0.238372,0.510714,1.454168,-1.266777,-2.031457,-5.846531,2.214912,-4.978493,-11.816397,-3.767465,21.718597,-0.105784,-0.122191,0.000000,0.220799,0.534259,-0.000000
2.300000,-0.592664,1.082521,-1.048859,2.813899,0.225816,0.490150,1.395096,-1.244772,-2.080158,-5.960087,2.167319,-4.759590,-10.867554,-5.630362,22.037305,-0.103604,-0.116798,0.000000,0.213750,0.537885,0.000000
2.310000,-0.564455,1.084717,-1.044061,2.827551,0.213477,0.469110,1.334966,-1.223431,-2.126648,-6.063882,2.102304,-4.537746,-10.222943,-6.408930,22.265441,-0.101509,-0.111375,0.000000,0.205427,0.540921,-0.000000
2.320000,-0.536113,1.086790,-1.039476,2.840598,0.201347,0.447617,1.273818,-1.202726,-2.170913,-6.164546,2.039141,-4.314281,-9.834264,-6.835195,22.460196,-0.099495,-0.105923,0.000000,0.197423,0.543934,0.000000
2.330000,-0.507643,1.088744,-1.035109,2.853028,0.189422,0.425692,1.211676,-1.182648,-2.212934,-6.260568,1.965600,-4.088543,-9.296993,-8.104812,22.690360,-0.097560,-0.100441,0.000000,0.188719,0.546798,-0.000000
2.340000,-0.479052,1.090579,-1.030963,2.864831,0.177694,0.403358,1.148607,-1.163414,-2.252683,-6.350486,1.877045,-3.860474,-8.775280,-8.945922,22.867202,-0.095720,-0.094934,0.000000,0.178939,0.549400,0.000000
2.350000,-0.450347,1.092297,-1.027042,2.876000,0.166154,0.380638,1.084666,-1.145107,-2.290143,-6.436073,1.786682,-3.631199,-8.421121,-8.818881,22.961507,-0.093980,-0.089402,0.000000,0.169168,0.551901,0.000000
2.360000,-0.421532,1.093902,-1.023350,2.886525,0.154792,0.357555,1.019885,-1.127680,-2.325307,-6.518908,1.700667,-3.401244,-8.096252,-8.673106,23.041361,-0.092336,-0.083846,0.000000,0.159899,0.554436,0.000000
2.370000,-0.392616,1.095393,-1.019891,2.896398,0.143600,0.334132,0.954288,-1.111094,-2.358168,-6.597998,1.613220,-3.170371,-7.540810,-9.388137,23.156340,-0.090782,-0.078265,0.000000,0.150648,0.556925,-0.000000
2.380000,-0.363604,1.096774,-1.016667,2.905611,0.132570,0.310392,0.887925,-1.095416,-2.388715,-6.669724,1.512904,-2.938117,-6.792076,-10.673075,23.289088,-0.089322,-0.072660,0.000000,0.140479,0.559076,-0.000000
2.390000,-0.334504,1.098045,-1.013683,2.914156,0.121692,0.286358,0.820893,-1.080835,-2.416931,-6.733840,1.399758,-2.704590,-6.190202,-11.420383,23.382204,-0.087972,-0.067038,0.000000,0.129393,0.560874,-0.000000
2.400000,-0.305321,1.099208,-1.010940,2.922028,0.110953,0.262054,0.753249,-1.067420,-2.442807,-6.793528,1.284497,-2.470473,-5.757120,-11.560375,23.421587,-0.086734,-0.061398,0.000000,0.118254,0.562585,0.000000
2.410000,-0.276063,1.100264,-1.008442,2.929221,0.100344,0.237502,0.685023,-1.055146,-2.466340,-6.848982,1.168551,-2.236158,-5.263375,-11.835521,23.449560,-0.085606,-0.055742,0.000000,0.107170,0.564228,0.000000
2.420000,-0.246737,1.101214,-1.006190,2.935729,0.089851,0.212727,0.616269,-1.044049,-2.487530,-6.898796,1.047786,-2.001482,-4.701189,-12.335528,23.510151,-0.084590,-0.050071,0.000000,0.095795,0.565691,-0.000000
2.430000,-0.217349,1.102061,-1.004187,2.941547,0.079463,0.187751,0.547047,-1.034190,-2.506370,-6.943006,0.921840,-1.765955,-4.152912,-12.795448,23.594034,-0.083690,-0.044387,0.000000,0.084089,0.566976,0.000000
2.440000,-0.187906,1.102804,-1.002435,2.946670,0.069167,0.162599,0.477409,-1.025613,-2.522849,-6.981854,0.791877,-1.529601,-3.608832,-13.156245,23.647308,-0.082908,-0.038691,0.000000,0.072135,0.568107,0.000000
2.450000,-0.158415,1.103444,-1.000935,2.951095,0.058950,0.137294,0.407410,-1.018352,-2.536962,-7.015183,0.658715,-1.293009,-3.045009,-13.490426,23.654539,-0.082247,-0.032985,0.000000,0.059993,0.569074,0.000000
2.460000,-0.128884,1.103983,-0.999689,2.954818,0.048800,0.111860,0.337105,-1.012438,-2.548709,-7.042754,0.522069,-1.056510,-2.473199,-13.819404,23.654799,-0.081708,-0.027270,0.000000,0.047631,0.569860,-0.000000
2.470000,-0.099319,1.104420,-0.998698,2.957837,0.038702,0.086320,0.266555,-1.007911,-2.558092,-7.064647,0.382327,-0.819913,-1.930873,-14.012057,23.690597,-0.081294,-0.021548,0.000000,0.035069,0.570472,-0.000000
2.480000,-0.069727,1.104757,-0.997963,2.960149,0.028642,0.060698,0.195812,-1.004792,-2.565107,-7.081372,0.241828,-0.582698,-1.416373,-14.048022,23.752923,-0.081007,-0.015822,0.000000,0.022478,0.570950,-0.000000
2.490000,-0.040116,1.104993,-0.997484,2.961753,0.018606,0.035018,0.124927,-1.003074,-2.569746,-7.092974,0.101367,-0.344854,-0.880384,-14.104111,23.788092,-0.080845,-0.010091,0.000000,0.009911,0.571301,0.000000
2.500000,-0.010492,1.105129,-0.997262,2.962648,0.008580,0.009303,0.053953,-1.002764,-2.572004,-7.098979,-0.040255,-0.106936,-0.315342,-14.230164,23.778825,-0.080809,-0.004357,0.000000,-0.002736,0.571486,0.000000
2.510000,0.019137,1.105164,-0.997298,2.962832,-0.001450,-0.016422,-0.017053,-1.003879,-2.571885,-7.099281,-0.183236,0.130722,0.244601,-14.299560,23.763037,-0.080899,0.001377,0.000000,-0.015489,0.571498,0.000000
2.520000,0.048764,1.105100,-0.997591,2.962307,-0.011498,-0.042134,-0.088033,-1.006429,-2.569390,-7.094087,-0.326246,0.368324,0.785813,-14.203014,23.785760,-0.081118,0.007111,0.000000,-0.028254,0.571354,0.000000
2.530000,0.078383,1.104935,-0.998141,2.961071,-0.021578,-0.067810,-0.158934,-1.010404,-2.564518,-7.083565,-0.467297,0.606438,1.320271,-13.974640,23.837425,-0.081465,0.012843,0.000000,-0.040888,0.571066,-0.000000
2.540000,0.107986,1.104668,-0.998947,2.959128,-0.031706,-0.093425,-0.229704,-1.015775,-2.557261,-7.067682,-0.605739,0.845073,1.863127,-13.751897,23.859221,-0.081936,0.018571,0.000000,-0.053349,0.570634,-0.000000
2.550000,0.137566,1.104300,-1.000009,2.956477,-0.041894,-0.118955,-0.300288,-1.022519,-2.547617,-7.046302,-0.742335,1.083622,2.408906,-13.574777,23.833904,-0.082532,0.024295,0.000000,-0.065708,0.570045,-0.000000
2.560000,0.167115,1.103830,-1.001326,2.953122,-0.052156,-0.144377,-0.370630,-1.030622,-2.535589,-7.019504,-0.877234,1.321751,2.948128,-13.348350,23.801590,-0.083251,0.030012,0.000000,-0.077984,0.569305,0.000000
2.570000,0.196628,1.103257,-1.002897,2.949065,-0.062506,-0.169667,-0.440678,-1.040064,-2.521182,-6.987340,-1.009302,1.559654,3.495181,-12.968851,23.803388,-0.084092,0.035722,0.000000,-0.090100,0.568416,-0.000000
2.580000,0.226097,1.102580,-1.004719,2.944309,-0.072957,-0.194801,-0.510377,-1.050808,-2.504396,-6.949600,-1.136611,1.797819,4.055562,-12.460083,23.827407,-0.085053,0.041422,0.000000,-0.101914,0.567362,-0.000000
2.590000,0.255514,1.101798,-1.006793,2.938857,-0.083522,-0.219755,-0.579670,-1.062796,-2.485225,-6.906228,-1.258503,2.036202,4.607978,-11.959233,23.818974,-0.086130,0.047111,0.000000,-0.113384,0.566138,0.000000
2.600000,0.284874,1.100910,-1.009115,2.932715,-0.094213,-0.244505,-0.648502,-1.075978,-2.463672,-6.857441,-1.375796,2.274198,5.137072,-11.520751,23.764291,-0.087321,0.052788,0.000000,-0.124581,0.564759,0.000000
2.610000,0.314168,1.099914,-1.011683,2.925887,-0.105042,-0.269028,-0.716819,-1.090312,-2.439741,-6.803487,-1.488918,2.511488,5.658160,-11.051468,23.699218,-0.088622,0.058450,0.000000,-0.135546,0.563240,0.000000
2.620000,0.343392,1.098809,-1.014495,2.918379,-0.116019,-0.293300,-0.784571,-1.105756,-2.413442,-6.744278,-1.596825,2.748183,6.208877,-10.416721,23.653757,-0.090032,0.064098,0.000000,-0.146206,0.561574,0.000000
2.630000,0.372536,1.097594,-1.017549,2.910196,-0.127157,-0.317297,-0.851704,-1.122248,-2.384778,-6.679309,-1.697253,2.984563,6.785876,-9.647163,23.615986,-0.091547,0.069728,0.000000,-0.156387,0.559717,-0.000000
2.640000,0.401595,1.096266,-1.020841,2.901345,-0.138464,-0.340996,-0.918157,-1.139701,-2.353751,-6.608560,-1.789769,3.220502,7.337522,-8.925346,23.544804,-0.093160,0.075340,0.000000,-0.166059,0.557665,0.000000
2.650000,0.430563,1.094824,-1.024369,2.891833,-0.149951,-0.364372,-0.983876,-1.158044,-2.320368,-6.532559,-1.875760,3.455459,7.850706,-8.266517,23.429200,-0.094868,0.080931,0.000000,-0.175339,0.555454,0.000000
2.660000,0.459432,1.093267,-1.028128,2.881667,-0.161625,-0.387403,-1.048809,-1.177216,-2.284641,-6.451546,-1.955099,3.689086,8.359757,-7.553632,23.294818,-0.096668,0.086500,0.000000,-0.184218,0.553099,0.000000
2.670000,0.488196,1.091592,-1.032117,2.870856,-0.173495,-0.410065,-1.112906,-1.197146,-2.246586,-6.365364,-2.026832,3.921355,8.889882,-6.784529,23.164203,-0.098553,0.092046,0.000000,-0.192624,0.550581,0.000000
2.680000,0.516849,1.089797,-1.036330,2.859409,-0.185568,-0.432335,-1.176116,-1.217753,-2.206214,-6.273748,-2.090789,4.152370,9.417007,-6.040308,23.027709,-0.100521,0.097567,0.000000,-0.200547,0.547875,-0.000000
2.690000,0.545384,1.087880,-1.040763,2.847334,-0.197850,-0.454189,-1.238381,-1.238962,-2.163538,-6.177024,-2.147638,4.381910,9.910638,-5.312601,22.852586,-0.102565,0.103060,0.000000,-0.208045,0.545000,-0.000000
2.700000,0.573796,1.085840,-1.045414,2.834641,-0.210347,-0.475605,-1.299656,-1.260706,-2.118576,-6.075535,-2.197041,4.609422,10.455412,-4.339167,22.630694,-0.104682,0.108525,0.000000,-0.215086,0.541975,0.000000
2.710000,0.602077,1.083673,-1.050276,2.821341,-0.223064,-0.496561,-1.359892,-1.282902,-2.071350,-5.967915,-2.234422,4.834523,11.063072,-3.153538,22.381190,-0.106867,0.113960,0.000000,-0.221293,0.538677,0.000000
2.720000,0.630223,1.081379,-1.055345,2.807444,-0.236005,-0.517032,-1.419015,-1.305394,-2.021886,-5.854274,-2.260112,5.057046,11.483984,-2.508578,22.117390,-0.109108,0.119361,0.000000,-0.226687,0.535104,0.000000
2.730000,0.658226,1.078953,-1.060616,2.792961,-0.249172,-0.536998,-1.476978,-1.328105,-1.970209,-5.738236,-2.284593,5.276871,11.703776,-2.460571,21.833000,-0.111401,0.124727,0.000000,-0.232131,0.531547,-0.000000
2.740000,0.686082,1.076395,-1.066085,2.777904,-0.262568,-0.556437,-1.533779,-1.351086,-1.916348,-5.620198,-2.309324,5.493706,12.068356,-1.963602,21.506152,-0.113752,0.130059,0.000000,-0.237749,0.528030,-0.000000
2.750000,0.713784,1.073702,-1.071745,2.762285,-0.276194,-0.575325,-1.589382,-1.374291,-1.860335,-5.496869,-2.323865,5.706994,12.620604,-0.622139,21.115360,-0.116157,0.135357,0.000000,-0.242673,0.524265,0.000000
2.760000,0.741328,1.070871,-1.077591,2.746116,-0.290053,-0.593643,-1.643717,-1.397564,-1.802208,-5.367786,-2.321766,5.916013,13.127994,0.840631,20.673054,-0.118606,0.140617,0.000000,-0.246344,0.520192,-0.000000
2.770000,0.768707,1.067901,-1.083618,2.729411,-0.304145,-0.611370,-1.696737,-1.420726,-1.742015,-5.234309,-2.307053,6.120455,13.554989,1.541909,20.230796,-0.121084,0.145835,0.000000,-0.249082,0.515909,-0.000000
2.780000,0.795916,1.064788,-1.089819,2.712182,-0.318468,-0.628484,-1.748403,-1.443705,-1.679799,-5.096687,-2.290928,6.320629,14.030182,1.860654,19.773714,-0.123588,0.151012,0.000000,-0.251826,0.511429,-0.000000
2.790000,0.822950,1.061532,-1.096187,2.694443,-0.333019,-0.644966,-1.798671,-1.466545,-1.615602,-4.953705,-2.269840,6.515930,14.575689,2.938137,19.228674,-0.126122,0.156143,0.000000,-0.254274,0.506628,-0.000000
2.800000,0.849805,1.058128,-1.102718,2.676208,-0.347799,-0.660796,-1.847477,-1.489101,-1.549481,-4.805173,-2.232165,6.705202,14.855876,3.815114,18.654780,-0.128674,0.161226,0.000000,-0.255413,0.501456,0.000000
2.810000,0.876474,1.054576,-1.109403,2.657493,-0.362801,-0.675955,-1.894775,-1.511188,-1.481498,-4.656588,-2.193537,6.889025,14.889164,3.837624,18.091565,-0.131230,0.166256,0.000000,-0.256554,0.496374,0.000000
2.820000,0.902955,1.050872,-1.116237,2.638313,-0.378023,-0.690426,-1.940609,-1.532972,-1.411700,-4.507390,-2.155413,7.067034,15.625057,5.994815,17.343569,-0.133806,0.171240,0.000000,-0.257827,0.491318,-0.000000
2.830000,0.929241,1.047015,-1.123212,2.618681,-0.393461,-0.704189,-1.984922,-1.554297,-1.340157,-4.344086,-2.073641,7.235897,17.082563,10.757311,16.373497,-0.136387,0.176172,0.000000,-0.255385,0.485061,-0.000000
