time,x,y,z,vx,vy,vz,ax,ay,az,jx,jy,jz,sx,sy,sz,roll,pitch,yaw,p,q,r
0.000000,-3.283346,-0.232938,-1.481060,0.013295,-0.008276,-0.005706,0.042928,0.572960,0.049171,0.772872,21.000197,2.056642,-110.480274,-680.725044,-37.444280,0.058632,-0.004398,0.000000,2.156373,-0.079968,-0.000000
0.010000,-3.283213,-0.233020,-1.481117,0.013724,-0.002547,-0.005214,0.050657,0.782962,0.069737,-0.331931,14.192946,1.682199,-160.602095,-1468.935315,-105.098810,0.080211,-0.005201,0.000000,1.461575,0.033072,-0.000000
0.020000,-3.283072,-0.232988,-1.481165,0.014308,0.007383,-0.004311,0.036290,0.856819,0.082815,-2.439170,-8.378510,-0.045335,-111.185828,-1775.498632,-149.552990,0.087858,-0.003731,0.000000,-0.855038,0.249805,0.000000
0.030000,-3.282927,-0.232873,-1.481204,0.014450,0.014590,-0.003558,0.001873,0.615392,0.068830,-2.555648,-21.317026,-1.308861,74.159756,-388.919929,-55.133910,0.063091,-0.000192,0.000000,-2.188096,0.261859,-0.000000
0.040000,-3.282783,-0.232697,-1.481236,0.014345,0.019691,-0.002934,-0.014823,0.430479,0.056637,-0.955975,-16.156908,-1.148013,143.814018,469.792091,14.381108,0.044108,0.001520,0.000000,-1.658516,0.097741,-0.000000
0.050000,-3.282640,-0.232479,-1.481262,0.014153,0.023199,-0.002425,-0.017246,0.292254,0.045870,0.320633,-11.921184,-1.021239,113.583758,382.989876,11.214248,0.029922,0.001766,0.000000,-1.222947,-0.033008,-0.000000
0.060000,-3.282500,-0.232233,-1.481284,0.014000,0.025536,-0.002017,-0.008411,0.192055,0.036213,1.315700,-8.497111,-0.923728,87.373121,307.111917,8.512387,0.019647,0.000861,0.000000,-0.870896,-0.134670,-0.000000
0.070000,-3.282360,-0.231968,-1.481303,0.013985,0.027040,-0.001701,0.009068,0.122312,0.027396,2.068095,-5.778946,-0.850991,64.916556,241.457758,6.243284,0.012502,-0.000927,0.000000,-0.591734,-0.211308,-0.000000
0.080000,-3.282220,-0.231692,-1.481318,0.014182,0.027982,-0.001469,0.032951,0.076476,0.019193,2.614031,-3.667955,-0.798862,45.948571,185.326947,4.374700,0.007811,-0.003366,0.000000,-0.375252,-0.266703,-0.000000
0.090000,-3.282077,-0.231408,-1.481332,0.014644,0.028570,-0.001317,0.061349,0.048953,0.011418,2.987066,-2.072407,-0.763497,30.203597,138.019030,2.874404,0.004996,-0.006261,0.000000,-0.211890,-0.304343,0.000000
0.100000,-3.281927,-0.231120,-1.481345,0.015409,0.028961,-0.001241,0.092692,0.035028,0.003923,3.218103,-0.907575,-0.741374,17.416042,98.833550,1.710171,0.003572,-0.009452,0.000000,-0.092828,-0.327428,0.000000
0.110000,-3.281769,-0.230829,-1.481357,0.016498,0.029271,-0.001238,0.125711,0.030801,-0.003409,3.335387,-0.095736,-0.729294,7.320411,67.070055,0.849749,0.003138,-0.012809,0.000000,-0.010002,-0.338871,0.000000
0.120000,-3.281597,-0.230535,-1.481369,0.017923,0.029577,-0.001309,0.159400,0.033113,-0.010663,3.364511,0.433826,-0.724379,-0.348802,42.028091,0.260900,0.003371,-0.016230,0.000000,0.043901,-0.341306,0.000000
0.130000,-3.281410,-0.230238,-1.481383,0.019686,0.029933,-0.001452,0.193001,0.039478,-0.017897,3.328411,0.744826,-0.724076,-5.857179,23.007203,-0.088603,0.004016,-0.019636,0.000000,0.075449,-0.337090,-0.000000
0.140000,-3.281204,-0.229936,-1.481398,0.021783,0.030367,-0.001667,0.225968,0.048010,-0.025145,3.247368,0.893970,-0.726151,-9.470330,9.306932,-0.231012,0.004880,-0.022972,0.000000,0.090472,-0.328306,-0.000000
0.150000,-3.280974,-0.229630,-1.481416,0.024205,0.030893,-0.001955,0.257948,0.057357,-0.032420,3.139005,0.930964,-0.728696,-11.453735,0.226828,-0.198552,0.005825,-0.026202,0.000000,0.094072,-0.316763,-0.000000
0.160000,-3.280719,-0.229319,-1.481437,0.026942,0.031514,-0.002315,0.288749,0.066629,-0.039718,3.018293,0.898507,-0.730122,-12.072851,-4.933557,-0.023441,0.006762,-0.029307,0.000000,0.090617,-0.303993,0.000000
0.170000,-3.280436,-0.229000,-1.481463,0.029980,0.032226,-0.002749,0.318314,0.075327,-0.047022,2.897548,0.832293,-0.729165,-11.632267,-6.971857,0.256836,0.007638,-0.032282,0.000000,0.083751,-0.291257,-0.000000
0.180000,-3.280120,-0.228674,-1.481492,0.033308,0.033021,-0.003256,0.346699,0.083275,-0.054302,2.785648,0.759070,-0.724985,-11.077970,-8.286326,0.518778,0.008437,-0.035132,0.000000,0.076195,-0.279459,-0.000000
0.190000,-3.279769,-0.228340,-1.481528,0.036914,0.033891,-0.003835,0.374027,0.090509,-0.061522,2.675988,0.666567,-0.718789,-10.440141,-8.990320,0.761726,0.009162,-0.037871,0.000000,0.066710,-0.267927,-0.000000
0.200000,-3.279382,-0.227996,-1.481569,0.040789,0.034831,-0.004486,0.400219,0.096606,-0.068678,2.576845,0.579263,-0.709751,-4.963603,2.743804,1.626806,0.009771,-0.040491,0.000000,0.057780,-0.257503,-0.000000
0.210000,-3.278954,-0.227643,-1.481617,0.044919,0.035823,-0.005209,0.425564,0.102094,-0.075717,2.576716,0.721443,-0.686253,4.548134,24.873310,3.009616,0.010317,-0.043022,0.000000,0.072073,-0.257172,0.000000
0.220000,-3.278483,-0.227280,-1.481673,0.049300,0.036873,-0.006000,0.451754,0.111035,-0.082403,2.667807,1.076730,-0.649559,3.430756,20.766299,2.947348,0.011212,-0.045635,0.000000,0.107845,-0.266112,0.000000
0.230000,-3.277968,-0.226906,-1.481737,0.053954,0.038044,-0.006857,0.478920,0.123629,-0.088708,2.645331,1.136769,-0.627306,-8.887700,-11.085260,1.375848,0.012474,-0.048344,0.000000,0.113739,-0.263537,0.000000
0.240000,-3.277404,-0.226519,-1.481810,0.058878,0.039345,-0.007775,0.504660,0.133771,-0.094949,2.490053,0.855024,-0.622042,-12.670648,-21.456010,0.942288,0.013487,-0.050906,0.000000,0.085178,-0.247530,0.000000
0.250000,-3.276790,-0.226119,-1.481893,0.064047,0.040719,-0.008756,0.528721,0.140729,-0.101149,2.391918,0.707648,-0.608460,-5.747247,-4.650385,1.873599,0.014178,-0.053296,0.000000,0.070234,-0.237362,0.000000
0.260000,-3.276123,-0.225705,-1.481986,0.069453,0.042160,-0.009798,0.552499,0.147924,-0.107118,2.375109,0.762017,-0.584570,-1.688451,5.396411,2.360344,0.014892,-0.055654,0.000000,0.075630,-0.235455,-0.000000
0.270000,-3.275401,-0.225276,-1.482089,0.075097,0.043678,-0.010898,0.576223,0.155969,-0.112840,2.358149,0.815577,-0.561253,-2.751270,2.104727,2.296943,0.015690,-0.058005,0.000000,0.080933,-0.233548,-0.000000
0.280000,-3.274621,-0.224831,-1.482203,0.080977,0.045279,-0.012054,0.599662,0.164235,-0.118343,2.320083,0.804111,-0.538631,-4.296677,-3.047740,2.312039,0.016510,-0.060326,0.000000,0.079698,-0.229537,0.000000
0.290000,-3.273782,-0.224370,-1.482330,0.087090,0.046963,-0.013265,0.622625,0.172052,-0.123613,2.272216,0.754622,-0.515013,-4.532515,-4.352094,2.380507,0.017284,-0.062597,0.000000,0.074656,-0.224575,-0.000000
0.300000,-3.272879,-0.223892,-1.482469,0.093430,0.048720,-0.014527,0.645106,0.179327,-0.128643,2.229433,0.717069,-0.491021,-4.017663,-2.785556,2.405436,0.018004,-0.064818,0.000000,0.070828,-0.220149,-0.000000
0.310000,-3.271913,-0.223396,-1.482620,0.099992,0.050549,-0.015838,0.667214,0.186393,-0.133433,2.191862,0.698911,-0.466904,-3.799573,-1.870511,2.427997,0.018701,-0.067000,0.000000,0.068957,-0.216271,0.000000
0.320000,-3.270880,-0.222881,-1.482786,0.106774,0.052448,-0.017195,0.688943,0.193306,-0.137981,2.153441,0.679659,-0.442461,-3.775304,-2.379681,2.470759,0.019383,-0.069144,0.000000,0.066986,-0.212331,0.000000
0.330000,-3.269777,-0.222347,-1.482964,0.113771,0.054415,-0.018597,0.710282,0.199986,-0.142283,2.116356,0.651317,-0.417489,-3.576874,-3.163569,2.519484,0.020041,-0.071248,0.000000,0.064113,-0.208552,-0.000000
0.340000,-3.268604,-0.221792,-1.483157,0.120980,0.056448,-0.020041,0.731270,0.206332,-0.146331,2.081904,0.616388,-0.392071,-3.435721,-3.498915,2.548712,0.020665,-0.073316,0.000000,0.060592,-0.205061,-0.000000
0.350000,-3.267358,-0.221218,-1.483365,0.128397,0.058542,-0.021524,0.751921,0.212314,-0.150124,2.047642,0.581339,-0.366514,-3.473208,-3.439212,2.556768,0.021253,-0.075350,0.000000,0.057069,-0.201611,0.000000
0.360000,-3.266036,-0.220622,-1.483588,0.136018,0.060694,-0.023043,0.772223,0.217959,-0.153661,2.012440,0.547603,-0.340936,-3.511316,-3.443580,2.561242,0.021807,-0.077349,0.000000,0.053689,-0.198089,-0.000000
0.370000,-3.264637,-0.220004,-1.483826,0.143841,0.062901,-0.024597,0.792169,0.223266,-0.156943,1.977416,0.512467,-0.315290,-3.384787,-3.690214,2.569367,0.022327,-0.079313,0.000000,0.050178,-0.194605,-0.000000
0.380000,-3.263159,-0.219364,-1.484080,0.151862,0.065159,-0.026182,0.811771,0.228208,-0.159967,1.944744,0.473799,-0.289548,-3.152734,-4.025417,2.576029,0.022810,-0.081242,0.000000,0.046324,-0.191377,0.000000
0.390000,-3.261600,-0.218701,-1.484350,0.160076,0.067465,-0.027796,0.831064,0.232742,-0.162734,1.914361,0.431959,-0.263769,-3.022576,-4.248732,2.573567,0.023253,-0.083142,0.000000,0.042161,-0.188396,-0.000000
0.400000,-3.259958,-0.218014,-1.484636,0.168483,0.069814,-0.029437,0.850059,0.236847,-0.165243,1.884292,0.388825,-0.238077,-2.978381,-4.395022,2.560424,0.023653,-0.085011,0.000000,0.037878,-0.185464,-0.000000
0.410000,-3.258231,-0.217304,-1.484938,0.177078,0.072202,-0.031101,0.868750,0.240518,-0.167495,1.854793,0.344058,-0.212561,-2.883638,-4.591627,2.542214,0.024011,-0.086852,0.000000,0.033441,-0.182605,0.000000
0.420000,-3.256416,-0.216570,-1.485258,0.185858,0.074625,-0.032787,0.887154,0.243729,-0.169494,1.826620,0.296992,-0.187233,-2.805152,-4.754809,2.525121,0.024322,-0.088665,0.000000,0.028781,-0.179894,-0.000000
0.430000,-3.254513,-0.215812,-1.485594,0.194821,0.077077,-0.034491,0.905282,0.246458,-0.171240,1.798690,0.248962,-0.162058,-2.789959,-4.837026,2.507836,0.024586,-0.090451,0.000000,0.024032,-0.177223,-0.000000
0.440000,-3.252520,-0.215029,-1.485948,0.203964,0.079554,-0.036212,0.923128,0.248708,-0.172735,1.770821,0.200251,-0.137076,-2.734668,-4.964141,2.482847,0.024803,-0.092210,0.000000,0.019221,-0.174572,0.000000
0.450000,-3.250434,-0.214221,-1.486318,0.213283,0.082051,-0.037946,0.940699,0.250463,-0.173981,1.743997,0.149679,-0.112401,-2.647236,-5.151015,2.449141,0.024971,-0.093943,0.000000,0.014231,-0.172037,0.000000
0.460000,-3.248254,-0.213388,-1.486707,0.222777,0.084563,-0.039691,0.958008,0.251701,-0.174983,1.717876,0.097231,-0.088093,-2.597386,-5.310800,2.412130,0.025087,-0.095652,0.000000,0.009058,-0.169584,-0.000000
0.470000,-3.245979,-0.212529,-1.487112,0.232443,0.087085,-0.041446,0.975056,0.252408,-0.175743,1.692049,0.043463,-0.064159,-2.519583,-5.446411,2.374456,0.025152,-0.097336,0.000000,0.003757,-0.167172,-0.000000
0.480000,-3.243605,-0.211646,-1.487535,0.242279,0.089611,-0.043206,0.991849,0.252571,-0.176266,1.667484,-0.011697,-0.040604,-2.387415,-5.589574,2.334474,0.025163,-0.098997,0.000000,-0.001679,-0.164895,0.000000
0.490000,-3.241133,-0.210737,-1.487976,0.252280,0.092136,-0.044971,1.008406,0.252174,-0.176555,1.644301,-0.068328,-0.017469,-2.297411,-5.728561,2.289416,0.025118,-0.100635,0.000000,-0.007260,-0.162763,0.000000
0.500000,-3.238560,-0.209803,-1.488435,0.262447,0.094655,-0.046737,1.024735,0.251204,-0.176615,1.621536,-0.126268,0.005184,-2.257670,-5.852653,2.239763,0.025017,-0.102253,0.000000,-0.012969,-0.160682,-0.000000
0.510000,-3.235884,-0.208844,-1.488911,0.272775,0.097160,-0.048503,1.040837,0.249649,-0.176452,1.599148,-0.185381,0.027326,-2.202723,-5.971818,2.187528,0.024859,-0.103850,0.000000,-0.018795,-0.158644,0.000000
0.520000,-3.233104,-0.207860,-1.489405,0.283263,0.099648,-0.050266,1.056718,0.247496,-0.176069,1.577481,-0.245705,0.048935,-2.141867,-6.103205,2.131924,0.024642,-0.105427,0.000000,-0.024741,-0.156684,0.000000
0.530000,-3.230219,-0.206851,-1.489916,0.293910,0.102110,-0.052025,1.072386,0.244735,-0.175473,1.556310,-0.307445,0.069965,-2.101136,-6.245951,2.072235,0.024364,-0.106985,0.000000,-0.030829,-0.154778,-0.000000
0.540000,-3.227226,-0.205818,-1.490445,0.304711,0.104542,-0.053776,1.087844,0.241348,-0.174670,1.535459,-0.370624,0.090379,-2.062291,-6.377265,2.010071,0.024025,-0.108523,0.000000,-0.037062,-0.152908,-0.000000
0.550000,-3.224125,-0.204760,-1.490992,0.315666,0.106937,-0.055518,1.103096,0.237322,-0.173665,1.515064,-0.434991,0.110166,-2.005971,-6.482065,1.946980,0.023623,-0.110044,0.000000,-0.043416,-0.151086,-0.000000
0.560000,-3.220913,-0.203679,-1.491556,0.326773,0.109289,-0.057249,1.118146,0.232648,-0.172466,1.495339,-0.500265,0.129319,-1.947363,-6.576812,1.881978,0.023157,-0.111546,0.000000,-0.049864,-0.149333,0.000000
0.570000,-3.217589,-0.202575,-1.492137,0.338029,0.111590,-0.058967,1.133002,0.227317,-0.171079,1.476117,-0.566527,0.147806,-1.930647,-6.701359,1.811747,0.022626,-0.113031,0.000000,-0.056413,-0.147632,0.000000
0.580000,-3.214152,-0.201447,-1.492735,0.349433,0.113835,-0.060671,1.147668,0.221317,-0.169510,1.456726,-0.634292,0.165554,-1.951054,-6.849678,1.736603,0.022028,-0.114499,0.000000,-0.063117,-0.145914,-0.000000
0.590000,-3.210600,-0.200298,-1.493350,0.360983,0.116017,-0.062357,1.162137,0.214631,-0.167768,1.437096,-0.703520,0.182538,-1.949922,-6.968226,1.661370,0.021363,-0.115950,0.000000,-0.069971,-0.144171,-0.000000
0.600000,-3.206933,-0.199127,-1.493982,0.372676,0.118128,-0.064026,1.176410,0.207247,-0.165860,1.417728,-0.773657,0.198781,-1.932302,-7.063272,1.587465,0.020629,-0.117384,0.000000,-0.076922,-0.142454,-0.000000
0.610000,-3.203147,-0.197935,-1.494631,0.384511,0.120161,-0.065675,1.190491,0.199158,-0.163792,1.398450,-0.844786,0.214287,-1.936990,-7.169290,1.511924,0.019825,-0.118800,0.000000,-0.083978,-0.140744,-0.000000
0.620000,-3.199242,-0.196724,-1.495296,0.396486,0.122111,-0.067302,1.204379,0.190351,-0.161574,1.378988,-0.917042,0.229020,-1.938327,-7.256833,1.432326,0.018949,-0.120199,0.000000,-0.091152,-0.139013,-0.000000
0.630000,-3.195217,-0.195493,-1.495977,0.408598,0.123968,-0.068906,1.218071,0.180817,-0.159212,1.359683,-0.989922,0.242933,-1.922080,-7.312378,1.349691,0.018002,-0.121581,0.000000,-0.098396,-0.137293,-0.000000
0.640000,-3.191070,-0.194244,-1.496674,0.420847,0.125727,-0.070486,1.231573,0.170553,-0.156715,1.340547,-1.063290,0.256014,-1.926822,-7.378550,1.267509,0.016981,-0.122945,0.000000,-0.105697,-0.135586,-0.000000
0.650000,-3.186800,-0.192979,-1.497387,0.433230,0.127380,-0.072040,1.244882,0.159551,-0.154092,1.321147,-1.137493,0.268284,-1.955126,-7.458860,1.187671,0.015888,-0.124293,0.000000,-0.113088,-0.133848,0.000000
0.660000,-3.182406,-0.191697,-1.498115,0.445745,0.128918,-0.073568,1.257996,0.147803,-0.151349,1.301444,-1.212467,0.279767,-1.980697,-7.523570,1.108155,0.014720,-0.125623,0.000000,-0.120564,-0.132075,-0.000000
0.670000,-3.177885,-0.190400,-1.498858,0.458390,0.130336,-0.075067,1.270911,0.135302,-0.148496,1.281533,-1.287965,0.290447,-2.010308,-7.575860,1.024596,0.013476,-0.126935,0.000000,-0.128100,-0.130276,-0.000000
0.680000,-3.173238,-0.189090,-1.499616,0.471163,0.131624,-0.076538,1.283626,0.122043,-0.145540,1.261238,-1.363984,0.300259,-2.053933,-7.626157,0.937631,0.012158,-0.128228,0.000000,-0.135697,-0.128431,-0.000000
0.690000,-3.168462,-0.187768,-1.500389,0.484062,0.132776,-0.077978,1.296136,0.108022,-0.142491,1.240454,-1.440488,0.309199,-2.099983,-7.666773,0.853766,0.010762,-0.129503,0.000000,-0.143351,-0.126530,-0.000000
0.700000,-3.163557,-0.186435,-1.501176,0.497086,0.133785,-0.079388,1.308435,0.093234,-0.139356,1.219238,-1.517320,0.317334,-2.143560,-7.694194,0.775525,0.009291,-0.130759,0.000000,-0.151045,-0.124579,-0.000000
0.710000,-3.158520,-0.185092,-1.501976,0.510231,0.134641,-0.080765,1.320521,0.077676,-0.136144,1.197583,-1.594372,0.324710,-2.193184,-7.713719,0.698883,0.007742,-0.131995,0.000000,-0.158770,-0.122577,-0.000000
0.720000,-3.153352,-0.183742,-1.502791,0.523496,0.135338,-0.082111,1.332387,0.061346,-0.132862,1.175375,-1.671594,0.331312,-2.257051,-7.728790,0.618752,0.006115,-0.133211,0.000000,-0.166519,-0.120512,-0.000000
0.730000,-3.148051,-0.182385,-1.503619,0.536879,0.135868,-0.083423,1.344028,0.044244,-0.129518,1.152442,-1.748948,0.337085,-2.332716,-7.737263,0.536583,0.004411,-0.134405,0.000000,-0.174290,-0.118366,-0.000000
0.740000,-3.142615,-0.181024,-1.504459,0.550377,0.136223,-0.084701,1.355436,0.026367,-0.126121,1.128720,-1.826340,0.342044,-2.409630,-7.734310,0.459848,0.002629,-0.135578,0.000000,-0.182071,-0.116132,-0.000000
0.750000,-3.137043,-0.179661,-1.505313,0.563988,0.136395,-0.085945,1.366602,0.007717,-0.122677,1.104250,-1.903634,0.346282,-2.485637,-7.719863,0.390940,0.000770,-0.136728,0.000000,-0.189850,-0.113816,0.000000
0.760000,-3.131335,-0.178296,-1.506178,0.577709,0.136377,-0.087154,1.377521,-0.011705,-0.119195,1.079007,-1.980737,0.349862,-2.567846,-7.696617,0.325360,-0.001168,-0.137854,0.000000,-0.197616,-0.111414,0.000000
0.770000,-3.125489,-0.176933,-1.507056,0.591538,0.136161,-0.088329,1.388183,-0.031898,-0.115680,1.052893,-2.057566,0.352789,-2.661100,-7.663420,0.258638,-0.003183,-0.138956,0.000000,-0.205362,-0.108918,0.000000
0.780000,-3.119504,-0.175573,-1.507945,0.605472,0.135739,-0.089468,1.398579,-0.052857,-0.112139,1.025785,-2.134005,0.355035,-2.763196,-7.618681,0.192600,-0.005275,-0.140033,0.000000,-0.213074,-0.106313,-0.000000
0.790000,-3.113379,-0.174218,-1.508845,0.619509,0.135104,-0.090572,1.408698,-0.074578,-0.108579,0.997629,-2.209940,0.356641,-2.867832,-7.563625,0.134000,-0.007444,-0.141083,0.000000,-0.220740,-0.103596,0.000000
0.800000,-3.107114,-0.172871,-1.509756,0.633646,0.134248,-0.091640,1.418531,-0.097056,-0.105006,0.968429,-2.285278,0.357715,-2.972971,-7.499874,0.084601,-0.009690,-0.142105,0.000000,-0.228352,-0.100767,-0.000000
0.810000,-3.100706,-0.171533,-1.510678,0.647880,0.133163,-0.092672,1.428067,-0.120283,-0.101425,0.938169,-2.359937,0.358333,-3.082700,-7.425949,0.040585,-0.012011,-0.143098,0.000000,-0.235900,-0.097826,0.000000
0.820000,-3.094156,-0.170208,-1.511610,0.662208,0.131842,-0.093668,1.437295,-0.144254,-0.097840,0.906775,-2.433797,0.358527,-3.202019,-7.336766,-0.000651,-0.014408,-0.144061,0.000000,-0.243372,-0.094766,-0.000000
0.830000,-3.087462,-0.168897,-1.512551,0.676626,0.130278,-0.094629,1.446202,-0.168959,-0.094254,0.874129,-2.506673,0.358320,-3.329666,-7.231629,-0.037240,-0.016879,-0.144994,0.000000,-0.250748,-0.091575,0.000000
0.840000,-3.080624,-0.167602,-1.513502,0.691132,0.128463,-0.095553,1.454777,-0.194388,-0.090673,0.840181,-2.578429,0.357782,-3.458597,-7.116989,-0.064807,-0.019423,-0.145893,0.000000,-0.258016,-0.088249,0.000000
0.850000,-3.073640,-0.166327,-1.514462,0.705722,0.126390,-0.096442,1.463006,-0.220528,-0.087099,0.804957,-2.649012,0.357024,-3.586549,-6.998207,-0.082617,-0.022039,-0.146759,0.000000,-0.265168,-0.084791,0.000000
0.860000,-3.066509,-0.165074,-1.515431,0.720392,0.124052,-0.097295,1.470876,-0.247368,-0.083533,0.768451,-2.718393,0.356130,-3.718068,-6.870160,-0.092732,-0.024726,-0.147589,0.000000,-0.272203,-0.081203,-0.000000
0.870000,-3.059232,-0.163846,-1.516408,0.735139,0.121443,-0.098113,1.478375,-0.274896,-0.079976,0.730596,-2.786416,0.355169,-3.858089,-6.717913,-0.094999,-0.027483,-0.148383,0.000000,-0.279103,-0.077479,0.000000
0.880000,-3.051806,-0.162646,-1.517393,0.749959,0.118555,-0.098895,1.485488,-0.303096,-0.076429,0.691289,-2.852752,0.354230,-4.005760,-6.543337,-0.087704,-0.030308,-0.149140,0.000000,-0.285837,-0.073610,-0.000000
0.890000,-3.044233,-0.161475,-1.518386,0.764849,0.115381,-0.099641,1.492201,-0.331951,-0.072892,0.650480,-2.917282,0.353415,-4.153725,-6.366026,-0.070098,-0.033200,-0.149856,0.000000,-0.292393,-0.069592,-0.000000
0.900000,-3.036510,-0.160338,-1.519386,0.779803,0.111916,-0.100353,1.498498,-0.361442,-0.069361,0.608214,-2.980072,0.352828,-4.294730,-6.181570,-0.044047,-0.036156,-0.150532,0.000000,-0.298777,-0.065432,0.000000
0.910000,-3.028637,-0.159237,-1.520393,0.794819,0.108152,-0.101029,1.504365,-0.391552,-0.065835,0.564586,-3.040914,0.352534,-4.433757,-5.977142,-0.008970,-0.039175,-0.151166,0.000000,-0.304969,-0.061139,0.000000
0.920000,-3.020613,-0.158175,-1.521407,0.809891,0.104084,-0.101669,1.509790,-0.422260,-0.062310,0.519539,-3.099615,0.352648,-4.589344,-5.769083,0.042324,-0.042255,-0.151756,0.000000,-0.310950,-0.056711,0.000000
0.930000,-3.012439,-0.157155,-1.522427,0.825015,0.099707,-0.102275,1.514756,-0.453545,-0.058782,0.472799,-3.156295,0.353381,-4.757526,-5.564090,0.111012,-0.045394,-0.152301,0.000000,-0.316733,-0.052122,0.000000
0.940000,-3.004113,-0.156181,-1.523452,0.840186,0.095014,-0.102845,1.519246,-0.485386,-0.055243,0.424389,-3.210897,0.354869,-4.912888,-5.337843,0.188247,-0.048590,-0.152799,0.000000,-0.322315,-0.047377,0.000000
0.950000,-2.995635,-0.155255,-1.524484,0.855400,0.089999,-0.103380,1.523244,-0.517762,-0.051685,0.374541,-3.263052,0.357146,-5.070061,-5.074844,0.270149,-0.051841,-0.153250,0.000000,-0.327660,-0.042501,-0.000000
0.960000,-2.987005,-0.154381,-1.525520,0.870651,0.084658,-0.103879,1.526736,-0.550647,-0.048100,0.322987,-3.312394,0.360272,-5.243994,-4.792420,0.363731,-0.055143,-0.153651,0.000000,-0.332731,-0.037466,0.000000
0.970000,-2.978222,-0.153562,-1.526561,0.885934,0.078986,-0.104342,1.529703,-0.584010,-0.044479,0.269661,-3.358901,0.364420,-5.385429,-4.527508,0.479930,-0.058495,-0.154000,0.000000,-0.337531,-0.032271,0.000000
0.980000,-2.969286,-0.152801,-1.527607,0.901245,0.072978,-0.104768,1.532130,-0.617825,-0.040811,0.215279,-3.402944,0.369870,-5.483034,-4.277598,0.617799,-0.061894,-0.154297,0.000000,-0.342096,-0.026988,0.000000
0.990000,-2.960197,-0.152102,-1.528656,0.916577,0.066630,-0.105158,1.534009,-0.652069,-0.037082,0.160001,-3.444453,0.376776,-5.606324,-3.991648,0.763585,-0.065337,-0.154541,0.000000,-0.346425,-0.021637,-0.000000
1.000000,-2.950955,-0.151469,-1.529710,0.931925,0.059937,-0.105510,1.535330,-0.686714,-0.033276,0.103152,-3.482777,0.385142,-5.790377,-3.644890,0.912111,-0.068822,-0.154731,0.000000,-0.350454,-0.016150,0.000000
1.010000,-2.941559,-0.150904,-1.530767,0.947283,0.052895,-0.105823,1.536072,-0.721725,-0.029379,0.044193,-3.517350,0.395019,-5.985648,-3.272121,1.073457,-0.072346,-0.154865,0.000000,-0.354129,-0.010475,0.000000
1.020000,-2.932009,-0.150411,-1.531826,0.962646,0.045502,-0.106097,1.536213,-0.757061,-0.025376,-0.016561,-3.548219,0.406611,-6.109777,-2.932149,1.261590,-0.075905,-0.154941,0.000000,-0.357461,-0.004646,0.000000
1.030000,-2.922306,-0.149993,-1.532889,0.978008,0.037754,-0.106331,1.535741,-0.792689,-0.021247,-0.078002,-3.575993,0.420250,-6.196419,-2.595304,1.475412,-0.079496,-0.154958,0.000000,-0.360512,0.001223,0.000000
1.040000,-2.912449,-0.149656,-1.533953,0.993361,0.029648,-0.106522,1.534653,-0.828581,-0.016971,-0.140489,-3.600125,0.436119,-6.350941,-2.185947,1.696578,-0.083115,-0.154916,0.000000,-0.363234,0.007165,0.000000
1.050000,-2.902438,-0.149400,-1.535019,1.008701,0.021183,-0.106670,1.532931,-0.864692,-0.012524,-0.205021,-3.619712,0.454182,-6.444676,-1.831308,1.911682,-0.086760,-0.154814,0.000000,-0.365541,0.013282,0.000000
1.060000,-2.892275,-0.149232,-1.536086,1.024020,0.012355,-0.106773,1.530553,-0.900975,-0.007887,-0.269383,-3.636751,0.474353,-6.419065,-1.569484,2.134108,-0.090426,-0.154650,0.000000,-0.367633,0.019354,-0.000000
1.070000,-2.881958,-0.149153,-1.537155,1.039312,0.003163,-0.106828,1.527543,-0.937427,-0.003037,-0.333403,-3.651102,0.496864,-6.664537,-1.017479,2.400161,-0.094113,-0.154425,0.000000,-0.369500,0.025364,0.000000
1.080000,-2.871489,-0.149169,-1.538223,1.054571,-0.006394,-0.106834,1.523885,-0.973997,0.002050,-0.402673,-3.657101,0.522356,-7.202403,-0.161244,2.707535,-0.097816,-0.154140,0.000000,-0.370596,0.031855,0.000000
1.090000,-2.860867,-0.149281,-1.539291,1.069790,-0.016317,-0.106787,1.519490,-1.010569,0.007410,-0.477451,-3.654327,0.551015,-7.490759,0.470392,3.006704,-0.101525,-0.153785,0.000000,-0.370886,0.038854,0.000000
1.100000,-2.850093,-0.149495,-1.540359,1.084960,-0.026605,-0.106685,1.514336,-1.047084,0.013071,-0.552488,-3.647693,0.582490,-7.568310,0.920678,3.284486,-0.105234,-0.153359,0.000000,-0.370856,0.045847,0.000000
1.110000,-2.839167,-0.149813,-1.541425,1.100076,-0.037259,-0.106526,1.508440,-1.083523,0.019060,-0.628817,-3.635913,0.616704,-7.790948,1.536883,3.574310,-0.108942,-0.152863,0.000000,-0.370380,0.052940,0.000000
1.120000,-2.828091,-0.150240,-1.542489,1.115129,-0.048276,-0.106304,1.501760,-1.119802,0.025405,-0.708307,-3.616956,0.653977,-7.905822,2.060122,3.903498,-0.112642,-0.152294,0.000000,-0.369269,0.060317,0.000000
1.130000,-2.816865,-0.150779,-1.543551,1.130111,-0.059655,-0.106018,1.494274,-1.155862,0.032139,-0.786933,-3.594711,0.694774,-7.765120,2.341921,4.261692,-0.116328,-0.151649,0.000000,-0.367913,0.067574,0.000000
1.140000,-2.805489,-0.151433,-1.544610,1.145015,-0.071393,-0.105661,1.486021,-1.191696,0.039300,-0.863610,-3.570117,0.739210,-7.745564,2.768652,4.612412,-0.120000,-0.150933,0.000000,-0.366409,0.074603,0.000000
1.150000,-2.793965,-0.152207,-1.545664,1.159832,-0.083489,-0.105232,1.477002,-1.227264,0.046923,-0.941845,-3.539338,0.787023,-7.967498,3.491751,4.944200,-0.123656,-0.150146,0.000000,-0.364384,0.081760,-0.000000
1.160000,-2.782292,-0.153103,-1.546714,1.174555,-0.095938,-0.104723,1.467184,-1.262483,0.055041,-1.022960,-3.500282,0.838094,-8.162426,4.234863,5.280561,-0.127288,-0.149285,0.000000,-0.361633,0.089182,0.000000
1.170000,-2.770473,-0.154126,-1.547759,1.189176,-0.108738,-0.104131,1.456543,-1.297270,0.063685,-1.105093,-3.454641,0.892634,-8.112722,4.693358,5.647903,-0.130889,-0.148348,0.000000,-0.358328,0.096686,-0.000000
1.180000,-2.758509,-0.155278,-1.548797,1.203686,-0.121884,-0.103449,1.445082,-1.331576,0.072893,-1.185214,-3.406415,0.951052,-7.923519,4.968902,6.039087,-0.134455,-0.147334,0.000000,-0.354873,0.103968,-0.000000
1.190000,-2.746400,-0.156563,-1.549828,1.218077,-0.135370,-0.102673,1.432838,-1.365398,0.082706,-1.263563,-3.355263,1.013416,-7.865595,5.454997,6.416831,-0.137987,-0.146249,0.000000,-0.351238,0.111054,-0.000000
1.200000,-2.734147,-0.157985,-1.550850,1.232342,-0.149192,-0.101795,1.419811,-1.398681,0.093162,-1.342526,-3.297315,1.079389,-7.815986,6.072710,6.766092,-0.141480,-0.145092,0.000000,-0.347041,0.118192,-0.000000
1.210000,-2.721753,-0.159547,-1.551864,1.246473,-0.163343,-0.100810,1.405988,-1.431344,0.104294,-1.419883,-3.233808,1.148737,-7.607875,6.572322,7.110508,-0.144928,-0.143861,0.000000,-0.342399,0.125168,-0.000000
1.220000,-2.709218,-0.161252,-1.552866,1.260462,-0.177818,-0.099709,1.391413,-1.463357,0.116136,-1.494684,-3.165869,1.221599,-7.624002,7.243589,7.483763,-0.148328,-0.142562,0.000000,-0.337428,0.131889,-0.000000
1.230000,-2.696544,-0.163103,-1.553858,1.274302,-0.192610,-0.098487,1.376094,-1.494662,0.128726,-1.572363,-3.088937,1.298413,-7.923362,8.205189,7.879220,-0.151677,-0.141194,0.000000,-0.331691,0.138898,-0.000000
1.240000,-2.683732,-0.165104,-1.554836,1.287984,-0.207712,-0.097135,1.359966,-1.525136,0.142105,-1.653151,-3.001765,1.379184,-7.967811,9.036864,8.248212,-0.154962,-0.139751,0.000000,-0.325065,0.146225,-0.000000
1.250000,-2.670784,-0.167258,-1.555800,1.301501,-0.223113,-0.095645,1.343031,-1.554697,0.156310,-1.731719,-2.908199,1.463377,-7.801718,9.564849,8.567378,-0.158178,-0.138234,0.000000,-0.317916,0.153351,0.000000
1.260000,-2.657702,-0.169567,-1.556749,1.314845,-0.238806,-0.094009,1.325332,-1.583300,0.171372,-1.809185,-2.810468,1.550531,-7.781331,10.088956,8.867674,-0.161321,-0.136645,0.000000,-0.310459,0.160400,0.000000
1.270000,-2.644487,-0.172034,-1.557681,1.328008,-0.254779,-0.092217,1.306847,-1.610906,0.187320,-1.887346,-2.706420,1.640730,-7.629189,10.984055,9.202171,-0.164387,-0.134983,0.000000,-0.302483,0.167556,-0.000000
1.280000,-2.631142,-0.174662,-1.558593,1.340982,-0.271024,-0.090262,1.287585,-1.637428,0.204187,-1.961769,-2.590787,1.734575,-7.216539,12.143680,9.559491,-0.167371,-0.133248,0.000000,-0.293456,0.174374,-0.000000
1.290000,-2.617667,-0.177454,-1.559486,1.353759,-0.287528,-0.088134,1.267612,-1.662722,0.222012,-2.031677,-2.463547,1.831920,-6.952688,13.077970,9.863934,-0.170257,-0.131446,0.000000,-0.283366,0.180779,0.000000
1.300000,-2.604066,-0.180413,-1.560356,1.366334,-0.304278,-0.085822,1.246951,-1.686699,0.240825,-2.100823,-2.329227,1.931853,-6.828465,13.846641,10.104224,-0.173038,-0.129579,0.000000,-0.272653,0.187170,0.000000
1.310000,-2.590341,-0.183540,-1.561202,1.378698,-0.321262,-0.083317,1.225596,-1.709307,0.260649,-2.168246,-2.186614,2.034005,-6.566257,14.763556,10.327075,-0.175710,-0.127646,0.000000,-0.261178,0.193458,0.000000
1.320000,-2.576492,-0.186838,-1.562022,1.390846,-0.338464,-0.080609,1.203586,-1.730432,0.281505,-2.232148,-2.033956,2.138395,-6.333634,15.572676,10.542751,-0.178262,-0.125649,0.000000,-0.248750,0.199467,0.000000
1.330000,-2.562524,-0.190309,-1.562814,1.402770,-0.355870,-0.077687,1.180953,-1.749986,0.303417,-2.294919,-1.875160,2.244860,-6.238021,16.139197,10.730010,-0.180685,-0.123592,0.000000,-0.235753,0.205446,-0.000000
1.340000,-2.548437,-0.193955,-1.563576,1.414465,-0.373464,-0.074541,1.157688,-1.767935,0.326402,-2.356908,-1.711172,2.352995,-6.021461,16.837568,10.872655,-0.182977,-0.121472,0.000000,-0.222264,0.211443,-0.000000
1.350000,-2.534235,-0.197778,-1.564305,1.425924,-0.391229,-0.071159,1.133814,-1.784209,0.350477,-2.415348,-1.538409,2.462313,-5.618381,17.787495,10.979309,-0.185130,-0.119290,0.000000,-0.207891,0.217186,-0.000000
1.360000,-2.519919,-0.201780,-1.564999,1.437141,-0.409148,-0.067531,1.109381,-1.798703,0.375649,-2.469276,-1.355422,2.572581,-5.207760,18.720383,11.054388,-0.187135,-0.117052,0.000000,-0.192462,0.222580,0.000000
1.370000,-2.505492,-0.205961,-1.565656,1.448111,-0.427203,-0.063646,1.084429,-1.811318,0.401928,-2.519503,-1.164001,2.683401,-4.877114,19.409750,11.065070,-0.188979,-0.114759,0.000000,-0.176130,0.227718,0.000000
1.380000,-2.490956,-0.210324,-1.566272,1.458830,-0.445375,-0.059493,1.058991,-1.821983,0.429317,-2.566818,-0.967227,2.793883,-4.545490,19.957943,11.002657,-0.190657,-0.112415,0.000000,-0.159174,0.232691,0.000000
1.390000,-2.476315,-0.214869,-1.566846,1.469291,-0.463643,-0.055060,1.033093,-1.830662,0.457806,-2.610413,-0.764842,2.903454,-4.109062,20.645669,10.906619,-0.192163,-0.110019,0.000000,-0.141532,0.237425,0.000000
1.400000,-2.461571,-0.219597,-1.567373,1.479492,-0.481988,-0.050336,1.006783,-1.837280,0.487386,-2.648999,-0.554314,3.012015,-3.700891,21.357159,10.793970,-0.193487,-0.107577,0.000000,-0.122915,0.241785,-0.000000
1.410000,-2.446725,-0.224509,-1.567852,1.489427,-0.500388,-0.045312,0.980113,-1.841748,0.518046,-2.684431,-0.337699,3.119333,-3.374101,21.916469,10.632032,-0.194620,-0.105091,0.000000,-0.103506,0.245966,-0.000000
1.420000,-2.431782,-0.229605,-1.568280,1.499094,-0.518823,-0.039975,0.953094,-1.844034,0.549773,-2.716481,-0.115985,3.224656,-2.737243,22.685971,10.371300,-0.195557,-0.102562,0.000000,-0.083363,0.249953,-0.000000
1.430000,-2.416743,-0.234885,-1.568652,1.508489,-0.537269,-0.034316,0.925783,-1.844068,0.582539,-2.739176,0.116020,3.326759,-1.745296,23.759304,10.013250,-0.196287,-0.099994,0.000000,-0.061881,0.253125,0.000000
1.440000,-2.401612,-0.240350,-1.568966,1.517609,-0.555704,-0.028325,0.898310,-1.841714,0.616308,-2.751387,0.359202,3.424921,-0.943561,24.614542,9.618972,-0.196794,-0.097400,0.000000,-0.038913,0.255358,-0.000000
1.450000,-2.386391,-0.245999,-1.569218,1.526455,-0.574103,-0.021990,0.870755,-1.836884,0.651038,-2.758047,0.608311,3.519139,-0.465620,25.050352,9.227430,-0.197064,-0.094786,0.000000,-0.014975,0.257156,-0.000000
1.460000,-2.371083,-0.251832,-1.569406,1.535025,-0.592442,-0.015304,0.843149,-1.829547,0.686690,-2.760700,0.860209,3.609469,0.062619,25.429382,8.791300,-0.197092,-0.092155,0.000000,0.009633,0.258676,-0.000000
1.470000,-2.355691,-0.257848,-1.569525,1.543318,-0.610694,-0.008257,0.815541,-1.819680,0.723227,-2.756795,1.116899,3.694965,0.889420,26.179039,8.200098,-0.196871,-0.089511,0.000000,0.035179,0.259643,-0.000000
1.480000,-2.340217,-0.264046,-1.569571,1.551335,-0.628835,-0.000839,0.788014,-1.807209,0.760590,-2.742911,1.383789,3.773471,1.865148,27.157238,7.460727,-0.196387,-0.086860,0.000000,0.062324,0.259696,0.000000
1.490000,-2.324664,-0.270425,-1.569541,1.559078,-0.646838,0.006955,0.760683,-1.792004,0.798696,-2.719492,1.660043,3.844179,2.678058,27.799799,6.719179,-0.195623,-0.084215,0.000000,0.091043,0.258862,0.000000
1.500000,-2.309035,-0.276983,-1.569432,1.566549,-0.664676,0.015135,0.733624,-1.774008,0.837473,-2.689350,1.939785,3.907855,3.475405,28.230184,6.014256,-0.194565,-0.081582,0.000000,0.120731,0.257416,-0.000000
1.510000,-2.293333,-0.283718,-1.569239,1.573751,-0.682319,0.023705,0.706896,-1.753208,0.876854,-2.649984,2.224647,3.964464,4.441143,28.798155,5.244419,-0.193207,-0.078967,0.000000,0.151603,0.255065,-0.000000
1.520000,-2.277560,-0.290629,-1.568958,1.580687,-0.699740,0.032672,0.680624,-1.729516,0.916763,-2.600527,2.515748,4.012743,5.111150,29.035071,4.321855,-0.191531,-0.076384,0.000000,0.183847,0.251694,-0.000000
1.530000,-2.261719,-0.297713,-1.568585,1.587363,-0.716909,0.042040,0.654885,-1.702893,0.957108,-2.547761,2.805349,4.050901,5.384971,28.711072,3.274756,-0.189528,-0.073840,0.000000,0.216686,0.248035,0.000000
1.540000,-2.245813,-0.304967,-1.568117,1.593785,-0.733798,0.051814,0.629669,-1.673409,0.997781,-2.492828,3.089970,4.078238,5.912459,28.506491,2.216704,-0.187196,-0.071333,0.000000,0.249770,0.244204,-0.000000
1.550000,-2.229844,-0.312389,-1.567549,1.599957,-0.750377,0.061996,0.605029,-1.641094,1.038673,-2.429511,3.375478,4.095235,6.857562,29.079661,1.186698,-0.184531,-0.068869,0.000000,0.283750,0.239483,0.000000
1.560000,-2.213814,-0.319975,-1.566877,1.605885,-0.766619,0.072587,0.581079,-1.605899,1.079685,-2.355677,3.671563,4.101972,7.766828,29.910791,0.108066,-0.181519,-0.066461,0.000000,0.319717,0.233600,-0.000000
1.570000,-2.197726,-0.327721,-1.566097,1.611578,-0.782495,0.083589,0.557915,-1.567663,1.120713,-2.274175,3.973694,4.097397,8.336896,29.295147,-1.117515,-0.178134,-0.064119,0.000000,0.357227,0.226847,0.000000
1.580000,-2.181582,-0.335625,-1.565205,1.617044,-0.797973,0.095001,0.535595,-1.526425,1.161633,-2.188939,4.257466,4.079622,8.776812,27.509206,-2.477322,-0.174372,-0.061851,0.000000,0.393598,0.219653,-0.000000
1.590000,-2.165385,-0.343681,-1.564197,1.622290,-0.813024,0.106822,0.514137,-1.482513,1.202305,-2.098639,4.523878,4.047850,9.450708,26.827385,-3.835341,-0.170260,-0.059659,0.000000,0.428893,0.211846,-0.000000
1.600000,-2.149136,-0.351885,-1.563069,1.627326,-0.827623,0.119048,0.493622,-1.435948,1.242590,-1.999925,4.794014,4.002915,9.937031,26.340669,-5.087009,-0.165792,-0.057553,0.000000,0.465441,0.203009,-0.000000
1.610000,-2.132839,-0.360233,-1.561816,1.632162,-0.841743,0.131674,0.474138,-1.386633,1.282363,-1.899898,5.050692,3.946110,10.034089,24.624903,-6.326525,-0.160950,-0.055543,0.000000,0.501246,0.193918,0.000000
1.620000,-2.116493,-0.368720,-1.560435,1.636809,-0.855356,0.144695,0.455624,-1.334934,1.321513,-1.799243,5.286512,3.876385,10.985435,24.790649,-7.826336,-0.155766,-0.053624,0.000000,0.535398,0.184650,0.000000
1.630000,-2.100102,-0.377340,-1.558922,1.641275,-0.868441,0.158104,0.438153,-1.280903,1.359891,-1.680189,5.546505,3.789584,12.877820,27.428617,-9.560561,-0.150240,-0.051805,0.000000,0.573105,0.173139,0.000000
1.640000,-2.083668,-0.386089,-1.557273,1.645572,-0.880974,0.171893,0.422021,-1.224004,1.397304,-1.541686,5.835084,3.685173,13.981128,28.140307,-11.151576,-0.144302,-0.050123,0.000000,0.614922,0.159206,0.000000
1.650000,-2.067191,-0.394960,-1.555484,1.649715,-0.892921,0.186050,0.407319,-1.164201,1.433595,-1.400567,6.109311,3.566552,14.318233,26.667213,-12.544425,-0.137940,-0.048589,0.000000,0.655755,0.144765,0.000000
1.660000,-2.050673,-0.403947,-1.553552,1.653718,-0.904258,0.200565,0.394009,-1.101817,1.468635,-1.255322,6.368428,3.434285,15.033714,25.971827,-13.985065,-0.131186,-0.047201,0.000000,0.695381,0.129631,0.000000
1.670000,-2.034117,-0.413045,-1.551473,1.657596,-0.914958,0.215423,0.382213,-1.036833,1.502280,-1.099892,6.628747,3.286851,15.609001,25.558698,-15.537867,-0.124032,-0.045975,0.000000,0.735646,0.113075,0.000000
1.680000,-2.017521,-0.422246,-1.549244,1.661363,-0.924994,0.230610,0.372011,-0.969242,1.534372,-0.943142,6.879602,3.123527,15.566533,24.195012,-17.101903,-0.116472,-0.044922,0.000000,0.775188,0.096148,0.000000
1.690000,-2.000889,-0.431545,-1.546861,1.665036,-0.934343,0.246110,0.363350,-0.899241,1.564751,-0.788562,7.112648,2.944813,15.712196,22.827334,-18.595647,-0.108528,-0.044039,0.000000,0.812853,0.079275,0.000000
1.700000,-1.984221,-0.440933,-1.544322,1.668630,-0.942979,0.261905,0.356240,-0.826989,1.593268,-0.628898,7.336149,2.751614,16.478855,22.751470,-20.070364,-0.100216,-0.043328,0.000000,0.849461,0.061593,-0.000000
1.710000,-1.967517,-0.450404,-1.541623,1.672161,-0.950882,0.277976,0.350772,-0.752518,1.619783,-0.458985,7.567677,2.543405,17.266496,23.170659,-21.560295,-0.091539,-0.042802,0.000000,0.886995,0.042484,0.000000
1.720000,-1.950778,-0.459951,-1.538762,1.675645,-0.958030,0.294301,0.347061,-0.675636,1.644137,-0.283568,7.799562,2.320409,17.139709,20.912998,-22.904913,-0.082477,-0.042476,0.000000,0.924395,0.022531,0.000000
1.730000,-1.934004,-0.469565,-1.535737,1.679102,-0.964395,0.310858,0.345101,-0.596526,1.666191,-0.116190,7.985937,2.085307,16.301663,16.216102,-24.074120,-0.073053,-0.042351,0.000000,0.955866,0.003401,-0.000000
1.740000,-1.917196,-0.479239,-1.532545,1.682547,-0.969960,0.327625,0.344737,-0.515917,1.685843,0.042465,8.123884,1.838926,15.974017,13.354987,-25.275406,-0.063362,-0.042408,0.000000,0.980798,-0.014776,0.000000
1.750000,-1.900353,-0.488964,-1.529184,1.685997,-0.974713,0.344575,0.345950,-0.434049,1.702970,0.203290,8.253037,1.579799,16.027423,12.143111,-26.541001,-0.053440,-0.042647,0.000000,1.003864,-0.033283,0.000000
1.760000,-1.883476,-0.498733,-1.525653,1.689466,-0.978641,0.361684,0.348803,-0.350856,1.717439,0.363014,8.366746,1.308106,15.664493,9.765464,-27.717134,-0.043288,-0.043075,0.000000,1.024096,-0.051680,0.000000
1.770000,-1.866564,-0.508537,-1.521951,1.692973,-0.981731,0.378924,0.353210,-0.266714,1.729132,0.516580,8.448346,1.025456,15.462735,7.674537,-28.738375,-0.032962,-0.043682,0.000000,1.039263,-0.069303,-0.000000
1.780000,-1.849616,-0.518368,-1.518075,1.696530,-0.983975,0.396267,0.359134,-0.181890,1.737948,0.672268,8.520237,0.733339,15.725246,6.959572,-29.642881,-0.022507,-0.044462,0.000000,1.051989,-0.087131,0.000000
1.790000,-1.832633,-0.528217,-1.514025,1.700155,-0.985368,0.413683,0.366656,-0.096309,1.743799,0.831085,8.587537,0.432599,15.593574,5.405050,-30.494884,-0.011927,-0.045425,0.000000,1.062800,-0.105246,-0.000000
1.800000,-1.815613,-0.538075,-1.509801,1.703864,-0.985901,0.431143,0.375756,-0.010139,1.746600,0.984140,8.628338,0.123441,14.973765,2.534786,-31.329809,-0.001256,-0.046566,0.000000,1.068888,-0.122498,-0.000000
1.810000,-1.798556,-0.547935,-1.505402,1.707670,-0.985571,0.448615,0.386339,0.076258,1.746267,1.130560,8.638233,-0.193998,14.458990,-0.074980,-32.093858,0.009446,-0.047874,0.000000,1.069632,-0.138726,-0.000000
1.820000,-1.781460,-0.557786,-1.500829,1.711590,-0.984376,0.466068,0.398367,0.162626,1.742720,1.273320,8.626839,-0.518436,14.020203,-1.888522,-32.658791,0.020131,-0.049341,0.000000,1.066181,-0.154257,0.000000
1.830000,-1.764324,-0.567622,-1.496081,1.715638,-0.982319,0.483469,0.411805,0.248794,1.735899,1.410964,8.600463,-0.847173,13.428674,-3.440367,-33.023472,0.030764,-0.050959,0.000000,1.059311,-0.168881,-0.000000
1.840000,-1.747147,-0.577433,-1.491160,1.719826,-0.979400,0.500786,0.426586,0.334635,1.725776,1.541893,8.558031,-1.178906,12.783284,-5.303145,-33.352082,0.041313,-0.052719,0.000000,1.048920,-0.182370,0.000000
1.850000,-1.729927,-0.587210,-1.486065,1.724169,-0.975626,0.517985,0.442643,0.419955,1.712321,1.666630,8.494400,-1.514215,12.257924,-7.379448,-33.721918,0.051738,-0.054609,0.000000,1.034419,-0.194750,-0.000000
1.860000,-1.712663,-0.596945,-1.480800,1.728679,-0.971001,0.535032,0.459919,0.504523,1.695492,1.787052,8.410442,-1.853344,11.766467,-9.301058,-34.010992,0.061996,-0.056618,0.000000,1.015989,-0.206223,0.000000
1.870000,-1.695354,-0.606630,-1.475365,1.733368,-0.965535,0.551895,0.478384,0.588164,1.675254,1.901959,8.308379,-2.194435,10.911355,-11.243992,-34.013145,0.072053,-0.058740,0.000000,0.994012,-0.216628,0.000000
1.880000,-1.677996,-0.616256,-1.469762,1.738247,-0.959238,0.568538,0.497958,0.670691,1.651603,2.005279,8.185562,-2.533607,9.714082,-13.317661,-33.753188,0.081873,-0.060961,0.000000,0.968332,-0.225239,-0.000000
1.890000,-1.660589,-0.625815,-1.463994,1.743327,-0.952122,0.584927,0.518489,0.751875,1.624582,2.096241,8.042025,-2.869499,8.717433,-15.246637,-33.501392,0.091416,-0.063259,0.000000,0.939135,-0.231981,-0.000000
1.900000,-1.643130,-0.635298,-1.458063,1.748617,-0.944201,0.601029,0.539883,0.831531,1.594213,2.179627,7.880630,-3.203635,7.945402,-17.145161,-33.331461,0.100652,-0.065619,0.000000,0.906926,-0.237435,0.000000
1.910000,-1.625616,-0.644699,-1.451973,1.754125,-0.935491,0.616811,0.562082,0.909488,1.560509,2.255149,7.699122,-3.536128,7.039956,-19.187405,-33.056278,0.109552,-0.068030,0.000000,0.871611,-0.241577,-0.000000
1.920000,-1.608047,-0.654008,-1.445727,1.759858,-0.926011,0.632239,0.584986,0.985514,1.523491,2.320427,7.496882,-3.864760,6.057057,-20.928124,-32.504370,0.118083,-0.070478,0.000000,0.833345,-0.244162,-0.000000
1.930000,-1.590419,-0.663219,-1.439329,1.765824,-0.915781,0.647281,0.608491,1.059425,1.483214,2.376290,7.280560,-4.186215,5.142714,-22.406650,-31.725358,0.126218,-0.072947,0.000000,0.793170,-0.245352,-0.000000
1.940000,-1.572731,-0.672324,-1.432782,1.772028,-0.904822,0.661904,0.632512,1.131125,1.439767,2.423281,7.048749,-4.499267,4.196023,-24.218453,-30.943567,0.133946,-0.075423,0.000000,0.751134,-0.245262,-0.000000
1.950000,-1.554979,-0.681316,-1.426091,1.778475,-0.893158,0.676076,0.656956,1.200400,1.393228,2.460210,6.796191,-4.805087,3.109732,-25.552989,-30.251491,0.141241,-0.077895,0.000000,0.706813,-0.243786,-0.000000
1.960000,-1.537161,-0.690187,-1.419260,1.785167,-0.880814,0.689768,0.681716,1.267049,1.343665,2.485475,6.537689,-5.104297,1.972173,-26.072890,-29.497144,0.148082,-0.080347,0.000000,0.662113,-0.240783,0.000000
1.970000,-1.519275,-0.698932,-1.412295,1.792109,-0.867817,0.702950,0.706666,1.331154,1.291142,2.499654,6.274733,-5.395029,1.038959,-28.274029,-28.446578,0.154484,-0.082764,0.000000,0.617366,-0.236396,-0.000000
1.980000,-1.501319,-0.707543,-1.405201,1.799301,-0.854191,0.715591,0.731709,1.392543,1.235764,2.506255,5.972208,-5.673229,0.309737,-32.355148,-27.150174,0.160431,-0.085132,0.000000,0.568808,-0.231124,-0.000000
1.990000,-1.483289,-0.716016,-1.397983,1.806743,-0.839966,0.727665,0.756791,1.450598,1.177678,2.505849,5.627630,-5.938033,-0.555389,-34.819123,-25.925836,0.165863,-0.087446,0.000000,0.516460,-0.225094,0.000000
2.000000,-1.465184,-0.724343,-1.390648,1.814436,-0.825179,0.739145,0.781826,1.505096,1.117004,2.495147,5.275826,-6.191746,-1.703156,-35.292929,-24.796094,0.170763,-0.089696,0.000000,0.464400,-0.217964,-0.000000
2.010000,-1.447001,-0.732519,-1.383200,1.822380,-0.809864,0.750005,0.806694,1.556115,1.053843,2.471785,4.921771,-6.433955,-2.891458,-36.109286,-23.557332,0.175154,-0.091869,0.000000,0.413276,-0.209534,-0.000000
2.020000,-1.428736,-0.740540,-1.375648,1.830570,-0.794057,0.760221,0.831262,1.603531,0.988324,2.437318,4.553640,-6.662892,-3.757183,-37.397490,-22.216390,0.179032,-0.093952,0.000000,0.361907,-0.200062,0.000000
2.030000,-1.410389,-0.748400,-1.367996,1.839005,-0.777794,0.769771,0.855440,1.647188,0.920585,2.396642,4.173822,-6.878283,-4.420273,-37.955726,-20.872435,0.182396,-0.095936,0.000000,0.310651,-0.190148,0.000000
2.040000,-1.391956,-0.756096,-1.360252,1.847679,-0.761113,0.778633,0.879194,1.687008,0.850759,2.348912,3.794526,-7.080341,-5.348171,-37.828977,-19.507411,0.185249,-0.097819,0.000000,0.260885,-0.179735,0.000000
2.050000,-1.373436,-0.763623,-1.352423,1.856589,-0.744054,0.786787,0.902418,1.723078,0.778978,2.289678,3.417242,-7.268431,-6.224193,-39.614905,-17.975604,0.187617,-0.099594,0.000000,0.212796,-0.168394,-0.000000
2.060000,-1.354825,-0.770977,-1.344517,1.865727,-0.726652,0.794213,0.924988,1.755353,0.705390,2.224428,3.002227,-7.439853,-6.766599,-42.996677,-16.313907,0.189509,-0.101248,0.000000,0.162240,-0.156794,0.000000
2.070000,-1.336121,-0.778156,-1.336539,1.875089,-0.708947,0.800894,0.946907,1.783123,0.630181,2.154346,2.557308,-7.594709,-7.971529,-40.701602,-14.932530,0.190867,-0.102787,0.000000,0.110195,-0.145088,-0.000000
2.080000,-1.317323,-0.785156,-1.328499,1.884666,-0.690989,0.806816,0.968075,1.806499,0.553496,2.064998,2.188195,-7.738504,-10.003823,-32.667157,-13.829398,0.191717,-0.104204,0.000000,0.067573,-0.131728,-0.000000
2.090000,-1.298428,-0.791975,-1.320403,1.894450,-0.672817,0.811964,0.988207,1.826887,0.475411,1.954270,1.903965,-7.871297,-11.453976,-28.865757,-12.455586,0.192221,-0.105472,0.000000,0.034950,-0.116570,0.000000
2.100000,-1.279434,-0.798612,-1.312259,1.904430,-0.654451,0.816325,1.007160,1.844578,0.396070,1.835918,1.610880,-7.987615,-11.948414,-29.544649,-10.839137,0.192419,-0.106581,0.000000,0.002588,-0.101163,0.000000
2.110000,-1.260339,-0.805064,-1.304076,1.914593,-0.635925,0.819886,1.024925,1.859104,0.315659,1.715302,1.313072,-8.088080,-12.452049,-28.075011,-9.349527,0.192276,-0.107535,0.000000,-0.029084,-0.086066,-0.000000
2.120000,-1.241142,-0.811331,-1.295862,1.924928,-0.617269,0.822638,1.041466,1.870840,0.234309,1.586877,1.049380,-8.174606,-13.654212,-26.121234,-7.793953,0.191840,-0.108336,0.000000,-0.056263,-0.070698,0.000000
2.130000,-1.221841,-0.817410,-1.287624,1.935423,-0.598508,0.824572,1.056663,1.880092,0.152167,1.442217,0.790648,-8.243959,-15.124320,-26.481333,-6.020050,0.191153,-0.108976,0.000000,-0.081908,-0.054270,0.000000
2.140000,-1.202434,-0.823301,-1.279370,1.946062,-0.579667,0.825681,1.070311,1.886652,0.069429,1.284391,0.519753,-8.295007,-15.994484,-26.307562,-4.336048,0.190204,-0.109443,0.000000,-0.107725,-0.037146,-0.000000
2.150000,-1.182919,-0.829003,-1.271110,1.956829,-0.560775,0.825960,1.082351,1.890487,-0.013733,1.122328,0.264496,-8.330680,-16.943618,-22.633498,-2.921995,0.189000,-0.109735,0.000000,-0.131086,-0.020199,0.000000
2.160000,-1.163297,-0.834516,-1.262851,1.967709,-0.541858,0.825406,1.092757,1.891942,-0.097184,0.945519,0.067083,-8.353447,-18.459759,-17.758606,-1.558448,0.187584,-0.109855,0.000000,-0.148033,-0.002365,0.000000
2.170000,-1.143565,-0.839840,-1.254602,1.978684,-0.522936,0.824017,1.101261,1.891829,-0.180802,0.753133,-0.090676,-8.361849,-18.459294,-18.856649,0.142337,0.186041,-0.109784,0.000000,-0.160518,0.016383,0.000000
2.180000,-1.123723,-0.844975,-1.246371,1.989734,-0.504021,0.821790,1.107820,1.890129,-0.264421,0.576333,-0.310050,-8.350600,-16.669921,-25.276754,2.094975,0.184374,-0.109524,0.000000,-0.178285,0.032966,-0.000000
2.190000,-1.103771,-0.849921,-1.238166,2.000840,-0.485134,0.818728,1.112788,1.885628,-0.347814,0.419734,-0.596211,-8.319949,-15.987332,-27.406302,3.777009,0.182477,-0.109115,0.000000,-0.201654,0.047039,0.000000
2.200000,-1.083706,-0.854678,-1.229996,2.011990,-0.466309,0.814834,1.116215,1.878205,-0.430820,0.256586,-0.858176,-8.275060,-16.781932,-25.354765,5.258360,0.180343,-0.108568,0.000000,-0.222014,0.061269,0.000000
2.210000,-1.063531,-0.859247,-1.221869,2.023165,-0.447570,0.810112,1.117919,1.868464,-0.513316,0.084096,-1.103306,-8.214782,-17.080849,-25.487468,6.868352,0.178037,-0.107870,0.000000,-0.240164,0.075903,0.000000
2.220000,-1.043243,-0.863629,-1.213794,2.034348,-0.428939,0.804568,1.117897,1.856139,-0.595116,-0.085031,-1.367925,-8.137693,-16.545851,-25.527770,8.290091,0.175541,-0.107027,0.000000,-0.259529,0.089744,-0.000000
2.230000,-1.022844,-0.867826,-1.205778,2.045523,-0.410447,0.798210,1.116219,1.841106,-0.676069,-0.246822,-1.613861,-8.048980,-15.924319,-22.938224,9.372624,0.172848,-0.106048,0.000000,-0.276686,0.102516,-0.000000
2.240000,-1.002333,-0.871838,-1.197830,2.056672,-0.392117,0.791046,1.112960,1.823861,-0.756095,-0.403517,-1.826689,-7.950240,-15.512347,-21.380255,10.569095,0.170008,-0.104946,0.000000,-0.290437,0.114482,0.000000
2.250000,-0.981710,-0.875668,-1.189957,2.067782,-0.373970,0.783088,1.108148,1.804572,-0.835074,-0.557068,-2.041467,-7.837598,-14.860636,-22.672785,12.033804,0.167040,-0.103726,0.000000,-0.304005,0.125817,0.000000
2.260000,-0.960977,-0.879318,-1.182168,2.078835,-0.356026,0.774345,1.101819,1.783032,-0.912847,-0.700730,-2.280145,-7.709564,-13.848699,-24.096782,13.437266,0.163928,-0.102395,0.000000,-0.319379,0.135926,-0.000000
2.270000,-0.940134,-0.882789,-1.174470,2.089818,-0.338309,0.764831,1.094134,1.758969,-0.989265,-0.834042,-2.523402,-7.568853,-13.613609,-21.996086,14.461521,0.160652,-0.100971,0.000000,-0.334847,0.144845,-0.000000
2.280000,-0.919181,-0.886084,-1.166871,2.100718,-0.320846,0.754560,1.085138,1.732564,-1.064224,-0.973002,-2.720067,-7.420334,-14.245104,-17.226636,15.204528,0.157232,-0.099461,0.000000,-0.345924,0.154094,-0.000000
2.290000,-0.898119,-0.889206,-1.159379,2.111521,-0.303658,0.743546,1.074674,1.704568,-1.137672,-1.118945,-2.867935,-7.264762,-14.189698,-14.543068,16.067319,0.153734,-0.097851,0.000000,-0.352555,0.163797,-0.000000
2.300000,-0.876950,-0.892157,-1.152000,2.122211,-0.286755,0.731806,1.062759,1.675205,-1.209520,-1.256796,-3.010928,-7.098987,-13.346645,-13.926803,17.082576,0.150180,-0.096146,0.000000,-0.358696,0.172594,-0.000000
2.310000,-0.855675,-0.894941,-1.144743,2.132776,-0.270154,0.719356,1.049538,1.644349,-1.279652,-1.385877,-3.146471,-6.923111,-12.772916,-12.239470,17.979854,0.146560,-0.094360,0.000000,-0.364140,0.180464,-0.000000
2.320000,-0.834295,-0.897560,-1.137613,2.143202,-0.253868,0.706213,1.035041,1.612276,-1.347982,-1.512254,-3.255718,-6.739390,-12.403935,-10.277888,18.705506,0.142897,-0.092498,0.000000,-0.367300,0.187989,-0.000000
2.330000,-0.812811,-0.900018,-1.130619,2.153477,-0.237908,0.692396,1.019293,1.579235,-1.414440,-1.633956,-3.352029,-6.549001,-11.854748,-9.242588,19.350140,0.139213,-0.090562,0.000000,-0.369408,0.195026,-0.000000
2.340000,-0.791225,-0.902318,-1.123765,2.163588,-0.222283,0.677924,1.002362,1.545235,-1.478962,-1.749349,-3.440569,-6.352388,-11.313480,-7.791201,19.964532,0.135508,-0.088559,0.000000,-0.370943,0.201458,-0.000000
2.350000,-0.769539,-0.904464,-1.117060,2.173524,-0.207003,0.662817,0.984306,1.510423,-1.541487,-1.860226,-3.507853,-6.149710,-10.931757,-5.357471,20.558746,0.131794,-0.086495,0.000000,-0.370761,0.207463,-0.000000
2.360000,-0.747755,-0.906458,-1.110509,2.183274,-0.192075,0.647095,0.965158,1.475078,-1.601956,-1.967985,-3.547719,-5.941213,-10.560518,-2.952218,21.102089,0.128092,-0.084373,0.000000,-0.368373,0.213181,0.000000
2.370000,-0.725874,-0.908305,-1.104118,2.192827,-0.177502,0.630778,0.944946,1.439469,-1.660312,-2.071436,-3.566897,-5.727668,-9.949571,-1.545024,21.542834,0.124425,-0.082196,0.000000,-0.364402,0.218531,0.000000
2.380000,-0.703898,-0.910008,-1.097893,2.202173,-0.163286,0.613888,0.923729,1.403740,-1.716510,-2.166976,-3.578619,-5.510356,-9.145143,-0.839396,21.889845,0.120803,-0.079969,0.000000,-0.360017,0.223228,0.000000
2.390000,-0.681830,-0.911571,-1.091840,2.211302,-0.149427,0.596448,0.901607,1.367896,-1.770519,-2.254339,-3.583685,-5.289871,-8.479129,0.377279,22.215485,0.117224,-0.077699,0.000000,-0.355292,0.227272,-0.000000
2.400000,-0.659672,-0.912997,-1.085965,2.220205,-0.135928,0.578478,0.878642,1.332067,-1.822307,-2.336559,-3.571074,-5.066046,-7.965810,2.207343,22.538614,0.113697,-0.075391,0.000000,-0.349296,0.230938,0.000000
2.410000,-0.637426,-0.914289,-1.080271,2.228875,-0.122786,0.560002,0.854875,1.296475,-1.871840,-2.413655,-3.539538,-4.839099,-7.386779,3.825693,22.812714,0.110237,-0.073050,0.000000,-0.341939,0.234238,-0.000000
2.420000,-0.615095,-0.915452,-1.074764,2.237303,-0.109998,0.541041,0.830369,1.261276,-1.919089,-2.484294,-3.494560,-4.609792,-6.762700,5.043108,23.001977,0.106857,-0.070678,0.000000,-0.333703,0.237075,-0.000000
2.430000,-0.592680,-0.916489,-1.069450,2.245482,-0.097560,0.521620,0.805189,1.226584,-1.964036,-2.548909,-3.438676,-4.379060,-6.178288,6.139102,23.123892,0.103562,-0.068281,0.000000,-0.324811,0.239504,-0.000000
2.440000,-0.570185,-0.917404,-1.064332,2.253406,-0.085466,0.501760,0.779391,1.192502,-2.006670,-2.607860,-3.371778,-4.147314,-5.591095,7.292056,23.228763,0.100360,-0.065862,0.000000,-0.315255,0.241564,0.000000
2.450000,-0.547612,-0.918199,-1.059415,2.261070,-0.073710,0.481486,0.753032,1.159148,-2.046982,-2.660731,-3.292835,-3.914484,-4.963595,8.463003,23.323874,0.097256,-0.063424,0.000000,-0.304947,0.243229,-0.000000
2.460000,-0.524964,-0.918878,-1.054702,2.268467,-0.062283,0.460821,0.726176,1.126646,-2.084960,-2.707132,-3.202518,-3.680837,-4.334693,9.541042,23.379716,0.094260,-0.060973,0.000000,-0.293943,0.244472,-0.000000
2.470000,-0.502243,-0.919444,-1.050198,2.275593,-0.051177,0.439787,0.698890,1.095098,-2.120599,-2.747425,-3.102014,-3.446890,-3.783776,10.560695,23.389062,0.091377,-0.058513,0.000000,-0.282340,0.245335,0.000000
2.480000,-0.479452,-0.919901,-1.045907,2.282445,-0.040382,0.418409,0.671228,1.064605,-2.153898,-2.782807,-2.991304,-3.213055,-3.306120,11.561640,23.366612,0.088612,-0.056046,0.000000,-0.270132,0.245922,0.000000
2.490000,-0.456594,-0.920252,-1.041830,2.289018,-0.029885,0.396709,0.643233,1.035272,-2.184860,-2.813547,-2.870781,-2.979558,-2.801376,12.485135,23.325488,0.085973,-0.053574,0.000000,-0.257346,0.246260,0.000000
2.500000,-0.433671,-0.920499,-1.037972,2.295310,-0.019676,0.374712,0.614957,1.007190,-2.213489,-2.838835,-2.741601,-2.746546,-2.244646,13.313543,23.259645,0.083465,-0.051102,0.000000,-0.244067,0.246284,0.000000
2.510000,-0.410688,-0.920646,-1.034336,2.301317,-0.009741,0.352439,0.586457,0.980440,-2.239791,-2.858440,-2.604510,-2.514365,-1.708642,14.087659,23.165904,0.081091,-0.048631,0.000000,-0.230351,0.245979,-0.000000
2.520000,-0.387645,-0.920694,-1.030924,2.307039,-0.000067,0.329916,0.557788,0.955099,-2.263776,-2.873008,-2.459848,-2.283228,-1.255771,14.828097,23.070391,0.078857,-0.046165,0.000000,-0.216212,0.245400,-0.000000
2.530000,-0.364547,-0.920647,-1.027738,2.312473,0.009361,0.307164,0.528997,0.931243,-2.285455,-2.883556,-2.307948,-2.052957,-0.866480,15.521263,22.980871,0.076766,-0.043707,0.000000,-0.201666,0.244631,-0.000000
2.540000,-0.341396,-0.920507,-1.024780,2.317619,0.018558,0.284207,0.500117,0.908941,-2.304835,-2.890337,-2.149423,-1.823610,-0.464609,16.140446,22.866623,0.074823,-0.041258,0.000000,-0.186748,0.243692,0.000000
2.550000,-0.318194,-0.920276,-1.022054,2.322475,0.027539,0.261067,0.471190,0.888254,-2.321927,-2.892848,-1.985140,-1.595625,-0.036556,16.676515,22.710889,0.073031,-0.038819,0.000000,-0.171519,0.242542,0.000000
2.560000,-0.294946,-0.919956,-1.019559,2.327042,0.036323,0.237768,0.442260,0.869238,-2.336748,-2.891068,-1.815892,-1.369392,0.364200,17.146051,22.540079,0.071392,-0.036394,0.000000,-0.156032,0.241180,0.000000
2.570000,-0.271654,-0.919549,-1.017298,2.331320,0.044924,0.214332,0.413368,0.851937,-2.349315,-2.885564,-1.642219,-1.144823,0.701458,17.571885,22.404201,0.069910,-0.033983,0.000000,-0.140313,0.239649,-0.000000
2.580000,-0.248320,-0.919057,-1.015272,2.335310,0.053361,0.190782,0.384549,0.836393,-2.359644,-2.877039,-1.464455,-0.921308,0.991140,17.950362,22.301452,0.068586,-0.031589,0.000000,-0.124372,0.238004,-0.000000
2.590000,-0.224947,-0.918482,-1.013483,2.339011,0.061652,0.167139,0.355828,0.822647,-2.367741,-2.865741,-1.283211,-0.698794,1.276728,18.248124,22.169647,0.067422,-0.029211,0.000000,-0.108243,0.236263,0.000000
2.600000,-0.201539,-0.917824,-1.011930,2.342426,0.069814,0.143427,0.327234,0.810729,-2.373620,-2.851505,-1.099492,-0.477915,1.562596,18.441276,21.986079,0.066421,-0.026852,0.000000,-0.091993,0.234410,0.000000
2.610000,-0.178099,-0.917086,-1.010614,2.345556,0.077867,0.119667,0.298798,0.800658,-2.377300,-2.834489,-0.914386,-0.259072,1.818920,18.551551,21.797292,0.065582,-0.024512,0.000000,-0.075700,0.232458,0.000000
2.620000,-0.154628,-0.916267,-1.009536,2.348402,0.085827,0.095881,0.270544,0.792441,-2.378801,-2.815126,-0.728461,-0.041970,2.033758,18.637672,21.665149,0.064907,-0.022192,0.000000,-0.059390,0.230436,-0.000000
2.630000,-0.131131,-0.915369,-1.008696,2.350967,0.093715,0.072091,0.242495,0.786088,-2.378139,-2.793814,-0.541632,0.174231,2.215730,18.688631,21.580642,0.064394,-0.019893,0.000000,-0.043036,0.228375,-0.000000
2.640000,-0.107609,-0.914393,-1.008094,2.353252,0.101549,0.048318,0.214668,0.781609,-2.375317,-2.770812,-0.354689,0.389643,2.378267,18.622353,21.465098,0.064046,-0.017615,0.000000,-0.026687,0.226291,-0.000000
2.650000,-0.084066,-0.913338,-1.007730,2.355260,0.109348,0.024585,0.187079,0.778995,-2.370346,-2.746249,-0.169185,0.603533,2.528254,18.454845,21.291120,0.063861,-0.015358,0.000000,-0.010456,0.224194,0.000000
2.660000,-0.060504,-0.912206,-1.007603,2.356994,0.117129,0.000911,0.159743,0.778225,-2.363246,-2.720247,0.014408,0.815466,2.656095,18.236040,21.114856,0.063837,-0.013122,0.000000,0.005629,0.222090,0.000000
2.670000,-0.036926,-0.910996,-1.007712,2.358455,0.124912,-0.022680,0.132674,0.779283,-2.354037,-2.693127,0.195536,1.025830,2.739425,17.894743,21.007528,0.063973,-0.010907,0.000000,0.021542,0.220004,-0.000000
2.680000,-0.013335,-0.909708,-1.008056,2.359647,0.132715,-0.046169,0.105880,0.782136,-2.342730,-2.665458,0.372303,1.235616,2.767132,17.369642,20.956037,0.064268,-0.008712,0.000000,0.037146,0.217977,0.000000
2.690000,0.010267,-0.908341,-1.008635,2.360573,0.140555,-0.069535,0.079365,0.786729,-2.329325,-2.637784,0.542928,1.444950,2.772861,16.769235,20.867303,0.064716,-0.006538,0.000000,0.052310,0.216052,0.000000
2.700000,0.033877,-0.906897,-1.009447,2.361235,0.148449,-0.092756,0.053125,0.792994,-2.313831,-2.610001,0.707688,1.652962,2.859589,16.388617,20.710280,0.065314,-0.004382,0.000000,0.067063,0.214219,0.000000
2.710000,0.057492,-0.905372,-1.010490,2.361635,0.156415,-0.115812,0.027165,0.800883,-2.296265,-2.580592,0.870701,1.859156,2.997249,16.129357,20.549058,0.066058,-0.002244,0.000000,0.081754,0.212352,0.000000
2.720000,0.081109,-0.903768,-1.011763,2.361778,0.164467,-0.138681,0.001513,0.810408,-2.276647,-2.550056,1.030275,2.063943,2.896096,15.165390,20.459792,0.066950,-0.000125,0.000000,0.096259,0.210487,-0.000000
2.730000,0.104727,-0.902083,-1.013264,2.361666,0.172623,-0.161344,-0.023836,0.821488,-2.254986,-2.522670,1.174009,2.268352,2.555996,13.460973,20.427364,0.067984,0.001976,0.000000,0.109572,0.208977,0.000000
2.740000,0.128343,-0.900316,-1.014990,2.361301,0.180897,-0.183781,-0.048941,0.833889,-2.231280,-2.498936,1.299495,2.472491,2.378430,12.164948,20.349353,0.069142,0.004064,0.000000,0.121498,0.207864,0.000000
2.750000,0.151953,-0.898465,-1.016940,2.360687,0.189301,-0.205970,-0.073815,0.847478,-2.205537,-2.475102,1.417308,2.675339,2.418918,11.707646,20.177793,0.070414,0.006143,0.000000,0.132907,0.206838,0.000000
2.760000,0.175556,-0.896530,-1.019110,2.359825,0.197846,-0.227892,-0.098443,0.862235,-2.177774,-2.450558,1.533647,2.876047,2.410502,11.301079,19.982140,0.071800,0.008212,0.000000,0.144317,0.205846,-0.000000
2.770000,0.199150,-0.894508,-1.021497,2.358718,0.206545,-0.249526,-0.122826,0.878151,-2.148016,-2.426892,1.643329,3.074982,2.294890,9.988883,19.881283,0.073301,0.010271,0.000000,0.155308,0.205019,-0.000000
2.780000,0.222731,-0.892399,-1.024100,2.357368,0.215409,-0.270852,-0.146980,0.895101,-2.116274,-2.404660,1.733425,3.273672,2.215393,8.171983,19.845844,0.074907,0.012323,0.000000,0.164816,0.204404,-0.000000
2.790000,0.246297,-0.890200,-1.026914,2.355778,0.224447,-0.291851,-0.170919,0.912819,-2.082542,-2.382584,1.806769,3.471899,2.227342,7.097951,19.714818,0.076598,0.014371,0.000000,0.173070,0.203897,-0.000000
2.800000,0.269846,-0.887910,-1.029937,2.353950,0.233666,-0.312503,-0.194632,0.931237,-2.046836,-2.360113,1.875384,3.667969,1.994324,5.844804,19.522170,0.078369,0.016414,0.000000,0.181062,0.203448,0.000000
2.810000,0.293376,-0.885527,-1.033165,2.351886,0.243072,-0.332788,-0.218122,0.950327,-2.009183,-2.342697,1.923665,3.862342,1.517123,3.693514,19.367326,0.080219,0.018453,0.000000,0.187486,0.203516,0.000000
2.820000,0.316884,-0.883048,-1.036593,2.349587,0.252672,-0.352686,-0.241486,0.969710,-1.969589,-2.329771,1.949254,4.055315,1.758942,3.557686,19.114461,0.082119,0.020498,0.000000,0.192130,0.204062,0.000000
