time,x,y,z,vx,vy,vz,ax,ay,az,jx,jy,jz,sx,sy,sz,roll,pitch,yaw,p,q,r
0.000000,-3.283346,-0.232938,-1.481060,0.012620,-0.015218,-0.006257,0.164114,1.523663,0.116820,-9.490755,-42.854839,-2.020586,306.677409,930.634913,31.925823,0.155891,-0.016929,0.000000,-4.343361,0.970452,-0.000000
0.010000,-3.283213,-0.233020,-1.481117,0.013836,-0.001975,-0.005185,0.083706,1.139304,0.098119,-6.672263,-34.245404,-1.728475,257.890200,793.598101,26.598092,0.116772,-0.008619,0.000000,-3.498050,0.683815,0.000000
0.020000,-3.283072,-0.232988,-1.481165,0.014380,0.007833,-0.004286,0.029129,0.834419,0.082083,-4.316012,-26.937124,-1.486644,214.184791,670.287360,21.864303,0.085566,-0.002994,0.000000,-2.761717,0.442502,0.000000
0.030000,-3.282927,-0.232873,-1.481204,0.014490,0.014937,-0.003536,-0.003990,0.596671,0.068238,-2.372513,-20.796239,-1.289316,175.295623,560.002234,17.692211,0.061172,0.000410,0.000000,-2.134855,0.243031,-0.000000
0.040000,-3.282783,-0.232697,-1.481236,0.014359,0.019953,-0.002916,-0.019541,0.415026,0.056167,-0.794931,-15.695995,-1.131035,140.957088,462.042252,14.049563,0.042524,0.002003,0.000000,-1.611234,0.081193,0.000000
0.050000,-3.282640,-0.232479,-1.481262,0.014146,0.023392,-0.002408,-0.020961,0.279682,0.045505,0.460916,-11.516644,-1.006666,110.903998,375.707039,10.904250,0.028635,0.002147,0.000000,-1.181419,-0.047405,-0.000000
0.060000,-3.282500,-0.232233,-1.481284,0.013977,0.025672,-0.002002,-0.011256,0.182000,0.035937,1.436549,-8.145440,-0.911400,84.870391,300.296049,8.223876,0.018619,0.001152,0.000000,-0.834816,-0.147057,0.000000
0.070000,-3.282360,-0.231968,-1.481303,0.013949,0.027132,-0.001687,0.006966,0.114433,0.027195,2.170838,-5.476643,-0.840746,62.590892,235.108860,5.976257,0.011697,-0.000712,0.000000,-0.560754,-0.221827,-0.000000
0.080000,-3.282220,-0.231692,-1.481318,0.014137,0.028039,-0.001456,0.031477,0.070455,0.019054,2.699996,-3.411518,-0.790540,43.800022,179.445018,4.129147,0.007196,-0.003215,0.000000,-0.349004,-0.275495,-0.000000
0.090000,-3.282077,-0.231408,-1.481332,0.014593,0.028601,-0.001304,0.060394,0.044496,0.011328,3.057582,-1.858333,-0.756936,28.232416,132.604071,2.650291,0.004541,-0.006163,0.000000,-0.190004,-0.311549,-0.000000
0.100000,-3.281927,-0.231120,-1.481345,0.015354,0.028974,-0.001228,0.092160,0.031866,0.003871,3.274492,-0.732362,-0.736412,15.621432,93.885561,1.507628,0.003249,-0.009398,0.000000,-0.074934,-0.333186,-0.000000
0.110000,-3.281769,-0.230829,-1.481357,0.016442,0.029270,-0.001226,0.125510,0.028685,-0.003433,3.378981,0.044118,-0.725770,5.702847,62.589035,0.668693,0.002923,-0.012789,0.000000,0.004266,-0.343318,0.000000
0.120000,-3.281597,-0.230535,-1.481369,0.017866,0.029568,-0.001297,0.159450,0.031819,-0.010667,3.396637,0.541824,-0.722133,-1.789366,38.014039,0.101334,0.003240,-0.016235,0.000000,0.054908,-0.344580,-0.000000
0.130000,-3.281410,-0.230238,-1.481383,0.019630,0.029919,-0.001440,0.193230,0.038805,-0.017890,3.350396,0.824469,-0.722945,-7.120780,19.460116,-0.226683,0.003948,-0.019659,0.000000,0.083556,-0.339327,-0.000000
0.140000,-3.281204,-0.229936,-1.481398,0.021729,0.030351,-0.001655,0.226313,0.047782,-0.025134,3.260538,0.948761,-0.725976,-10.557043,6.226809,-0.347561,0.004857,-0.023007,0.000000,0.096043,-0.329643,-0.000000
0.150000,-3.280974,-0.229630,-1.481416,0.024153,0.030877,-0.001942,0.258354,0.057419,-0.032411,3.144686,0.964405,-0.729313,-12.363940,-2.386345,-0.293440,0.005832,-0.026243,0.000000,0.097467,-0.317335,0.000000
0.160000,-3.280719,-0.229319,-1.481437,0.026892,0.031499,-0.002303,0.289170,0.066851,-0.039716,3.017824,0.914101,-0.731373,-12.805296,-7.079730,-0.097041,0.006784,-0.029350,0.000000,0.092196,-0.303938,0.000000
0.170000,-3.280436,-0.229000,-1.481463,0.029932,0.032212,-0.002737,0.318715,0.075601,-0.047030,2.892249,0.833542,-0.730887,-12.148773,-8.553890,0.209938,0.007666,-0.032323,0.000000,0.083874,-0.290710,0.000000
0.180000,-3.280120,-0.228674,-1.481492,0.033262,0.033008,-0.003244,0.347052,0.083517,-0.054322,2.777625,0.751419,-0.726914,-10.659157,-7.509245,0.595059,0.008461,-0.035168,0.000000,0.075416,-0.278635,0.000000
0.190000,-3.279769,-0.228340,-1.481528,0.036870,0.033880,-0.003823,0.374328,0.090697,-0.061554,2.680957,0.689418,-0.718833,-8.602073,-4.646245,1.026070,0.009181,-0.037902,0.000000,0.069021,-0.268426,-0.000000
0.200000,-3.279382,-0.227996,-1.481569,0.040746,0.034820,-0.004474,0.400746,0.097422,-0.068684,2.606594,0.662220,-0.706345,-6.242651,-0.665367,1.470896,0.009853,-0.040545,0.000000,0.066165,-0.260518,-0.000000
0.210000,-3.278954,-0.227643,-1.481617,0.044879,0.035820,-0.005197,0.425387,0.101208,-0.075821,2.292577,0.019621,-0.724836,-9.058615,-9.271711,1.198123,0.010228,-0.043004,0.000000,0.001132,-0.228316,0.000000
0.220000,-3.278483,-0.227280,-1.481673,0.049253,0.036848,-0.005990,0.450363,0.107164,-0.082672,2.862371,1.568060,-0.623848,76.925281,203.991095,12.814683,0.010821,-0.045494,0.000000,0.157502,-0.285862,-0.000000
0.230000,-3.277968,-0.226906,-1.481737,0.053907,0.038018,-0.006847,0.480398,0.126948,-0.088595,2.863233,1.685223,-0.598401,-78.205323,-184.144205,-7.922518,0.012809,-0.048494,0.000000,0.169069,-0.285626,-0.000000
0.240000,-3.277404,-0.226519,-1.481810,0.058840,0.039339,-0.007764,0.505152,0.134658,-0.094970,2.230373,0.211754,-0.657333,-1.851593,5.550869,2.372512,0.013577,-0.050956,0.000000,0.020293,-0.221197,-0.000000
0.250000,-3.276790,-0.226119,-1.481893,0.064007,0.040707,-0.008745,0.528595,0.140116,-0.101259,2.430823,0.810277,-0.604011,-4.450322,-1.584708,2.068799,0.014116,-0.053282,0.000000,0.080579,-0.241298,0.000000
0.260000,-3.276123,-0.225705,-1.481986,0.069413,0.042147,-0.009788,0.552599,0.147853,-0.107190,2.367986,0.729388,-0.582038,-4.530518,-2.628849,2.166501,0.014885,-0.055664,0.000000,0.072350,-0.234751,-0.000000
0.270000,-3.275401,-0.225276,-1.482089,0.075057,0.043664,-0.010889,0.576243,0.155641,-0.112910,2.373153,0.867816,-0.562165,2.073905,18.718042,1.959244,0.015657,-0.058007,0.000000,0.086187,-0.235047,0.000000
0.280000,-3.274621,-0.224831,-1.482203,0.080938,0.045265,-0.012045,0.599896,0.164637,-0.118424,2.336198,0.860230,-0.539674,-9.578266,-20.595990,2.542316,0.016551,-0.060349,0.000000,0.085331,-0.231144,0.000000
0.290000,-3.273782,-0.224370,-1.482330,0.087053,0.046951,-0.013256,0.622782,0.172214,-0.123693,2.252011,0.690614,-0.514442,-3.744214,-1.614468,2.348283,0.017301,-0.062612,0.000000,0.068228,-0.222549,0.000000
0.300000,-3.272879,-0.223892,-1.482469,0.093393,0.048708,-0.014518,0.645209,0.179346,-0.128723,2.231377,0.728488,-0.491424,-3.892174,-2.486019,2.407869,0.018005,-0.064828,0.000000,0.071973,-0.220339,0.000000
0.310000,-3.271913,-0.223396,-1.482620,0.099956,0.050537,-0.015830,0.667344,0.186466,-0.133515,2.196171,0.694358,-0.466804,-3.759311,-2.781038,2.456034,0.018708,-0.067013,0.000000,0.068499,-0.216700,0.000000
0.320000,-3.270880,-0.222881,-1.482786,0.106738,0.052437,-0.017188,0.689087,0.193349,-0.138062,2.150559,0.687212,-0.442877,-4.772388,-0.159357,2.385829,0.019387,-0.069158,0.000000,0.067741,-0.212037,-0.000000
0.330000,-3.269777,-0.222347,-1.482964,0.113736,0.054404,-0.018590,0.710387,0.200131,-0.142368,2.113130,0.659439,-0.417898,-2.695363,-5.442465,2.610646,0.020055,-0.071258,0.000000,0.064925,-0.208224,0.000000
0.340000,-3.268604,-0.221792,-1.483157,0.120945,0.056438,-0.020034,0.731384,0.206451,-0.146416,2.084677,0.608943,-0.391855,-3.592705,-3.130632,2.538652,0.020677,-0.073327,0.000000,0.059845,-0.205337,0.000000
0.350000,-3.267358,-0.221218,-1.483365,0.128362,0.058532,-0.021518,0.752037,0.212421,-0.150209,2.046347,0.583864,-0.366647,-3.478150,-3.406439,2.559521,0.021263,-0.075361,0.000000,0.057321,-0.201478,-0.000000
0.360000,-3.266036,-0.220622,-1.483588,0.135985,0.060685,-0.023038,0.772340,0.218075,-0.153747,2.014677,0.546353,-0.340893,-3.347035,-3.636077,2.572488,0.021818,-0.077360,0.000000,0.053562,-0.198310,0.000000
0.370000,-3.264637,-0.220004,-1.483826,0.143808,0.062892,-0.024592,0.792295,0.223377,-0.157028,1.974887,0.515376,-0.315381,-4.134280,-3.005177,2.546227,0.022337,-0.079325,0.000000,0.050468,-0.194350,-0.000000
0.380000,-3.263159,-0.219364,-1.484080,0.151829,0.065151,-0.026177,0.811864,0.228354,-0.160054,1.941996,0.476888,-0.289621,-2.429157,-4.705836,2.605477,0.022824,-0.081251,0.000000,0.046632,-0.191100,0.000000
0.390000,-3.261600,-0.218701,-1.484350,0.160045,0.067458,-0.027792,0.831164,0.232885,-0.162820,1.916658,0.430294,-0.263641,-3.119826,-4.162143,2.572242,0.023267,-0.083151,0.000000,0.041994,-0.188623,-0.000000
0.400000,-3.259958,-0.218014,-1.484636,0.168451,0.069808,-0.029433,0.850163,0.236988,-0.165328,1.883678,0.389835,-0.238047,-2.996987,-4.377631,2.563534,0.023667,-0.085021,0.000000,0.037978,-0.185401,0.000000
0.410000,-3.258231,-0.217304,-1.484938,0.177047,0.072196,-0.031098,0.868846,0.240672,-0.167580,1.852725,0.346866,-0.212379,-2.936446,-4.524625,2.551132,0.024026,-0.086861,0.000000,0.033721,-0.182399,0.000000
0.420000,-3.256416,-0.216570,-1.485258,0.185827,0.074620,-0.032784,0.887241,0.243896,-0.169578,1.827311,0.296517,-0.187206,-2.397073,-5.244033,2.500352,0.024339,-0.088673,0.000000,0.028732,-0.179961,-0.000000
0.430000,-3.254513,-0.215812,-1.485594,0.194791,0.077073,-0.034488,0.905382,0.246612,-0.171324,1.799523,0.248304,-0.162018,-3.168772,-4.388261,2.537050,0.024601,-0.090460,0.000000,0.023965,-0.177304,0.000000
0.440000,-3.252520,-0.215029,-1.485948,0.203934,0.079550,-0.036209,0.923220,0.248873,-0.172818,1.768988,0.202699,-0.136834,-2.685941,-5.034964,2.481434,0.024819,-0.092219,0.000000,0.019466,-0.174390,-0.000000
0.450000,-3.250434,-0.214221,-1.486318,0.213254,0.082048,-0.037944,0.940783,0.250638,-0.174063,1.743651,0.150193,-0.112257,-2.633063,-5.163412,2.451420,0.024988,-0.093951,0.000000,0.014282,-0.172003,-0.000000
0.460000,-3.248254,-0.213388,-1.486707,0.222749,0.084561,-0.039690,0.958095,0.251878,-0.175063,1.718967,0.097655,-0.087877,-2.539045,-5.310715,2.417300,0.025105,-0.095660,0.000000,0.009100,-0.169693,0.000000
0.470000,-3.245979,-0.212529,-1.487112,0.232415,0.087084,-0.041444,0.975147,0.252588,-0.175822,1.690702,0.044293,-0.063986,-2.886094,-5.392900,2.366794,0.025170,-0.097344,0.000000,0.003840,-0.167038,-0.000000
0.480000,-3.243605,-0.211646,-1.487535,0.242251,0.089611,-0.043205,0.991923,0.252758,-0.176344,1.666030,-0.010862,-0.040416,-2.041494,-5.638583,2.346766,0.025181,-0.099003,0.000000,-0.001596,-0.164751,0.000000
0.490000,-3.241133,-0.210737,-1.487976,0.252253,0.092137,-0.044971,1.008482,0.252365,-0.176632,1.645246,-0.067823,-0.017194,-2.346203,-5.720878,2.290464,0.025137,-0.100642,0.000000,-0.007209,-0.162858,0.000000
0.500000,-3.238560,-0.209803,-1.488435,0.262420,0.094657,-0.046737,1.024812,0.251399,-0.176690,1.621061,-0.125543,0.005436,-2.262855,-5.854870,2.241690,0.025037,-0.102260,0.000000,-0.012897,-0.160636,-0.000000
0.510000,-3.235884,-0.208844,-1.488911,0.272749,0.097163,-0.048504,1.040910,0.249848,-0.176525,1.598497,-0.185033,0.027574,-2.203929,-5.989977,2.188904,0.024879,-0.103856,0.000000,-0.018760,-0.158581,0.000000
0.520000,-3.233104,-0.207860,-1.489405,0.283237,0.099652,-0.050267,1.056788,0.247699,-0.176140,1.577398,-0.244848,0.049235,-2.062163,-6.023759,2.139499,0.024661,-0.105433,0.000000,-0.024655,-0.156678,0.000000
0.530000,-3.230219,-0.206851,-1.489916,0.293884,0.102115,-0.052026,1.072457,0.244944,-0.175542,1.556282,-0.306575,0.070282,-2.163295,-6.322749,2.069247,0.024385,-0.106991,0.000000,-0.030742,-0.154778,-0.000000
0.540000,-3.227226,-0.205818,-1.490445,0.304686,0.104548,-0.053777,1.087913,0.241560,-0.174737,1.535032,-0.370258,0.090680,-2.041782,-6.361797,2.013247,0.024046,-0.108529,0.000000,-0.037025,-0.152868,0.000000
0.550000,-3.224125,-0.204760,-1.490992,0.315641,0.106944,-0.055520,1.103163,0.237539,-0.173730,1.515038,-0.434241,0.110507,-2.004027,-6.485775,1.948530,0.023644,-0.110050,0.000000,-0.043341,-0.151086,-0.000000
0.560000,-3.220913,-0.203679,-1.491556,0.326748,0.109297,-0.057251,1.118210,0.232867,-0.172529,1.494393,-0.500399,0.129597,-1.985333,-6.617698,1.880255,0.023178,-0.111552,0.000000,-0.049876,-0.149242,-0.000000
0.570000,-3.217589,-0.202575,-1.492137,0.338005,0.111600,-0.058970,1.133063,0.227537,-0.171140,1.476605,-0.565409,0.148207,-1.709793,-6.507586,1.830513,0.022647,-0.113036,0.000000,-0.056301,-0.147684,-0.000000
0.580000,-3.214152,-0.201447,-1.492735,0.349409,0.113846,-0.060673,1.147737,0.221549,-0.169568,1.457310,-0.633137,0.165971,-2.154442,-7.041170,1.721593,0.022051,-0.114506,0.000000,-0.063001,-0.145975,0.000000
0.590000,-3.210600,-0.200298,-1.493350,0.360959,0.116028,-0.062361,1.162202,0.214864,-0.167823,1.436259,-0.703712,0.182852,-1.918814,-6.947839,1.665150,0.021386,-0.115956,0.000000,-0.069989,-0.144091,-0.000000
0.600000,-3.206933,-0.199127,-1.493982,0.372652,0.118141,-0.064029,1.176473,0.207481,-0.165913,1.417745,-0.773137,0.199174,-1.922260,-7.060967,1.587924,0.020652,-0.117389,0.000000,-0.076869,-0.142459,0.000000
0.610000,-3.203147,-0.197935,-1.494631,0.384488,0.120176,-0.065678,1.190556,0.199397,-0.163843,1.399048,-0.843665,0.214641,-1.911891,-7.148442,1.510326,0.019848,-0.118806,0.000000,-0.083865,-0.140806,-0.000000
0.620000,-3.199242,-0.196724,-1.495296,0.396463,0.122126,-0.067306,1.204446,0.190596,-0.161622,1.378617,-0.917052,0.229449,-2.083358,-7.425843,1.444130,0.018974,-0.120205,0.000000,-0.091152,-0.138980,-0.000000
0.630000,-3.195217,-0.195493,-1.495977,0.408576,0.123985,-0.068910,1.218133,0.181058,-0.159257,1.359291,-0.990018,0.243372,-1.779757,-7.163132,1.339931,0.018026,-0.121586,0.000000,-0.098404,-0.137259,0.000000
0.640000,-3.191070,-0.194244,-1.496674,0.420825,0.125745,-0.070490,1.231637,0.170798,-0.156757,1.341146,-1.062354,0.256388,-1.942897,-7.405884,1.270251,0.017006,-0.122951,0.000000,-0.105602,-0.135649,0.000000
0.650000,-3.186800,-0.192979,-1.497387,0.433208,0.127398,-0.072045,1.244948,0.159801,-0.154131,1.321201,-1.137238,0.268713,-1.954649,-7.467091,1.187774,0.015913,-0.124299,0.000000,-0.113061,-0.133858,0.000000
0.660000,-3.182406,-0.191697,-1.498115,0.445723,0.128938,-0.073573,1.258061,0.148054,-0.151386,1.301380,-1.212326,0.280098,-1.981386,-7.529912,1.103768,0.014745,-0.125629,0.000000,-0.120549,-0.132072,0.000000
0.670000,-3.177885,-0.190400,-1.498858,0.458368,0.130357,-0.075072,1.270977,0.135554,-0.148531,1.281821,-1.287634,0.290922,-1.959599,-7.549247,1.046958,0.013501,-0.126941,0.000000,-0.128066,-0.130310,-0.000000
0.680000,-3.173238,-0.189090,-1.499616,0.471142,0.131647,-0.076543,1.283695,0.122298,-0.145571,1.261573,-1.363681,0.300740,-2.091922,-7.659370,0.916245,0.012183,-0.128235,0.000000,-0.135666,-0.128470,0.000000
0.690000,-3.168462,-0.187768,-1.500389,0.484042,0.132800,-0.077983,1.296206,0.108278,-0.142520,1.240536,-1.440415,0.309536,-2.088017,-7.667307,0.857265,0.010788,-0.129510,0.000000,-0.143342,-0.126542,-0.000000
0.700000,-3.163557,-0.186435,-1.501176,0.497065,0.133810,-0.079393,1.308507,0.093490,-0.139382,1.219544,-1.517162,0.317765,-2.139233,-7.699436,0.774731,0.009316,-0.130766,0.000000,-0.151028,-0.124614,0.000000
0.710000,-3.158520,-0.185092,-1.501976,0.510211,0.134668,-0.080771,1.320594,0.077933,-0.136168,1.197744,-1.594335,0.325017,-2.197251,-7.723232,0.692519,0.007767,-0.132002,0.000000,-0.158765,-0.122596,-0.000000
0.720000,-3.153352,-0.183742,-1.502791,0.523477,0.135366,-0.082116,1.332461,0.061604,-0.132883,1.175804,-1.671500,0.331774,-2.215523,-7.718561,0.642970,0.006141,-0.133218,0.000000,-0.166509,-0.120560,0.000000
0.730000,-3.148051,-0.182385,-1.503619,0.536860,0.135897,-0.083428,1.344106,0.044502,-0.129536,1.152913,-1.748893,0.337544,-2.364470,-7.759006,0.510966,0.004437,-0.134413,0.000000,-0.174283,-0.118418,0.000000
0.740000,-3.142615,-0.181024,-1.504459,0.550358,0.136253,-0.084707,1.355516,0.026625,-0.126136,1.128976,-1.826440,0.342328,-2.399926,-7.738404,0.462474,0.002655,-0.135586,0.000000,-0.182080,-0.116161,-0.000000
0.750000,-3.137043,-0.179661,-1.505313,0.563969,0.136427,-0.085951,1.366685,0.007974,-0.122690,1.104698,-1.903719,0.346662,-2.481454,-7.725996,0.388907,0.000795,-0.136736,0.000000,-0.189858,-0.113865,0.000000
0.760000,-3.131335,-0.178296,-1.506178,0.577691,0.136410,-0.087160,1.377606,-0.011449,-0.119206,1.079378,-1.980852,0.350120,-2.569124,-7.702721,0.318059,-0.001142,-0.137863,0.000000,-0.197627,-0.111454,0.000000
0.770000,-3.125489,-0.176933,-1.507056,0.591520,0.136196,-0.088335,1.388271,-0.031642,-0.115689,1.053427,-2.057773,0.353171,-2.635843,-7.676105,0.278437,-0.003157,-0.138965,0.000000,-0.205381,-0.108976,-0.000000
0.780000,-3.119504,-0.175573,-1.507945,0.605455,0.135775,-0.089474,1.398671,-0.052603,-0.112145,1.026353,-2.134266,0.355402,-2.780243,-7.620784,0.168162,-0.005250,-0.140042,0.000000,-0.213099,-0.106375,-0.000000
0.790000,-3.113379,-0.174218,-1.508845,0.619493,0.135141,-0.090578,1.408794,-0.074325,-0.108584,0.998083,-2.210224,0.356839,-2.860743,-7.572402,0.134483,-0.007419,-0.141092,0.000000,-0.220768,-0.103644,-0.000000
0.800000,-3.107114,-0.172871,-1.509756,0.633630,0.134286,-0.091646,1.418630,-0.096805,-0.105009,0.969007,-2.285648,0.357982,-2.969658,-7.507060,0.081057,-0.009665,-0.142115,0.000000,-0.228388,-0.100828,0.000000
0.810000,-3.100706,-0.171533,-1.510678,0.647864,0.133202,-0.092678,1.428170,-0.120036,-0.101426,0.938662,-2.360260,0.358504,-3.084596,-7.429023,0.033359,-0.011986,-0.143108,0.000000,-0.235932,-0.097878,0.000000
0.820000,-3.094156,-0.170208,-1.511610,0.662193,0.131883,-0.093674,1.437401,-0.144009,-0.097840,0.907444,-2.434332,0.358752,-3.174913,-7.368376,0.008605,-0.014383,-0.144072,0.000000,-0.243425,-0.094836,0.000000
0.830000,-3.087462,-0.168897,-1.512551,0.676611,0.130320,-0.094635,1.446314,-0.168718,-0.094253,0.874829,-2.507275,0.358515,-3.349405,-7.217779,-0.055163,-0.016855,-0.145005,0.000000,-0.250808,-0.091647,0.000000
0.840000,-3.080624,-0.167602,-1.513502,0.691118,0.128506,-0.095559,1.454892,-0.194150,-0.090671,0.840750,-2.578951,0.357850,-3.451560,-7.130503,-0.067909,-0.019399,-0.145905,0.000000,-0.258067,-0.088306,0.000000
0.850000,-3.073640,-0.166327,-1.514462,0.705708,0.126434,-0.096448,1.463126,-0.220295,-0.087096,0.805654,-2.649716,0.357108,-3.583687,-7.005523,-0.087935,-0.022016,-0.146771,0.000000,-0.265238,-0.084862,0.000000
0.860000,-3.066509,-0.165074,-1.515431,0.720379,0.124098,-0.097301,1.471000,-0.247139,-0.083530,0.769046,-2.718838,0.356163,-3.721018,-6.864119,-0.099120,-0.024703,-0.147602,0.000000,-0.272246,-0.081263,0.000000
0.870000,-3.059232,-0.163846,-1.516408,0.735127,0.121489,-0.098119,1.478503,-0.274670,-0.079973,0.731367,-2.787395,0.355161,-3.831043,-6.799183,-0.100361,-0.027460,-0.148396,0.000000,-0.279200,-0.077556,0.000000
0.880000,-3.051806,-0.162646,-1.517393,0.749948,0.118602,-0.098901,1.485622,-0.302879,-0.076426,0.692084,-2.853814,0.354173,-4.026716,-6.481103,-0.095649,-0.030286,-0.149153,0.000000,-0.285942,-0.073688,-0.000000
0.890000,-3.044233,-0.161475,-1.518386,0.764838,0.115430,-0.099647,1.492339,-0.331739,-0.072889,0.651141,-2.917908,0.353293,-4.146348,-6.382271,-0.077997,-0.033179,-0.149870,0.000000,-0.292454,-0.069656,0.000000
0.900000,-3.036510,-0.160338,-1.519386,0.779793,0.111965,-0.100358,1.498641,-0.361235,-0.069360,0.609024,-2.981024,0.352646,-4.294466,-6.192464,-0.050722,-0.036135,-0.150546,0.000000,-0.298870,-0.065510,0.000000
0.910000,-3.028637,-0.159237,-1.520393,0.794809,0.108203,-0.101034,1.504513,-0.391353,-0.065835,0.564992,-3.042282,0.352442,-4.450956,-5.999874,-0.010274,-0.039155,-0.151180,0.000000,-0.305104,-0.061178,0.000000
0.920000,-3.020613,-0.158175,-1.521407,0.809882,0.104136,-0.101675,1.509941,-0.422069,-0.062311,0.520564,-3.100454,0.352276,-4.494292,-5.688021,0.000456,-0.042236,-0.151771,0.000000,-0.311030,-0.056807,0.000000
0.930000,-3.012439,-0.157155,-1.522427,0.825007,0.099759,-0.102281,1.514916,-0.453357,-0.058786,0.473854,-3.157167,0.352937,-4.849778,-5.654215,0.134345,-0.045375,-0.152317,0.000000,-0.316817,-0.052220,0.000000
0.940000,-3.004113,-0.156181,-1.523452,0.840179,0.095067,-0.102851,1.519410,-0.485208,-0.055249,0.424772,-3.212372,0.354572,-4.906523,-5.328651,0.173216,-0.048572,-0.152816,0.000000,-0.322460,-0.047411,-0.000000
0.950000,-2.995635,-0.155255,-1.524484,0.855393,0.090054,-0.103386,1.523411,-0.517593,-0.051694,0.375214,-3.264173,0.356633,-5.064708,-5.085168,0.261718,-0.051823,-0.153266,0.000000,-0.327768,-0.042560,-0.000000
0.960000,-2.987005,-0.154381,-1.525520,0.870645,0.084714,-0.103885,1.526911,-0.550487,-0.048112,0.324713,-3.314387,0.359921,-5.199883,-4.837736,0.365146,-0.055127,-0.153668,0.000000,-0.332926,-0.037632,-0.000000
0.970000,-2.978222,-0.153562,-1.526561,0.885930,0.079042,-0.104348,1.529887,-0.583862,-0.044494,0.269706,-3.359798,0.363678,-5.641727,-4.356303,0.420373,-0.058480,-0.154018,0.000000,-0.337615,-0.032264,0.000000
0.980000,-2.969286,-0.152801,-1.527607,0.901241,0.073035,-0.104774,1.532308,-0.617679,-0.040833,0.215235,-3.403859,0.369043,-5.247394,-4.456860,0.655906,-0.061879,-0.154314,0.000000,-0.342181,-0.026971,0.000000
0.990000,-2.960197,-0.152102,-1.528656,0.916574,0.066687,-0.105164,1.534196,-0.651936,-0.037107,0.161531,-3.446574,0.376196,-5.654493,-3.968288,0.744818,-0.065324,-0.154559,0.000000,-0.346630,-0.021780,-0.000000
1.000000,-2.950955,-0.151469,-1.529710,0.931923,0.059995,-0.105516,1.535522,-0.686592,-0.033306,0.103511,-3.484148,0.384265,-5.788218,-3.658340,0.902805,-0.068810,-0.154749,0.000000,-0.350582,-0.016173,0.000000
1.010000,-2.941559,-0.150904,-1.530767,0.947283,0.052954,-0.105830,1.536271,-0.721615,-0.029415,0.046369,-3.520131,0.394366,-5.903054,-3.344357,1.077347,-0.072335,-0.154884,0.000000,-0.354398,-0.010681,-0.000000
1.020000,-2.932009,-0.150411,-1.531826,0.962647,0.045561,-0.106104,1.536424,-0.756968,-0.025416,-0.016972,-3.549213,0.405470,-6.510588,-2.653896,1.186949,-0.075895,-0.154961,0.000000,-0.357549,-0.004589,-0.000000
1.030000,-2.922306,-0.149993,-1.532889,0.978009,0.037814,-0.106338,1.535940,-0.792597,-0.021297,-0.078498,-3.577029,0.419015,-5.787236,-2.911302,1.525770,-0.079486,-0.154977,0.000000,-0.360603,0.001290,0.000000
1.040000,-2.912449,-0.149656,-1.533953,0.993363,0.029709,-0.106530,1.534863,-0.828506,-0.017027,-0.137889,-3.603614,0.435201,-6.349244,-2.214737,1.672267,-0.083107,-0.154936,0.000000,-0.363568,0.006921,0.000000
1.050000,-2.902438,-0.149400,-1.535019,1.008704,0.021243,-0.106678,1.533158,-0.864641,-0.012589,-0.203324,-3.622828,0.452867,-6.481430,-1.810212,1.903987,-0.086754,-0.154836,0.000000,-0.365835,0.013133,0.000000
1.060000,-2.892275,-0.149232,-1.536086,1.024024,0.012415,-0.106781,1.530766,-0.900922,-0.007958,-0.276164,-3.631657,0.473755,-6.780978,-1.226781,2.159825,-0.090420,-0.154670,0.000000,-0.367125,0.020034,0.000000
1.070000,-2.881958,-0.149153,-1.537155,1.039317,0.003224,-0.106836,1.527730,-0.937358,-0.003114,-0.326935,-3.659019,0.495041,-4.641274,-3.004668,2.212313,-0.094105,-0.154443,0.000000,-0.370260,0.024750,-0.000000
1.080000,-2.871489,-0.149169,-1.538223,1.054577,-0.006333,-0.106842,1.524158,-0.974024,0.001957,-0.395604,-3.665706,0.520412,-9.131516,1.708825,2.867496,-0.097818,-0.154166,0.000000,-0.371420,0.031183,0.000000
1.090000,-2.860867,-0.149281,-1.539291,1.069798,-0.016256,-0.106796,1.519743,-1.010587,0.007310,-0.483901,-3.649828,0.550154,-7.246675,0.219571,2.969221,-0.101526,-0.153809,0.000000,-0.370434,0.039504,-0.000000
1.100000,-2.850093,-0.149495,-1.540359,1.084970,-0.026544,-0.106695,1.514572,-1.047098,0.012962,-0.551354,-3.650676,0.580801,-7.518708,0.857248,3.275765,-0.105234,-0.153381,0.000000,-0.371129,0.045758,0.000000
1.110000,-2.839167,-0.149813,-1.541425,1.100087,-0.037198,-0.106536,1.508702,-1.083575,0.018940,-0.622318,-3.644502,0.615562,-7.590820,1.315766,3.595556,-0.108946,-0.152887,0.000000,-0.371208,0.052311,0.000000
1.120000,-2.828091,-0.150240,-1.542489,1.115141,-0.048215,-0.106315,1.502049,-1.119897,0.025277,-0.711568,-3.615724,0.651987,-9.363239,3.530233,3.771324,-0.112649,-0.152321,0.000000,-0.369123,0.060668,0.000000
1.130000,-2.816865,-0.150779,-1.543551,1.130125,-0.059595,-0.106029,1.494511,-1.155917,0.031995,-0.790774,-3.593000,0.692702,-6.446599,0.986466,4.375546,-0.116331,-0.151670,0.000000,-0.367719,0.067983,0.000000
1.140000,-2.805489,-0.151433,-1.544610,1.145029,-0.071333,-0.105674,1.486279,-1.191788,0.039147,-0.858486,-3.577578,0.737906,-7.993315,3.016890,4.585734,-0.120007,-0.150956,0.000000,-0.367122,0.074110,0.000000
1.150000,-2.793965,-0.152207,-1.545664,1.159848,-0.083430,-0.105245,1.477270,-1.227380,0.046759,-0.942913,-3.540457,0.785123,-7.990771,3.491919,4.939919,-0.123665,-0.150170,0.000000,-0.364467,0.081891,-0.000000
1.160000,-2.782292,-0.153103,-1.546714,1.174572,-0.095880,-0.104737,1.467456,-1.262624,0.054865,-1.019420,-3.508036,0.836759,-7.953795,3.926107,5.304545,-0.127300,-0.149310,0.000000,-0.362375,0.088846,-0.000000
1.170000,-2.770473,-0.154126,-1.547759,1.189194,-0.108681,-0.104146,1.456830,-1.297450,0.063499,-1.107875,-3.453326,0.890461,-9.107197,6.112407,5.517629,-0.130904,-0.148374,0.000000,-0.358167,0.096990,-0.000000
1.180000,-2.758509,-0.155278,-1.548797,1.203705,-0.121827,-0.103465,1.445330,-1.331717,0.072690,-1.188344,-3.404754,0.948825,-6.964487,3.576114,6.158240,-0.134466,-0.147356,0.000000,-0.354676,0.104307,0.000000
1.190000,-2.746400,-0.156563,-1.549828,1.218098,-0.135314,-0.102690,1.433098,-1.365577,0.082492,-1.259811,-3.363434,1.011991,-7.960235,5.605104,6.393216,-0.138001,-0.146272,0.000000,-0.352018,0.110695,-0.000000
1.200000,-2.734147,-0.157985,-1.550850,1.232365,-0.149137,-0.101813,1.420086,-1.398898,0.092936,-1.342140,-3.300338,1.077386,-7.873081,6.107264,6.767377,-0.141498,-0.145116,0.000000,-0.347305,0.118176,-0.000000
1.210000,-2.721753,-0.159547,-1.551864,1.246497,-0.163289,-0.100829,1.406240,-1.431561,0.104057,-1.427869,-3.230736,1.147505,-7.963646,6.806809,7.147089,-0.144946,-0.143883,0.000000,-0.342083,0.125976,0.000000
1.220000,-2.709218,-0.161252,-1.552866,1.260487,-0.177766,-0.099730,1.391632,-1.463571,0.115890,-1.489352,-3.173407,1.219315,-5.600137,5.644758,7.319872,-0.148345,-0.142580,0.000000,-0.338128,0.131382,-0.000000
1.230000,-2.696544,-0.163103,-1.553858,1.274328,-0.192559,-0.098508,1.376392,-1.494959,0.128461,-1.566475,-3.097144,1.296105,-9.861849,9.643534,8.040441,-0.151702,-0.141220,0.000000,-0.332455,0.138332,-0.000000
1.240000,-2.683732,-0.165104,-1.554836,1.288012,-0.207662,-0.097158,1.360235,-1.525437,0.141830,-1.660866,-3.000287,1.377961,-7.732283,8.742136,8.222628,-0.154988,-0.139775,0.000000,-0.324907,0.147006,0.000000
1.250000,-2.670784,-0.167258,-1.555800,1.301530,-0.223065,-0.095669,1.343274,-1.555017,0.156023,-1.731932,-2.913795,1.461434,-7.754365,9.548312,8.576461,-0.158205,-0.138254,0.000000,-0.318438,0.153390,-0.000000
1.260000,-2.657702,-0.169567,-1.556749,1.314875,-0.238759,-0.094034,1.325593,-1.583636,0.171076,-1.803475,-2.808047,1.549847,-7.559122,10.445994,8.931031,-0.161349,-0.136668,0.000000,-0.310185,0.159825,0.000000
1.270000,-2.644487,-0.172034,-1.557681,1.328039,-0.254734,-0.092245,1.307130,-1.611242,0.187018,-1.892316,-2.715469,1.638414,-9.225823,9.197530,8.947708,-0.164415,-0.135008,0.000000,-0.303356,0.168077,-0.000000
1.280000,-2.631142,-0.174662,-1.558593,1.341014,-0.270980,-0.090291,1.287800,-1.637863,0.203863,-1.967354,-2.600427,1.732270,-5.747229,13.848046,9.825484,-0.167408,-0.133266,0.000000,-0.294391,0.174957,-0.000000
1.290000,-2.617667,-0.177454,-1.559486,1.353793,-0.287487,-0.088164,1.267842,-1.663161,0.221682,-2.026992,-2.461232,1.831460,-7.165291,12.856466,9.839567,-0.170295,-0.131465,0.000000,-0.283110,0.180300,-0.000000
1.300000,-2.604066,-0.180413,-1.560356,1.366369,-0.304239,-0.085854,1.247191,-1.687146,0.240489,-2.102194,-2.333646,1.930420,-6.886492,13.792547,10.117582,-0.173077,-0.129599,0.000000,-0.273071,0.187314,0.000000
1.310000,-2.590341,-0.183540,-1.561202,1.378735,-0.321225,-0.083351,1.225813,-1.709800,0.260304,-2.173390,-2.196496,2.032991,-6.720782,14.551122,10.361992,-0.175753,-0.127663,0.000000,-0.262164,0.193980,0.000000
1.320000,-2.576492,-0.186838,-1.562022,1.390883,-0.338430,-0.080645,1.203780,-1.730976,0.281154,-2.230761,-2.034233,2.137285,-5.359857,17.012443,10.520793,-0.178310,-0.125664,0.000000,-0.248753,0.199327,0.000000
1.330000,-2.562524,-0.190309,-1.562814,1.402808,-0.355839,-0.077724,1.181176,-1.750501,0.303058,-2.293320,-1.874914,2.243911,-7.167427,14.821997,10.799504,-0.180730,-0.123610,0.000000,-0.235706,0.205281,-0.000000
1.340000,-2.548437,-0.193955,-1.563576,1.414504,-0.373435,-0.074580,1.157890,-1.768496,0.326039,-2.361694,-1.719877,2.352567,-5.887498,17.079308,10.896103,-0.183026,-0.121488,0.000000,-0.223149,0.211922,0.000000
1.350000,-2.534235,-0.197778,-1.564305,1.425964,-0.391203,-0.071200,1.134000,-1.784804,0.350111,-2.416210,-1.540979,2.461953,-5.625565,17.804960,11.003783,-0.185183,-0.119305,0.000000,-0.208150,0.217263,-0.000000
1.360000,-2.519919,-0.201780,-1.564999,1.437182,-0.409126,-0.067574,1.109555,-1.799327,0.375279,-2.472223,-1.362802,2.571792,-5.323943,18.500341,11.056650,-0.187191,-0.117066,0.000000,-0.193209,0.222877,-0.000000
1.370000,-2.505492,-0.205961,-1.565656,1.448153,-0.427184,-0.063691,1.084586,-1.811982,0.401556,-2.520302,-1.164829,2.683857,-4.527088,20.440312,11.251815,-0.189040,-0.114771,0.000000,-0.176233,0.227779,0.000000
1.380000,-2.490956,-0.210324,-1.566272,1.458872,-0.445358,-0.059539,1.059150,-1.822631,0.428952,-2.567707,-0.967719,2.794634,-4.955464,18.959833,10.892271,-0.190716,-0.112427,0.000000,-0.159251,0.232758,0.000000
1.390000,-2.476315,-0.214869,-1.566846,1.469335,-0.463630,-0.055108,1.033232,-1.831348,0.457441,-2.614415,-0.772471,2.903499,-4.136479,20.746738,10.970254,-0.192225,-0.110030,0.000000,-0.142335,0.237823,0.000000
1.400000,-2.461571,-0.219597,-1.567373,1.479536,-0.481979,-0.050387,1.006895,-1.838006,0.487025,-2.652367,-0.558394,3.013031,-3.688973,21.411609,10.829646,-0.193554,-0.107584,0.000000,-0.123377,0.242109,0.000000
1.410000,-2.446725,-0.224509,-1.567852,1.489472,-0.500383,-0.045364,0.980227,-1.842478,0.517691,-2.679550,-0.333880,3.119618,-3.039156,22.250624,10.624312,-0.194688,-0.105099,0.000000,-0.103126,0.245438,-0.000000
1.420000,-2.431782,-0.229605,-1.568280,1.499139,-0.518821,-0.040029,0.953221,-1.844757,0.549422,-2.724960,-0.124809,3.226669,-4.776007,20.764835,10.634707,-0.195624,-0.102572,0.000000,-0.084354,0.250803,-0.000000
1.430000,-2.416743,-0.234885,-1.568652,1.508535,-0.537271,-0.034372,0.925810,-1.844890,0.582208,-2.748483,0.106631,3.329146,0.116914,25.558558,9.846299,-0.196365,-0.099994,0.000000,-0.062950,0.254067,-0.000000
1.440000,-2.401612,-0.240350,-1.568966,1.517655,-0.555710,-0.028382,0.898341,-1.842535,0.615986,-2.747997,0.361980,3.426255,-1.286211,24.294120,9.708081,-0.196872,-0.097400,0.000000,-0.038673,0.254973,0.000000
1.450000,-2.386391,-0.245999,-1.569218,1.526501,-0.574113,-0.022049,0.870775,-1.837721,0.650731,-2.763301,0.602756,3.521887,-0.501610,25.067538,9.265381,-0.197145,-0.094785,0.000000,-0.015655,0.257674,-0.000000
1.460000,-2.371083,-0.251832,-1.569406,1.535071,-0.592456,-0.015364,0.843147,-1.830396,0.686396,-2.760615,0.864188,3.610182,0.309653,25.883378,8.729365,-0.197175,-0.092152,0.000000,0.010001,0.258648,0.000000
1.470000,-2.355691,-0.257848,-1.569525,1.543364,-0.610713,-0.008318,0.815531,-1.820518,0.722943,-2.763769,1.108060,3.699443,-0.228173,24.174585,8.776305,-0.196953,-0.089507,0.000000,0.034103,0.260336,0.000000
1.480000,-2.340217,-0.264046,-1.569571,1.551381,-0.628858,-0.000902,0.787932,-1.808150,0.760348,-2.750235,1.374622,3.778442,2.958536,29.169332,7.002187,-0.196482,-0.086849,0.000000,0.061191,0.260430,0.000000
1.490000,-2.324664,-0.270425,-1.569541,1.559124,-0.646866,0.006891,0.760591,-1.792936,0.798472,-2.718942,1.665134,3.846065,2.583832,27.618971,6.850803,-0.195717,-0.084202,0.000000,0.091499,0.258780,-0.000000
1.500000,-2.309035,-0.276983,-1.569432,1.566594,-0.664708,0.015069,0.733525,-1.774929,0.837271,-2.692486,1.937829,3.912362,3.420649,28.206134,6.060052,-0.194659,-0.081569,0.000000,0.120373,0.257712,-0.000000
1.510000,-2.293333,-0.283718,-1.569239,1.573795,-0.682356,0.023639,0.706746,-1.754172,0.876678,-2.663041,2.213186,3.967400,4.029273,28.450454,5.198117,-0.193307,-0.078949,0.000000,0.150234,0.256464,-0.000000
1.520000,-2.277560,-0.290629,-1.568958,1.580730,-0.699782,0.032605,0.680411,-1.730529,0.916611,-2.597561,2.521257,4.018518,7.548362,31.596510,4.761651,-0.191638,-0.076359,0.000000,0.184267,0.251322,-0.000000
1.530000,-2.261719,-0.297713,-1.568585,1.587406,-0.716956,0.041972,0.654744,-1.703815,0.957005,-2.543954,2.812217,4.057106,3.123675,26.531027,2.938035,-0.189626,-0.073823,0.000000,0.217253,0.247565,-0.000000
1.540000,-2.245813,-0.304967,-1.568117,1.593826,-0.733849,0.051746,0.629473,-1.674364,0.997706,-2.504447,3.082955,4.082204,6.306869,29.167041,2.327410,-0.187299,-0.071310,0.000000,0.248844,0.245465,0.000000
1.550000,-2.229844,-0.312389,-1.567549,1.599997,-0.750433,0.061927,0.604796,-1.642035,1.038633,-2.430855,3.381920,4.101286,6.884201,29.047286,1.224240,-0.184634,-0.068842,0.000000,0.284272,0.239594,-0.000000
1.560000,-2.213814,-0.319975,-1.566877,1.605925,-0.766680,0.072519,0.580821,-1.606899,1.079681,-2.363610,3.641262,4.106158,7.453447,28.320870,0.046600,-0.181630,-0.066431,0.000000,0.316206,0.234468,-0.000000
1.570000,-2.197726,-0.327721,-1.566097,1.611616,-0.782562,0.083521,0.557615,-1.568787,1.120741,-2.273614,3.998810,4.104849,9.682821,37.826810,-0.613886,-0.178260,-0.064085,0.000000,0.359799,0.226743,0.000000
1.580000,-2.181582,-0.335625,-1.565205,1.617080,-0.798044,0.094933,0.535327,-1.527199,1.161722,-2.188065,4.285264,4.087482,7.400760,19.289469,-2.877112,-0.174461,-0.061821,0.000000,0.396506,0.219512,-0.000000
1.590000,-2.165385,-0.343681,-1.564197,1.622325,-0.813099,0.106754,0.513828,-1.483387,1.202432,-2.108116,4.492744,4.053145,9.461896,27.605480,-3.698821,-0.170362,-0.059624,0.000000,0.425218,0.212908,-0.000000
1.600000,-2.149136,-0.351885,-1.563069,1.627360,-0.827703,0.118981,0.493253,-1.436946,1.242764,-2.006181,4.791491,4.010813,10.059430,26.760814,-5.073486,-0.165909,-0.057511,0.000000,0.464937,0.203695,-0.000000
1.610000,-2.132839,-0.360233,-1.561816,1.632194,-0.841828,0.131608,0.473807,-1.387443,1.282573,-1.879143,5.115679,3.948216,11.188509,27.453355,-6.568309,-0.161046,-0.055506,0.000000,0.508595,0.191529,-0.000000
1.620000,-2.116493,-0.368720,-1.560435,1.636839,-0.855443,0.144630,0.455370,-1.335472,1.321749,-1.820678,5.242819,3.887461,4.542363,8.284108,-6.445542,-0.155832,-0.053596,0.000000,0.530136,0.187085,-0.000000
1.630000,-2.100102,-0.377340,-1.558922,1.641303,-0.868533,0.158041,0.437619,-1.282084,1.360231,-1.703537,5.497787,3.801206,19.009406,43.026596,-10.836373,-0.150383,-0.051744,0.000000,0.567188,0.175825,-0.000000
1.640000,-2.083668,-0.386089,-1.557273,1.645598,-0.881072,0.171831,0.421545,-1.224962,1.397677,-1.522259,5.894616,3.688015,13.164051,25.919875,-10.938725,-0.144420,-0.050069,0.000000,0.621769,0.156938,0.000000
1.650000,-2.067191,-0.394960,-1.555484,1.649739,-0.893023,0.185991,0.406886,-1.164997,1.434007,-1.405777,6.104315,3.575040,14.187920,26.379811,-12.520954,-0.138040,-0.048540,0.000000,0.655001,0.145358,-0.000000
1.660000,-2.050673,-0.403947,-1.553552,1.653740,-0.904364,0.200507,0.393502,-1.102697,1.469102,-1.271327,6.353524,3.441241,14.673202,25.799861,-14.070594,-0.131297,-0.047142,0.000000,0.693482,0.131520,-0.000000
1.670000,-2.034117,-0.413045,-1.551473,1.657614,-0.915068,0.215368,0.381636,-1.037757,1.502794,-1.094311,6.641550,3.295192,18.794303,29.490678,-15.300971,-0.124149,-0.045908,0.000000,0.737023,0.112397,-0.000000
1.680000,-2.017521,-0.422246,-1.549244,1.661378,-0.925109,0.230558,0.371539,-0.969999,1.534947,-0.936084,6.894728,3.131840,12.777481,21.044981,-17.371526,-0.116571,-0.044869,0.000000,0.776879,0.095284,-0.000000
1.690000,-2.000889,-0.431545,-1.546861,1.665049,-0.934461,0.246061,0.362825,-0.900013,1.565372,-0.800132,7.108174,2.951135,16.340193,23.924482,-18.600325,-0.108629,-0.043979,0.000000,0.812238,0.080661,-0.000000
1.700000,-1.984221,-0.440933,-1.544322,1.668640,-0.943102,0.261859,0.355697,-0.827691,1.593933,-0.626068,7.352935,2.758536,16.521662,22.689612,-20.077816,-0.100308,-0.043266,0.000000,0.851424,0.061240,0.000000
1.710000,-1.967517,-0.450404,-1.541623,1.672168,-0.951008,0.277933,0.350196,-0.753296,1.620503,-0.475899,7.516724,2.553428,16.412282,20.267786,-21.449761,-0.091642,-0.042736,0.000000,0.880744,0.044509,-0.000000
1.720000,-1.950778,-0.459951,-1.538762,1.675650,-0.958160,0.294262,0.346411,-0.676609,1.644915,-0.271308,7.851825,2.324960,21.665029,36.796351,-23.737002,-0.082603,-0.042400,0.000000,0.930742,0.021037,0.000000
1.730000,-1.934004,-0.469565,-1.535737,1.679104,-0.964529,0.310824,0.344630,-0.596811,1.666982,-0.102218,8.043687,2.089332,12.052208,1.243223,-23.363898,-0.073095,-0.042297,0.000000,0.962961,0.001686,0.000000
1.740000,-1.917196,-0.479239,-1.532545,1.682547,-0.970095,0.327594,0.344210,-0.516342,1.686686,0.026696,8.077154,1.847784,16.573840,15.457126,-25.439229,-0.063421,-0.042348,0.000000,0.975083,-0.012876,-0.000000
1.750000,-1.900353,-0.488964,-1.529184,1.685993,-0.974851,0.344549,0.345378,-0.434570,1.703858,0.204829,8.267456,1.585037,16.198196,12.602200,-26.597434,-0.053510,-0.042581,0.000000,1.005694,-0.033491,0.000000
1.760000,-1.883476,-0.498733,-1.525653,1.689460,-0.978781,0.361662,0.348283,-0.351169,1.718364,0.377344,8.412713,1.314251,16.187806,10.955538,-27.702191,-0.043332,-0.043016,0.000000,1.029840,-0.053475,-0.000000
1.770000,-1.866564,-0.508537,-1.521951,1.692964,-0.981871,0.378907,0.352752,-0.266817,1.730095,0.509026,8.436004,1.029820,12.187064,-0.972761,-29.021740,-0.032979,-0.043630,0.000000,1.037843,-0.068396,-0.000000
1.780000,-1.849616,-0.518368,-1.518075,1.696519,-0.984117,0.396254,0.358556,-0.182257,1.738934,0.663894,8.505073,0.737223,18.842622,14.952730,-29.479445,-0.022556,-0.044396,0.000000,1.050226,-0.086122,0.000000
1.790000,-1.832633,-0.528217,-1.514025,1.700141,-0.985512,0.413676,0.366132,-0.096496,1.744817,0.844316,8.627307,0.437482,15.167341,4.117398,-30.605419,-0.011952,-0.045365,0.000000,1.067854,-0.106921,-0.000000
1.800000,-1.815613,-0.538075,-1.509801,1.703847,-0.986045,0.431141,0.375273,-0.010193,1.747644,0.984617,8.633112,0.126693,14.943282,2.405516,-31.386381,-0.001263,-0.046513,0.000000,1.069620,-0.122591,-0.000000
1.810000,-1.798556,-0.547935,-1.505402,1.707652,-0.985715,0.448618,0.385853,0.076256,1.747339,1.130625,8.654179,-0.188557,14.504639,0.504506,-32.040082,0.009447,-0.047820,0.000000,1.071759,-0.138787,0.000000
1.820000,-1.781460,-0.557786,-1.500829,1.711569,-0.984520,0.466077,0.397891,0.162721,1.743821,1.276874,8.631230,-0.517395,14.487623,-3.826627,-33.330444,0.020146,-0.049288,0.000000,1.066873,-0.154728,-0.000000
1.830000,-1.764324,-0.567622,-1.496081,1.715614,-0.982462,0.483483,0.411362,0.248876,1.736992,1.414981,8.604265,-0.846838,13.116640,-1.524881,-32.529261,0.030779,-0.050911,0.000000,1.059925,-0.169408,-0.000000
1.840000,-1.747147,-0.577433,-1.491160,1.719801,-0.979543,0.500806,0.426158,0.334809,1.726890,1.544032,8.575158,-1.175338,12.934299,-5.572747,-33.537611,0.041340,-0.052673,0.000000,1.051190,-0.182689,0.000000
1.850000,-1.729927,-0.587210,-1.486065,1.724142,-0.975768,0.518010,0.442241,0.420216,1.713445,1.671348,8.503703,-1.513978,12.269793,-7.442280,-33.788748,0.051777,-0.054567,0.000000,1.035698,-0.195368,0.000000
1.860000,-1.712663,-0.596945,-1.480800,1.728650,-0.971142,0.535063,0.459525,0.504832,1.696628,1.783399,8.415735,-1.849252,11.421674,-9.458144,-33.885492,0.062043,-0.056578,0.000000,1.016798,-0.205842,0.000000
1.870000,-1.695354,-0.606630,-1.475365,1.733336,-0.965674,0.551931,0.477985,0.588520,1.676406,1.911479,8.320945,-2.197191,12.933985,-10.167859,-35.065717,0.072107,-0.058699,0.000000,0.995638,-0.217814,-0.000000
1.880000,-1.677996,-0.616256,-1.469762,1.738213,-0.959375,0.568580,0.497666,0.671153,1.652715,2.015633,8.198359,-2.537216,7.850206,-14.367016,-32.901833,0.081940,-0.060933,0.000000,0.969946,-0.226512,0.000000
1.890000,-1.660589,-0.625815,-1.463994,1.743292,-0.952256,0.584975,0.518201,0.752387,1.625700,2.093678,8.047242,-2.867382,9.016745,-15.175550,-33.737891,0.091491,-0.063232,0.000000,0.939882,-0.231727,0.000000
1.900000,-1.643130,-0.635298,-1.458063,1.748580,-0.944332,0.601083,0.539606,0.832087,1.595327,2.185125,7.889189,-3.206307,8.006926,-17.105378,-33.407244,0.100733,-0.065594,0.000000,0.907996,-0.238118,-0.000000
1.910000,-1.625616,-0.644699,-1.451973,1.754087,-0.935620,0.616870,0.561848,0.910129,1.561612,2.261905,7.717339,-3.535628,7.079992,-18.793238,-32.953474,0.109644,-0.068011,0.000000,0.873849,-0.242430,-0.000000
1.920000,-1.608047,-0.654008,-1.445727,1.759820,-0.926136,0.632304,0.584791,0.986253,1.524590,2.324217,7.499309,-3.869760,5.636580,-23.320372,-33.357134,0.118186,-0.070464,0.000000,0.833601,-0.244608,-0.000000
1.930000,-1.590419,-0.663219,-1.439329,1.765785,-0.915902,0.647351,0.608313,1.060130,1.484261,2.379985,7.282257,-4.191962,5.522963,-20.039753,-31.051108,0.126317,-0.072935,0.000000,0.793310,-0.245775,-0.000000
1.940000,-1.572731,-0.672324,-1.432782,1.771988,-0.904940,0.661979,0.632372,1.131921,1.440800,2.429438,7.068483,-4.500546,4.106505,-24.213993,-31.153224,0.134055,-0.075416,0.000000,0.753426,-0.246007,-0.000000
1.950000,-1.554979,-0.681316,-1.426091,1.778434,-0.893272,0.676156,0.656848,1.201327,1.394237,2.464303,6.810789,-4.810435,3.125043,-25.824967,-30.307152,0.141365,-0.077892,0.000000,0.708401,-0.244243,0.000000
1.960000,-1.537161,-0.690187,-1.419260,1.785126,-0.880923,0.689853,0.681650,1.267913,1.344649,2.494985,6.497739,-5.104946,2.212139,-28.435622,-29.321082,0.148199,-0.080349,0.000000,0.657468,-0.241904,0.000000
1.970000,-1.519275,-0.698932,-1.412295,1.792067,-0.867922,0.703040,0.706652,1.331873,1.292112,2.501160,6.319000,-5.403395,-0.198933,-15.398480,-29.636083,0.154583,-0.082771,0.000000,0.622257,-0.236508,0.000000
1.980000,-1.501319,-0.707543,-1.405201,1.799259,-0.854291,0.715686,0.731679,1.393832,1.236652,2.507349,6.020033,-5.682313,1.461479,-44.631622,-26.112817,0.160594,-0.085137,0.000000,0.573974,-0.231175,0.000000
1.990000,-1.483289,-0.716016,-1.397983,1.806701,-0.840060,0.727764,0.756809,1.451775,1.178542,2.514655,5.590565,-5.939960,-0.785553,-33.064273,-26.131137,0.166011,-0.087457,0.000000,0.512169,-0.226083,-0.000000
2.000000,-1.465184,-0.724343,-1.390648,1.814395,-0.825267,0.739248,0.781880,1.506215,1.117837,2.498321,5.289872,-6.198565,-1.697857,-35.192330,-24.855903,0.170904,-0.089711,0.000000,0.465745,-0.218257,0.000000
2.010000,-1.447001,-0.732519,-1.383200,1.822338,-0.809947,0.750112,0.806790,1.557331,1.054628,2.482873,4.931015,-6.441049,-2.532303,-36.586120,-23.576988,0.175303,-0.091888,0.000000,0.414039,-0.210696,-0.000000
2.020000,-1.428736,-0.740540,-1.375648,1.830530,-0.794133,0.760333,0.831417,1.604789,0.989064,2.437175,4.558568,-6.669435,-5.501294,-37.813574,-22.146207,0.179184,-0.093977,0.000000,0.362208,-0.199970,-0.000000
2.030000,-1.410389,-0.748400,-1.367996,1.838965,-0.777863,0.769886,0.855557,1.648471,0.921282,2.396062,4.176647,-6.884958,-2.688240,-38.517397,-20.953669,0.182548,-0.095956,0.000000,0.310710,-0.190007,-0.000000
2.040000,-1.391956,-0.756096,-1.360252,1.847640,-0.761176,0.778751,0.879367,1.688302,0.851408,2.360983,3.788429,-7.087308,-5.447194,-39.112270,-19.457048,0.185401,-0.097846,0.000000,0.259948,-0.180959,-0.000000
2.050000,-1.373436,-0.763623,-1.352423,1.856550,-0.744110,0.786908,0.902659,1.724225,0.779588,2.296549,3.396020,-7.274464,-6.329203,-39.259604,-18.023890,0.187751,-0.099627,0.000000,0.210296,-0.169048,-0.000000
2.060000,-1.354825,-0.770977,-1.344517,1.865691,-0.726703,0.794337,0.925210,1.756804,0.705934,2.209756,3.136917,-7.454793,-7.675126,-36.378363,-16.710806,0.189673,-0.101278,0.000000,0.176027,-0.155044,-0.000000
2.070000,-1.336121,-0.778156,-1.336539,1.875052,-0.708988,0.801021,0.947082,1.785125,0.630644,2.173868,2.449899,-7.596385,-2.759920,-77.804422,-12.893085,0.191085,-0.102811,0.000000,0.098713,-0.147116,0.000000
2.080000,-1.317323,-0.785156,-1.328499,1.884631,-0.691024,0.806945,0.968491,1.806991,0.553991,2.086180,2.068219,-7.739653,-14.878977,2.231443,-15.797422,0.191777,-0.104254,0.000000,0.055032,-0.133900,-0.000000
2.090000,-1.298428,-0.791975,-1.320403,1.894418,-0.672850,0.812096,0.988592,1.827805,0.475830,1.942187,2.026413,-7.886187,-10.630067,-33.960938,-12.204515,0.192323,-0.105518,0.000000,0.047160,-0.115114,-0.000000
2.100000,-1.279434,-0.798612,-1.312259,1.904399,-0.654478,0.816458,1.007551,1.845789,0.396417,1.845738,1.587952,-7.994724,-11.931758,-30.405532,-10.796643,0.192548,-0.106626,0.000000,-0.000018,-0.102060,-0.000000
2.110000,-1.260339,-0.805064,-1.304076,1.914565,-0.635946,0.820021,1.025344,1.860012,0.315973,1.709644,1.255031,-8.091044,-13.213641,-29.126640,-9.202371,0.192373,-0.107582,0.000000,-0.035070,-0.085416,0.000000
2.120000,-1.241142,-0.811331,-1.295862,1.924902,-0.617287,0.822774,1.041870,1.871505,0.234589,1.600665,1.070118,-8.185500,-10.573999,-14.722914,-8.969080,0.191911,-0.108380,0.000000,-0.054489,-0.071938,0.000000
2.130000,-1.221841,-0.817410,-1.287624,1.935398,-0.598522,0.824709,1.057224,1.881134,0.152350,1.456367,0.816318,-8.255325,-18.332680,-36.277109,-4.971129,0.191258,-0.109036,0.000000,-0.079697,-0.055516,-0.000000
2.140000,-1.202434,-0.823301,-1.279370,1.946040,-0.579676,0.825819,1.070857,1.887511,0.069574,1.274899,0.482557,-8.299375,-15.918308,-23.593279,-4.560345,0.190290,-0.109500,0.000000,-0.111519,-0.036105,0.000000
2.150000,-1.182919,-0.829003,-1.271110,1.956810,-0.560780,0.826099,1.082850,1.891360,-0.013640,1.121254,0.284974,-8.340357,-16.803713,-22.858729,-2.913835,0.189086,-0.109786,0.000000,-0.129334,-0.019944,0.000000
2.160000,-1.163297,-0.834516,-1.262851,1.967692,-0.541857,0.825546,1.093381,1.892526,-0.097132,0.988709,-0.066318,-8.354614,-16.641939,-24.473172,-1.172895,0.187640,-0.109918,0.000000,-0.161104,-0.006532,-0.000000
2.170000,-1.143565,-0.839840,-1.254602,1.978672,-0.522936,0.824156,1.102067,1.891842,-0.180775,0.724858,0.006093,-8.375193,-29.349965,16.642063,-1.745893,0.186041,-0.109864,0.000000,-0.151403,0.019339,-0.000000
2.180000,-1.123723,-0.844975,-1.246371,1.989725,-0.504017,0.821930,1.108205,1.891548,-0.264523,0.543995,-0.201854,-8.364416,-6.589487,-58.948015,3.935550,0.184507,-0.109560,0.000000,-0.168249,0.036259,-0.000000
2.190000,-1.103771,-0.849921,-1.238166,2.000833,-0.485122,0.818867,1.113312,1.886587,-0.347944,0.456834,-0.722348,-8.320806,-17.642346,-22.661844,3.571718,0.182564,-0.109164,0.000000,-0.213737,0.043537,0.000000
2.200000,-1.083706,-0.854678,-1.229996,2.011985,-0.466294,0.814972,1.116821,1.878816,-0.430979,0.249423,-0.846144,-8.282825,-17.025113,-24.516378,5.224241,0.180397,-0.108625,0.000000,-0.221036,0.062072,-0.000000
2.210000,-1.063531,-0.859247,-1.221869,2.023163,-0.447552,0.810249,1.118484,1.869343,-0.513547,0.083869,-1.042665,-8.229043,-16.684503,-23.854299,6.632475,0.178114,-0.107922,0.000000,-0.234792,0.076107,-0.000000
2.220000,-1.043243,-0.863629,-1.213794,2.034349,-0.428916,0.804703,1.118462,1.857248,-0.595424,-0.089659,-1.406386,-8.140148,-17.416571,-40.051739,10.062144,0.175638,-0.107077,0.000000,-0.263180,0.090236,-0.000000
2.230000,-1.022844,-0.867826,-1.205778,2.045527,-0.410419,0.798344,1.116733,1.841654,-0.676356,-0.251809,-1.658104,-8.050572,-14.987175,-9.987894,7.809661,0.172893,-0.106094,0.000000,-0.280794,0.103025,-0.000000
2.240000,-1.002333,-0.871838,-1.197830,2.056679,-0.392087,0.791179,1.113472,1.824576,-0.756448,-0.401287,-1.783859,-7.962397,-15.502785,-24.029826,10.900710,0.170067,-0.104991,0.000000,-0.286741,0.114422,-0.000000
2.250000,-0.981710,-0.875668,-1.189957,2.067791,-0.373935,0.783218,1.108677,1.805312,-0.835477,-0.556701,-2.062450,-7.841998,-14.980197,-22.782138,12.085939,0.167100,-0.103771,0.000000,-0.306002,0.125851,-0.000000
2.260000,-0.960977,-0.879318,-1.182168,2.078847,-0.355988,0.774474,1.102278,1.783836,-0.913296,-0.724854,-2.223435,-7.720397,-14.902317,-20.644575,13.168572,0.163993,-0.102433,0.000000,-0.314406,0.138243,0.000000
2.270000,-0.940134,-0.882789,-1.174470,2.089832,-0.338266,0.764957,1.094487,1.760002,-0.989774,-0.820258,-2.578331,-7.570152,-7.813412,-39.376716,15.951693,0.160737,-0.100999,0.000000,-0.339848,0.143619,-0.000000
2.280000,-0.919181,-0.886084,-1.166871,2.100734,-0.320800,0.754683,1.085707,1.732857,-1.064709,-0.957440,-2.780966,-7.420855,-19.735618,-0.784186,13.867790,0.157250,-0.099508,0.000000,-0.351381,0.152723,0.000000
2.290000,-0.898119,-0.889206,-1.159379,2.111540,-0.303611,0.743667,1.075153,1.705032,-1.138208,-1.141391,-2.814679,-7.274456,-13.382216,-16.973406,16.327137,0.153767,-0.097890,0.000000,-0.347929,0.165904,-0.000000
2.300000,-0.876950,-0.892157,-1.152000,2.122232,-0.286705,0.731924,1.063173,1.675778,-1.210096,-1.256214,-3.026440,-7.102399,-13.238746,-14.368967,17.149964,0.150223,-0.096178,0.000000,-0.360113,0.172581,-0.000000
2.310000,-0.855675,-0.894941,-1.144743,2.132799,-0.270101,0.719471,1.049968,1.644745,-1.280251,-1.383858,-3.179334,-6.927332,-12.787808,-12.795999,17.955903,0.146586,-0.094393,0.000000,-0.367076,0.180330,0.000000
2.320000,-0.834295,-0.897560,-1.137613,2.143227,-0.253814,0.706325,1.035471,1.612521,-1.348609,-1.516511,-3.250930,-6.742544,-13.253082,-4.828453,18.891284,0.142910,-0.092531,0.000000,-0.366899,0.188397,-0.000000
2.330000,-0.812811,-0.900018,-1.130619,2.153504,-0.237852,0.692505,1.019676,1.579626,-1.415083,-1.638637,-3.345336,-6.551811,-11.153067,-14.157449,19.242114,0.139239,-0.090590,0.000000,-0.368844,0.195462,-0.000000
2.340000,-0.791225,-0.902318,-1.123765,2.163617,-0.222226,0.678030,1.002740,1.545497,-1.479629,-1.749337,-3.467224,-6.355883,-11.474151,-6.885189,20.034246,0.135523,-0.088587,0.000000,-0.373276,0.201486,-0.000000
2.350000,-0.769539,-0.904464,-1.117060,2.173555,-0.206945,0.662920,0.984668,1.510598,-1.542173,-1.863876,-3.511499,-6.152179,-10.940466,-5.304925,20.596036,0.131801,-0.086522,0.000000,-0.371079,0.207798,0.000000
2.360000,-0.747755,-0.906458,-1.110509,2.183307,-0.192015,0.647194,0.965510,1.475178,-1.602661,-1.966322,-3.571689,-5.944543,-10.329326,-3.873017,21.087858,0.128093,-0.084399,0.000000,-0.370446,0.213061,0.000000
2.370000,-0.725874,-0.908305,-1.104118,2.192862,-0.177442,0.630873,0.945299,1.439444,-1.661035,-2.077612,-3.562739,-5.729080,-11.164889,2.871924,21.834342,0.124415,-0.082222,0.000000,-0.364028,0.219070,-0.000000
2.380000,-0.703898,-0.910008,-1.097893,2.202209,-0.163226,0.613980,0.924015,1.403839,-1.717236,-2.173592,-3.572852,-5.511422,-8.005007,-4.990584,21.683366,0.120804,-0.079988,0.000000,-0.359508,0.223796,-0.000000
2.390000,-0.681830,-0.911571,-1.091840,2.211339,-0.149367,0.596536,0.901888,1.367887,-1.771260,-2.253061,-3.606443,-5.292324,-8.654972,1.072332,22.290569,0.117216,-0.077718,0.000000,-0.357223,0.227174,0.000000
2.400000,-0.659672,-0.912997,-1.085965,2.220244,-0.135868,0.578562,0.878915,1.331974,-1.823059,-2.340140,-3.575451,-5.067159,-7.994184,2.316202,22.571943,0.113681,-0.075410,0.000000,-0.349646,0.231242,-0.000000
2.410000,-0.637426,-0.914289,-1.080271,2.228915,-0.122727,0.560082,0.855121,1.296349,-1.872601,-2.417665,-3.547551,-4.840798,-7.391165,3.640890,22.804155,0.110220,-0.073066,0.000000,-0.342599,0.234579,0.000000
2.420000,-0.615095,-0.915452,-1.074764,2.237344,-0.109940,0.541118,0.830591,1.261098,-1.919859,-2.486870,-3.499248,-4.610196,-6.565101,5.634415,23.200372,0.106835,-0.070692,0.000000,-0.334070,0.237285,-0.000000
2.430000,-0.592680,-0.916489,-1.069450,2.245525,-0.097503,0.521693,0.805398,1.226388,-1.964804,-2.551393,-3.442946,-4.379208,-6.343616,5.605037,22.987099,0.103539,-0.068294,0.000000,-0.325140,0.239703,0.000000
2.440000,-0.570185,-0.917404,-1.064332,2.253450,-0.085410,0.501830,0.779577,1.192259,-2.007445,-2.611430,-3.379724,-4.148392,-5.548660,7.409640,23.279239,0.100333,-0.065873,0.000000,-0.315898,0.241858,0.000000
2.450000,-0.547612,-0.918199,-1.059415,2.261114,-0.073655,0.481552,0.753198,1.158861,-2.047761,-2.663382,-3.298165,-3.914675,-4.959136,8.514768,23.349069,0.097226,-0.063434,0.000000,-0.305364,0.243439,0.000000
2.460000,-0.524964,-0.918878,-1.054702,2.268512,-0.062230,0.460882,0.726321,1.126327,-2.085740,-2.711376,-3.206797,-3.681076,-4.399875,9.604771,23.389242,0.094227,-0.060982,0.000000,-0.294272,0.244815,0.000000
2.470000,-0.502243,-0.919444,-1.050198,2.275639,-0.051125,0.439845,0.699009,1.094749,-2.121379,-2.749198,-3.107587,-3.446772,-3.401430,10.368320,23.443260,0.091342,-0.058519,0.000000,-0.282775,0.245468,0.000000
2.480000,-0.479452,-0.919901,-1.045907,2.282491,-0.040332,0.418462,0.671344,1.064215,-2.154676,-2.784383,-2.996670,-3.212795,-3.645534,11.810050,23.347092,0.088574,-0.056052,0.000000,-0.270549,0.246038,0.000000
2.490000,-0.456594,-0.920252,-1.041830,2.289065,-0.029837,0.396759,0.643327,1.034854,-2.185637,-2.817417,-2.874418,-2.979443,-2.727249,12.488917,23.342742,0.085933,-0.053579,0.000000,-0.257620,0.246566,-0.000000
2.500000,-0.433671,-0.920499,-1.037972,2.295357,-0.019630,0.374757,0.615031,1.006745,-2.214265,-2.841002,-2.745880,-2.746219,-2.229132,13.350187,23.275554,0.083423,-0.051105,0.000000,-0.244394,0.246447,0.000000
2.510000,-0.410688,-0.920646,-1.034336,2.301365,-0.009698,0.352481,0.586513,0.979969,-2.240563,-2.861811,-2.608037,-2.513440,-1.755751,14.150011,23.198931,0.081047,-0.048633,0.000000,-0.230612,0.246239,-0.000000
2.520000,-0.387645,-0.920694,-1.030924,2.307087,-0.000026,0.329954,0.557825,0.954606,-2.264543,-2.874527,-2.463620,-2.283019,-0.965901,14.780192,22.958600,0.078812,-0.046166,0.000000,-0.216500,0.245510,0.000000
2.530000,-0.364547,-0.920647,-1.027738,2.312521,0.009399,0.307198,0.529030,0.930723,-2.286223,-2.884878,-2.311440,-2.052721,-1.113561,15.647230,23.101083,0.076719,-0.043707,0.000000,-0.201932,0.244724,0.000000
2.540000,-0.341396,-0.920507,-1.024780,2.317667,0.018593,0.284237,0.500132,0.908401,-2.305598,-2.893332,-2.152034,-1.822576,-0.404235,16.166142,22.849389,0.074774,-0.041257,0.000000,-0.186938,0.243920,-0.000000
2.550000,-0.318194,-0.920276,-1.022054,2.322523,0.027573,0.261094,0.471190,0.887697,-2.322685,-2.894543,-1.987838,-1.595117,-0.018053,16.719573,22.717667,0.072981,-0.038817,0.000000,-0.171721,0.242665,0.000000
2.560000,-0.294946,-0.919956,-1.019559,2.327091,0.036353,0.237791,0.442248,0.868665,-2.337499,-2.893404,-1.817752,-1.367822,0.344168,17.213152,22.590070,0.071341,-0.036390,0.000000,-0.156161,0.241352,-0.000000
2.570000,-0.271654,-0.919549,-1.017298,2.331369,0.044952,0.214351,0.413342,0.851352,-2.350058,-2.886800,-1.644471,-1.144717,0.873243,17.503482,22.175762,0.069858,-0.033979,0.000000,-0.140485,0.239736,0.000000
2.580000,-0.248320,-0.919057,-1.015272,2.335358,0.053386,0.190797,0.384518,0.835792,-2.360391,-2.878104,-1.466406,-0.921260,0.858688,18.100395,22.519617,0.068532,-0.031584,0.000000,-0.124521,0.238077,0.000000
2.590000,-0.224947,-0.918482,-1.013483,2.339059,0.061673,0.167151,0.355785,0.822038,-2.368480,-2.867703,-1.284136,-0.697281,1.317688,18.269961,22.128774,0.067368,-0.029206,0.000000,-0.108301,0.236406,0.000000
2.600000,-0.201539,-0.917824,-1.011930,2.342474,0.069833,0.143435,0.327181,0.810112,-2.374353,-2.852686,-1.100627,-0.477440,1.581642,18.491901,21.986305,0.066366,-0.026846,0.000000,-0.092077,0.234492,0.000000
2.610000,-0.178099,-0.917086,-1.010614,2.345603,0.077882,0.119671,0.298737,0.800038,-2.378026,-2.835791,-0.913846,-0.257301,1.823331,18.658987,21.855561,0.065528,-0.024506,0.000000,-0.075641,0.232547,0.000000
2.620000,-0.154628,-0.916267,-1.009536,2.348449,0.085840,0.095882,0.270475,0.791824,-2.379519,-2.816028,-0.729471,-0.042037,2.095827,18.390922,21.378108,0.064852,-0.022186,0.000000,-0.059470,0.230498,-0.000000
2.630000,-0.131131,-0.915369,-1.008696,2.351014,0.093724,0.072088,0.242421,0.785459,-2.378863,-2.794573,-0.542344,0.174061,2.189987,19.027502,21.847391,0.064339,-0.019886,0.000000,-0.043094,0.228424,-0.000000
2.640000,-0.107609,-0.914393,-1.008094,2.353298,0.101555,0.048312,0.214588,0.780986,-2.376032,-2.771723,-0.352977,0.391267,2.405159,18.643326,21.412035,0.063991,-0.017608,0.000000,-0.026539,0.226351,-0.000000
2.650000,-0.084066,-0.913338,-1.007730,2.355306,0.109350,0.024575,0.186994,0.778381,-2.371056,-2.746806,-0.168140,0.603861,2.544548,18.498977,21.289185,0.063807,-0.015350,0.000000,-0.010372,0.224227,0.000000
2.660000,-0.060504,-0.912206,-1.007603,2.357039,0.117129,0.000898,0.159654,0.777615,-2.363950,-2.721144,0.014416,0.817297,2.652351,18.232999,21.182015,0.063783,-0.013114,0.000000,0.005635,0.222151,-0.000000
2.670000,-0.036926,-0.910996,-1.007712,2.358500,0.124909,-0.022697,0.132580,0.778678,-2.354731,-2.693212,0.198397,1.025513,2.863075,18.320972,20.672443,0.063920,-0.010898,0.000000,0.021769,0.220000,0.000000
2.680000,-0.013335,-0.909708,-1.008056,2.359692,0.132709,-0.046190,0.105789,0.781560,-2.343433,-2.665368,0.375762,1.235180,2.699383,17.130295,21.267927,0.064217,-0.008704,0.000000,0.037420,0.217959,-0.000000
2.690000,0.010267,-0.908341,-1.008635,2.360617,0.140546,-0.069559,0.079271,0.786166,-2.330020,-2.637959,0.545321,1.446617,2.845682,16.996857,20.807302,0.064667,-0.006530,0.000000,0.052506,0.216055,-0.000000
2.700000,0.033877,-0.906897,-1.009447,2.361278,0.148438,-0.092783,0.053036,0.792465,-2.314521,-2.609110,0.713446,1.653140,2.852848,16.384204,20.709404,0.065267,-0.004374,0.000000,0.067527,0.214135,0.000000
2.710000,0.057492,-0.905372,-1.010490,2.361678,0.156400,-0.115843,0.027064,0.800342,-2.296950,-2.585906,0.858967,1.860984,2.735359,15.400547,20.624899,0.066010,-0.002235,0.000000,0.080788,0.212779,0.000000
2.720000,0.081109,-0.903768,-1.011763,2.361820,0.164450,-0.138716,0.001391,0.809829,-2.277323,-2.545721,1.045984,2.063480,4.375953,19.376196,20.101536,0.066898,-0.000115,0.000000,0.097537,0.210120,-0.000000
2.730000,0.104727,-0.902083,-1.013264,2.361708,0.172603,-0.161382,-0.023898,0.821104,-2.255673,-2.517811,1.191371,2.267786,1.175084,9.609227,20.766374,0.067948,0.001981,0.000000,0.110989,0.208565,-0.000000
2.740000,0.128343,-0.900316,-1.014990,2.361343,0.180875,-0.183822,-0.049019,0.833483,-2.231959,-2.503587,1.290878,2.474191,2.600076,12.923536,20.284210,0.069104,0.004071,0.000000,0.120781,0.208240,0.000000
2.750000,0.151953,-0.898465,-1.016940,2.360728,0.189277,-0.206015,-0.073902,0.847091,-2.206211,-2.473736,1.427292,2.675404,2.441338,11.722388,20.186103,0.070378,0.006150,0.000000,0.133719,0.206715,-0.000000
2.760000,0.175556,-0.896530,-1.019110,2.359866,0.197821,-0.227940,-0.098522,0.861859,-2.178440,-2.450604,1.522537,2.878783,2.327872,10.333358,20.107596,0.071765,0.008218,0.000000,0.143396,0.205842,-0.000000
2.770000,0.199150,-0.894508,-1.021497,2.358758,0.206518,-0.249577,-0.122906,0.877739,-2.148669,-2.425845,1.661646,3.074019,2.487920,14.571872,19.306632,0.073263,0.010277,0.000000,0.156808,0.204921,-0.000000
2.780000,0.222731,-0.892399,-1.024100,2.357408,0.215380,-0.270907,-0.147049,0.894910,-2.116946,-2.403695,1.752777,3.272619,1.940539,3.570208,20.422143,0.074887,0.012328,0.000000,0.166409,0.204312,-0.000000
2.790000,0.246297,-0.890200,-1.026914,2.355818,0.224417,-0.291909,-0.170989,0.912600,-2.083201,-2.384179,1.792300,3.474932,2.105712,7.293732,19.664459,0.076575,0.014376,0.000000,0.171864,0.204024,0.000000
2.800000,0.269846,-0.887910,-1.029937,2.353989,0.233634,-0.312564,-0.194723,0.930948,-2.047481,-2.362677,1.873917,3.669000,2.060775,6.108719,19.516510,0.078340,0.016420,0.000000,0.180927,0.203656,0.000000
2.810000,0.293376,-0.885527,-1.033165,2.351924,0.243039,-0.332852,-0.218170,0.950214,-2.009830,-2.324521,1.984547,3.860623,2.404615,6.298669,19.267683,0.080205,0.018456,0.000000,0.192580,0.201971,0.000000
2.820000,0.316884,-0.883048,-1.036593,2.349626,0.252640,-0.352754,-0.241459,0.969856,-1.970240,-2.343673,1.910658,4.058529,-3.155734,-11.612960,19.858407,0.082127,0.020494,0.000000,0.188889,0.205231,0.000000
