time,x,y,z,vx,vy,vz,ax,ay,az,jx,jy,jz,sx,sy,sz,roll,pitch,yaw,p,q,r
0.000000,-2.988347,0.294028,-1.496351,0.013905,-0.015891,-0.001154,0.133155,1.538375,-0.055981,-8.562177,-43.216022,3.296586,310.864755,902.220490,-85.824369,0.154668,-0.013496,0.000000,-4.223331,0.852878,-0.000000
0.010000,-2.988202,0.293939,-1.496364,0.014858,-0.002523,-0.001563,0.062233,1.149036,-0.027081,-5.704353,-34.874953,2.505373,261.563934,768.308058,-72.649247,0.116277,-0.006326,0.000000,-3.467697,0.574344,0.000000
0.020000,-2.988051,0.293966,-1.496381,0.015237,0.007346,-0.001720,0.017510,0.836641,-0.005457,-3.314056,-27.804723,1.839102,217.315893,647.936919,-60.823990,0.085031,-0.001784,0.000000,-2.796405,0.336082,0.000000
0.030000,-2.987899,0.294077,-1.496398,0.015281,0.014426,-0.001692,-0.005442,0.589146,0.010074,-1.342064,-21.873392,1.284628,177.859294,540.412505,-50.278223,0.060045,0.000555,0.000000,-2.216110,0.136772,0.000000
0.040000,-2.987746,0.294247,-1.496414,0.015188,0.019309,-0.001535,-0.010570,0.395794,0.020567,0.258230,-16.955966,0.829507,142.932649,445.040254,-40.941567,0.040409,0.001080,0.000000,-1.725819,-0.026265,0.000000
0.050000,-2.987595,0.294457,-1.496429,0.015117,0.022490,-0.001294,-0.001369,0.247042,0.026956,1.530827,-12.934395,0.462000,112.275682,361.125567,-32.743715,0.025247,0.000140,0.000000,-1.320089,-0.156421,0.000000
0.060000,-2.987443,0.294693,-1.496440,0.015198,0.024371,-0.001007,0.019092,0.134491,0.030062,2.517105,-9.697578,0.171071,85.625969,287.973909,-25.614217,0.013751,-0.001952,0.000000,-0.991156,-0.257383,-0.000000
0.070000,-2.987290,0.294942,-1.496449,0.015528,0.025276,-0.000702,0.048148,0.050822,0.030598,3.255835,-7.141356,-0.053611,62.722637,224.890700,-19.482736,0.005197,-0.004923,0.000000,-0.730253,-0.332888,-0.000000
0.080000,-2.987132,0.295196,-1.496454,0.016182,0.025462,-0.000401,0.083505,-0.010280,0.029178,3.783174,-5.168518,-0.221676,43.304411,171.181369,-14.278920,-0.001051,-0.008537,0.000000,-0.528387,-0.386573,-0.000000
0.090000,-2.986965,0.295449,-1.496457,0.017212,0.025128,-0.000123,0.123219,-0.054191,0.026324,4.132669,-3.688797,-0.342047,27.110024,126.151348,-9.932440,-0.005538,-0.012594,0.000000,-0.376771,-0.421891,-0.000000
0.100000,-2.986786,0.295697,-1.496457,0.018655,0.024421,0.000122,0.165669,-0.085421,0.022469,4.335248,-2.618875,-0.422945,13.878051,89.106071,-6.372647,-0.008726,-0.016925,0.000000,-0.267072,-0.442061,-0.000000
0.110000,-2.986591,0.295937,-1.496454,0.020530,0.023449,0.000324,0.209529,-0.107679,0.017971,4.419233,-1.882375,-0.471888,3.347399,59.350965,-3.529506,-0.010994,-0.021395,0.000000,-0.191533,-0.450045,-0.000000
0.120000,-2.986374,0.296165,-1.496450,0.022847,0.022287,0.000480,0.253744,-0.123948,0.013115,4.410330,-1.409870,-0.495689,-4.743266,36.191463,-1.332520,-0.012647,-0.025895,0.000000,-0.143052,-0.448529,0.000000
0.130000,-2.986132,0.296382,-1.496445,0.025604,0.020982,0.000586,0.297503,-0.136548,0.008121,4.331631,-1.138876,-0.500457,-10.655131,18.932998,0.288692,-0.013923,-0.030342,0.000000,-0.115217,-0.439921,0.000000
0.140000,-2.985861,0.296585,-1.496439,0.028793,0.019562,0.000642,0.340212,-0.147211,0.003151,4.203620,-1.013855,-0.491600,-14.649217,6.881001,1.404512,-0.015001,-0.034677,0.000000,-0.102323,-0.426341,0.000000
0.150000,-2.985555,0.296773,-1.496432,0.032403,0.018040,0.000650,0.381471,-0.157149,-0.001682,4.044170,-0.986216,-0.473817,-16.986258,-0.659092,2.085319,-0.016003,-0.038860,0.000000,-0.099385,-0.409630,0.000000
0.160000,-2.985211,0.296945,-1.496426,0.036417,0.016419,0.000610,0.421042,-0.167120,-0.006309,3.868498,-1.014313,-0.451112,-17.931989,-4.381889,2.401219,-0.017007,-0.042866,0.000000,-0.102138,-0.391341,0.000000
0.170000,-2.984825,0.297101,-1.496420,0.040818,0.014697,0.000524,0.458829,-0.177504,-0.010698,3.689292,-1.063445,-0.426776,-17.742065,-4.981906,2.422954,-0.018053,-0.046687,0.000000,-0.107034,-0.372760,0.000000
0.180000,-2.984394,0.297239,-1.496416,0.045588,0.012868,0.000396,0.494849,-0.188366,-0.014848,3.516564,-1.105857,-0.403400,-16.679876,-3.153737,2.220721,-0.019146,-0.050325,0.000000,-0.111245,-0.354892,-0.000000
0.190000,-2.983912,0.297358,-1.496413,0.050709,0.010928,0.000228,0.529207,-0.199529,-0.018776,3.357730,-1.120741,-0.382873,-15.006750,0.408042,1.864842,-0.020268,-0.053791,0.000000,-0.112656,-0.338474,-0.000000
0.200000,-2.983378,0.297457,-1.496411,0.056167,0.008877,0.000021,0.562067,-0.210642,-0.022519,3.217596,-1.094233,-0.366377,-12.983755,5.008905,1.426068,-0.021385,-0.057102,0.000000,-0.109862,-0.323977,-0.000000
0.210000,-2.982788,0.297535,-1.496412,0.061944,0.006709,-0.000221,0.592520,-0.224138,-0.025795,2.844773,-1.679435,-0.280467,-15.885005,-3.092727,2.435634,-0.022743,-0.060168,0.000000,-0.169309,-0.286395,0.000000
0.220000,-2.982138,0.297591,-1.496416,0.068015,0.004400,-0.000494,0.622579,-0.234835,-0.029177,3.320310,-0.061485,-0.440205,66.668427,211.330113,-21.460563,-0.023815,-0.063191,0.000000,-0.004666,-0.333198,-0.000000
0.230000,-2.981427,0.297623,-1.496422,0.074412,0.002069,-0.000810,0.656771,-0.230991,-0.033965,3.247408,0.124903,-0.438334,-82.639384,-177.658769,22.239929,-0.023409,-0.066619,0.000000,0.014203,-0.325379,0.000000
0.240000,-2.980649,0.297632,-1.496432,0.081128,-0.000266,-0.001168,0.685142,-0.238554,-0.037242,2.564136,-1.280683,-0.256814,-9.271609,13.011887,1.018511,-0.024162,-0.069465,0.000000,-0.128603,-0.257256,-0.000000
0.250000,-2.979803,0.297617,-1.496446,0.088109,-0.002703,-0.001554,0.711504,-0.247633,-0.040102,2.681820,-0.604168,-0.307167,-11.808568,6.170177,1.915775,-0.025070,-0.072108,0.000000,-0.059871,-0.268525,-0.000000
0.260000,-2.978886,0.297578,-1.496463,0.095356,-0.005210,-0.001970,0.737636,-0.253628,-0.043078,2.542104,-0.601773,-0.287890,-11.977382,5.495226,1.969914,-0.025664,-0.074724,0.000000,-0.059626,-0.254304,-0.000000
0.270000,-2.977895,0.297513,-1.496485,0.102858,-0.007773,-0.002415,0.762678,-0.258782,-0.045856,2.480501,-0.391349,-0.267515,-4.379566,25.738193,2.071267,-0.026172,-0.077229,0.000000,-0.038349,-0.248007,-0.000000
0.280000,-2.976828,0.297422,-1.496512,0.110608,-0.010378,-0.002886,0.787052,-0.261982,-0.048428,2.369767,-0.314875,-0.247174,-17.894671,-10.784470,1.993768,-0.026484,-0.079666,0.000000,-0.030652,-0.236785,0.000000
0.290000,-2.975682,0.297305,-1.496543,0.118594,-0.013015,-0.003383,0.809859,-0.265662,-0.050800,2.204212,-0.387551,-0.227047,-11.143666,7.202299,2.061213,-0.026844,-0.081945,0.000000,-0.038039,-0.220077,-0.000000
0.300000,-2.974455,0.297162,-1.496579,0.126801,-0.015689,-0.003902,0.831453,-0.268887,-0.052967,2.112294,-0.263914,-0.206266,-11.300657,6.601496,2.060760,-0.027159,-0.084102,0.000000,-0.025593,-0.210825,-0.000000
0.310000,-2.973145,0.296991,-1.496621,0.135220,-0.018390,-0.004441,0.852021,-0.271223,-0.054928,2.001748,-0.203842,-0.186088,-11.156198,6.560202,2.041914,-0.027385,-0.086155,0.000000,-0.019583,-0.199721,0.000000
0.320000,-2.971750,0.296794,-1.496668,0.143838,-0.021112,-0.005000,0.871464,-0.272872,-0.056683,1.885995,-0.122170,-0.164816,-11.655997,8.658290,2.141678,-0.027542,-0.088095,0.000000,-0.011407,-0.188133,-0.000000
0.330000,-2.970268,0.296569,-1.496721,0.152645,-0.023845,-0.005574,0.889762,-0.273720,-0.058229,1.775735,-0.054107,-0.144740,-10.384114,4.917938,1.869220,-0.027618,-0.089921,0.000000,-0.004611,-0.177114,0.000000
0.340000,-2.968697,0.296317,-1.496780,0.161630,-0.026584,-0.006164,0.907002,-0.274014,-0.059584,1.671515,-0.001291,-0.126084,-10.798979,6.769207,1.929393,-0.027640,-0.091641,0.000000,0.000646,-0.166714,0.000000
0.350000,-2.967035,0.296037,-1.496844,0.170781,-0.029323,-0.006765,0.923171,-0.273659,-0.060747,1.562671,0.071696,-0.106780,-10.628274,6.705367,1.859998,-0.027597,-0.093255,0.000000,0.007927,-0.155878,-0.000000
0.360000,-2.965281,0.295730,-1.496915,0.180090,-0.032055,-0.007378,0.938278,-0.272612,-0.061725,1.459229,0.137402,-0.088908,-10.429046,6.680043,1.776328,-0.027485,-0.094762,0.000000,0.014473,-0.145592,-0.000000
0.370000,-2.963433,0.295396,-1.496992,0.189543,-0.034773,-0.007999,0.952332,-0.270892,-0.062523,1.350711,0.207539,-0.070705,-10.913904,7.108972,1.800737,-0.027305,-0.096165,0.000000,0.021460,-0.134819,-0.000000
0.380000,-2.961489,0.295035,-1.497075,0.199133,-0.037471,-0.008628,0.965315,-0.268474,-0.063145,1.248518,0.274577,-0.054224,-9.512288,6.290795,1.491789,-0.027057,-0.097462,0.000000,0.028137,-0.124681,-0.000000
0.390000,-2.959450,0.294647,-1.497165,0.208847,-0.040141,-0.009262,0.977328,-0.265414,-0.063614,1.153216,0.338165,-0.039651,-9.910075,6.667105,1.483580,-0.026744,-0.098662,0.000000,0.034471,-0.115230,0.000000
0.400000,-2.957312,0.294232,-1.497260,0.218676,-0.042777,-0.009900,0.988359,-0.261692,-0.063937,1.053435,0.405882,-0.025109,-9.686193,6.637106,1.361044,-0.026365,-0.099765,0.000000,0.041219,-0.105341,0.000000
0.410000,-2.955076,0.293792,-1.497363,0.228610,-0.045372,-0.010540,0.998405,-0.257292,-0.064123,0.955860,0.474544,-0.012283,-9.516876,6.671760,1.231240,-0.025919,-0.100771,0.000000,0.048066,-0.095668,0.000000
0.420000,-2.952740,0.293325,-1.497471,0.238641,-0.047920,-0.011182,1.007507,-0.252235,-0.064185,0.865972,0.535425,-0.000248,-8.761963,5.916244,1.147217,-0.025407,-0.101683,0.000000,0.054135,-0.086766,0.000000
0.430000,-2.950303,0.292833,-1.497586,0.248758,-0.050415,-0.011823,1.015716,-0.246563,-0.064134,0.774296,0.601517,0.010063,-9.582008,7.315350,0.913149,-0.024834,-0.102506,0.000000,0.060734,-0.077675,0.000000
0.440000,-2.947764,0.292317,-1.497708,0.258952,-0.052849,-0.012464,1.022983,-0.240182,-0.063990,0.680456,0.673415,0.018553,-8.880334,6.649191,0.811530,-0.024190,-0.103236,0.000000,0.067924,-0.068355,-0.000000
0.450000,-2.945123,0.291777,-1.497836,0.269214,-0.055216,-0.013103,1.029355,-0.233126,-0.063765,0.594110,0.738032,0.026050,-8.690836,6.688578,0.658902,-0.023479,-0.103876,0.000000,0.074387,-0.059779,0.000000
0.460000,-2.942380,0.291213,-1.497970,0.279536,-0.057509,-0.013739,1.034871,-0.225410,-0.063475,0.509505,0.805127,0.031782,-8.451222,6.704918,0.502381,-0.022702,-0.104432,0.000000,0.081108,-0.051363,-0.000000
0.470000,-2.939532,0.290627,-1.498110,0.289909,-0.059722,-0.014372,1.039535,-0.217025,-0.063134,0.423062,0.871894,0.036232,-8.621119,6.673155,0.372202,-0.021857,-0.104903,0.000000,0.087801,-0.042752,-0.000000
0.480000,-2.936581,0.290019,-1.498257,0.300324,-0.061848,-0.015002,1.043350,-0.207971,-0.062756,0.341622,0.939110,0.038904,-7.659380,6.770562,0.161499,-0.020945,-0.105289,0.000000,0.094547,-0.034625,-0.000000
0.490000,-2.933526,0.289390,-1.498410,0.310773,-0.063879,-0.015627,1.046387,-0.198241,-0.062362,0.265531,1.006798,0.039764,-7.775680,6.741646,0.025660,-0.019966,-0.105597,0.000000,0.101350,-0.027014,-0.000000
0.500000,-2.930366,0.288741,-1.498570,0.321249,-0.065810,-0.016249,1.048652,-0.187836,-0.061965,0.187976,1.074148,0.039289,-7.518935,6.753118,-0.135719,-0.018919,-0.105828,0.000000,0.108124,-0.019244,0.000000
0.510000,-2.927101,0.288074,-1.498735,0.331744,-0.067634,-0.016867,1.050159,-0.176758,-0.061582,0.113781,1.141582,0.037111,-7.278127,6.757572,-0.295460,-0.017803,-0.105983,0.000000,0.114913,-0.011791,0.000000
0.520000,-2.923731,0.287389,-1.498907,0.342250,-0.069343,-0.017481,1.050939,-0.165003,-0.061228,0.042803,1.209513,0.033424,-6.957357,6.804261,-0.445448,-0.016620,-0.106065,0.000000,0.121759,-0.004643,-0.000000
0.530000,-2.920256,0.286688,-1.499085,0.352760,-0.070932,-0.018091,1.051021,-0.152569,-0.060919,-0.026207,1.277159,0.028129,-6.845536,6.723515,-0.613058,-0.015368,-0.106077,0.000000,0.128581,0.002325,-0.000000
0.540000,-2.916676,0.285971,-1.499269,0.363268,-0.072392,-0.018699,1.050421,-0.139461,-0.060671,-0.093288,1.344447,0.021256,-6.529782,6.757150,-0.756761,-0.014049,-0.106019,0.000000,0.135371,0.009118,0.000000
0.550000,-2.912990,0.285240,-1.499459,0.373767,-0.073719,-0.019305,1.049167,-0.125678,-0.060498,-0.157144,1.412084,0.012979,-6.282070,6.745553,-0.901981,-0.012661,-0.105896,0.000000,0.142199,0.015603,-0.000000
0.560000,-2.909200,0.284497,-1.499655,0.384249,-0.074904,-0.019909,1.047283,-0.111223,-0.060416,-0.219409,1.478814,0.003296,-6.045000,6.717227,-1.040284,-0.011205,-0.105708,0.000000,0.148938,0.021945,-0.000000
0.570000,-2.905306,0.283743,-1.499857,0.394710,-0.075941,-0.020514,1.044797,-0.096093,-0.060437,-0.276884,1.547491,-0.007864,-5.571921,6.903294,-1.184062,-0.009681,-0.105458,0.000000,0.155874,0.027823,-0.000000
0.580000,-2.901306,0.282979,-1.500065,0.405143,-0.076823,-0.021119,1.041747,-0.080280,-0.060577,-0.333408,1.614469,-0.020223,-5.736580,6.487836,-1.286049,-0.008088,-0.105151,0.000000,0.162638,0.033619,0.000000
0.590000,-2.897203,0.282207,-1.500279,0.415543,-0.077544,-0.021726,1.038131,-0.063811,-0.060846,-0.389142,1.679537,-0.033687,-5.286524,6.640009,-1.411656,-0.006429,-0.104786,0.000000,0.169206,0.039346,-0.000000
0.600000,-2.892996,0.281428,-1.500500,0.425904,-0.078097,-0.022336,1.033982,-0.046681,-0.061255,-0.440180,1.746275,-0.048368,-5.043668,6.592085,-1.516390,-0.004703,-0.104366,0.000000,0.175940,0.044615,0.000000
0.610000,-2.888685,0.280645,-1.500726,0.436221,-0.078476,-0.022951,1.029335,-0.028887,-0.061815,-0.488742,1.812546,-0.063858,-4.780317,6.558003,-1.607712,-0.002910,-0.103895,0.000000,0.182620,0.049643,0.000000
0.620000,-2.884271,0.279860,-1.500959,0.446489,-0.078673,-0.023573,1.024207,-0.010440,-0.062537,-0.536836,1.876468,-0.080744,-4.727707,6.325737,-1.740177,-0.001052,-0.103373,0.000000,0.189057,0.054637,0.000000
0.630000,-2.879755,0.279073,-1.501198,0.456704,-0.078682,-0.024202,1.018612,0.008645,-0.063431,-0.580972,1.941146,-0.098045,-4.095811,6.612092,-1.717053,0.000871,-0.102803,0.000000,0.195562,0.059236,0.000000
0.640000,-2.875137,0.278287,-1.501443,0.466860,-0.078498,-0.024842,1.012602,0.028386,-0.064499,-0.620987,2.006663,-0.115595,-4.018758,6.389098,-1.818259,0.002860,-0.102190,0.000000,0.202140,0.063421,0.000000
0.650000,-2.870418,0.277503,-1.501694,0.476955,-0.078112,-0.025493,1.006193,0.048769,-0.065747,-0.660392,2.069767,-0.134131,-3.751646,6.331263,-1.858805,0.004913,-0.101535,0.000000,0.208463,0.067552,0.000000
0.660000,-2.865599,0.276725,-1.501953,0.486983,-0.077520,-0.026158,0.999405,0.069781,-0.067181,-0.696681,2.132580,-0.152666,-3.493481,6.257140,-1.882271,0.007029,-0.100840,0.000000,0.214744,0.071366,0.000000
0.670000,-2.860679,0.275954,-1.502218,0.496941,-0.076715,-0.026837,0.992269,0.091420,-0.068804,-0.730145,2.195133,-0.172061,-3.211837,6.226094,-1.958712,0.009208,-0.100108,0.000000,0.220984,0.074901,0.000000
0.680000,-2.855660,0.275191,-1.502490,0.506827,-0.075690,-0.027534,0.984810,0.113680,-0.070621,-0.761182,2.256529,-0.191043,-2.996137,6.050991,-1.833726,0.011448,-0.099343,0.000000,0.227091,0.078183,-0.000000
0.690000,-2.850543,0.274441,-1.502768,0.516637,-0.074439,-0.028250,0.977053,0.136546,-0.072622,-0.789820,2.316655,-0.209398,-2.719136,5.999224,-1.870269,0.013749,-0.098546,0.000000,0.233055,0.081213,-0.000000
0.700000,-2.845327,0.273703,-1.503055,0.526367,-0.072957,-0.028987,0.969023,0.160012,-0.074810,-0.815671,2.376262,-0.228087,-2.464463,5.894644,-1.829026,0.016109,-0.097719,0.000000,0.238947,0.083962,-0.000000
0.710000,-2.840015,0.272982,-1.503348,0.536016,-0.071237,-0.029747,0.960747,0.184067,-0.077181,-0.839125,2.434546,-0.245843,-2.212488,5.781142,-1.767027,0.018527,-0.096867,0.000000,0.244689,0.086455,-0.000000
0.720000,-2.834607,0.272279,-1.503650,0.545581,-0.069274,-0.030532,0.952250,0.208700,-0.079729,-0.859798,2.492044,-0.263809,-1.936167,5.697284,-1.776705,0.021002,-0.095991,0.000000,0.250332,0.088665,-0.000000
0.730000,-2.829104,0.271598,-1.503959,0.555061,-0.067061,-0.031342,0.943559,0.233902,-0.082452,-0.878142,2.548046,-0.280337,-1.733463,5.500955,-1.524259,0.023533,-0.095094,0.000000,0.255806,0.090622,-0.000000
0.740000,-2.823506,0.270939,-1.504277,0.564452,-0.064594,-0.032181,0.934695,0.259656,-0.085329,-0.894199,2.602435,-0.295175,-1.464622,5.395294,-1.487124,0.026118,-0.094179,0.000000,0.261101,0.092328,-0.000000
0.750000,-2.817815,0.270307,-1.504603,0.573754,-0.061866,-0.033049,0.925684,0.285948,-0.088355,-0.907560,2.655752,-0.309613,-1.221784,5.246614,-1.350824,0.028755,-0.093248,0.000000,0.266269,0.093754,0.000000
0.760000,-2.812032,0.269703,-1.504938,0.582965,-0.058873,-0.033949,0.916551,0.312765,-0.091514,-0.918637,2.707413,-0.322042,-0.982288,5.089324,-1.191629,0.031443,-0.092304,0.000000,0.271255,0.094927,-0.000000
0.770000,-2.806156,0.269130,-1.505282,0.592085,-0.055609,-0.034880,0.907320,0.340091,-0.094795,-0.927107,2.757556,-0.333932,-0.723688,4.932474,-1.124982,0.034180,-0.091349,0.000000,0.276070,0.095830,-0.000000
0.780000,-2.800190,0.268591,-1.505635,0.601112,-0.052070,-0.035845,0.898017,0.367910,-0.098184,-0.933364,2.805923,-0.343255,-0.528676,4.739228,-0.734542,0.036964,-0.090387,0.000000,0.280695,0.096482,-0.000000
0.790000,-2.794134,0.268090,-1.505999,0.610045,-0.048249,-0.036844,0.888660,0.396203,-0.101650,-0.937459,2.852411,-0.349734,-0.279352,4.561991,-0.616676,0.039793,-0.089419,0.000000,0.285123,0.096889,-0.000000
0.800000,-2.787990,0.267627,-1.506372,0.618885,-0.044144,-0.037878,0.879276,0.424952,-0.105176,-0.939053,2.897086,-0.355025,-0.052694,4.366054,-0.379671,0.042665,-0.088448,0.000000,0.289357,0.097032,-0.000000
0.810000,-2.781757,0.267208,-1.506756,0.627630,-0.039749,-0.038948,0.869886,0.454138,-0.108739,-0.938581,2.939779,-0.357180,0.168183,4.161449,-0.118993,0.045579,-0.087477,0.000000,0.293388,0.096938,0.000000
0.820000,-2.775437,0.266833,-1.507151,0.636282,-0.035060,-0.040053,0.860513,0.483740,-0.112316,-0.935503,2.980193,-0.357992,0.425758,3.928911,0.028472,0.048532,-0.086509,0.000000,0.297183,0.096571,0.000000
0.830000,-2.769032,0.266507,-1.507558,0.644841,-0.030073,-0.041194,0.851182,0.513735,-0.115886,-0.930520,3.018515,-0.355103,0.569427,3.733933,0.554592,0.051522,-0.085544,0.000000,0.300774,0.095980,0.000000
0.840000,-2.762541,0.266233,-1.507975,0.653306,-0.024784,-0.042370,0.841909,0.544103,-0.119404,-0.923702,3.054651,-0.348229,0.814744,3.482196,0.753867,0.054547,-0.084587,0.000000,0.304157,0.095174,0.000000
0.850000,-2.755966,0.266013,-1.508405,0.661679,-0.019189,-0.043582,0.832717,0.574820,-0.122845,-0.914419,3.088201,-0.339375,1.019988,3.235305,1.089149,0.057604,-0.083639,0.000000,0.307285,0.094106,0.000000
0.860000,-2.749308,0.265850,-1.508847,0.669961,-0.013286,-0.044827,0.823626,0.605860,-0.126177,-0.903355,3.119518,-0.326316,1.219864,2.981649,1.446573,0.060692,-0.082703,0.000000,0.310210,0.092828,0.000000
0.870000,-2.742567,0.265748,-1.509302,0.678152,-0.007071,-0.046105,0.814658,0.637198,-0.129366,-0.889772,3.147385,-0.311112,1.468432,2.633059,1.673490,0.063807,-0.081780,0.000000,0.312802,0.091285,-0.000000
0.880000,-2.735745,0.265710,-1.509769,0.686255,-0.000542,-0.047414,0.805836,0.668801,-0.132383,-0.874576,3.173049,-0.291183,1.569410,2.499112,2.317537,0.066948,-0.080874,0.000000,0.315208,0.089547,-0.000000
0.890000,-2.728842,0.265738,-1.510250,0.694269,0.006306,-0.048752,0.797172,0.700652,-0.135172,-0.857842,3.196450,-0.266259,1.804411,2.135244,2.592318,0.070111,-0.079986,0.000000,0.317428,0.087623,0.000000
0.900000,-2.721860,0.265837,-1.510745,0.702199,0.013472,-0.050116,0.788688,0.732717,-0.137700,-0.838730,3.216082,-0.238628,1.989211,1.832678,3.013222,0.073295,-0.079118,0.000000,0.319304,0.085447,0.000000
0.910000,-2.714799,0.266009,-1.511253,0.710044,0.020960,-0.051505,0.780401,0.764962,-0.139927,-0.818335,3.232497,-0.205842,2.163731,1.507560,3.453380,0.076496,-0.078273,0.000000,0.320912,0.083111,-0.000000
0.920000,-2.707659,0.266257,-1.511775,0.717807,0.028772,-0.052914,0.772333,0.797360,-0.141810,-0.794779,3.246736,-0.170372,2.474669,1.280272,3.732821,0.079713,-0.077452,0.000000,0.322344,0.080449,0.000000
0.930000,-2.700443,0.266585,-1.512311,0.725491,0.036908,-0.054340,0.764508,0.829883,-0.143315,-0.770371,3.256845,-0.129256,2.404161,0.737350,4.495033,0.082942,-0.076659,0.000000,0.323434,0.077668,-0.000000
0.940000,-2.693150,0.266997,-1.512862,0.733098,0.045370,-0.055778,0.756927,0.862482,-0.144375,-0.745238,3.262606,-0.082259,2.695396,0.470823,4.815151,0.086180,-0.075894,0.000000,0.324172,0.074781,0.000000
0.950000,-2.685781,0.267494,-1.513427,0.740631,0.054158,-0.057226,0.749614,0.895127,-0.144951,-0.717093,3.265720,-0.032153,2.860678,0.091597,5.298359,0.089425,-0.075159,0.000000,0.324709,0.071582,0.000000
0.960000,-2.678337,0.268081,-1.514006,0.748092,0.063272,-0.058676,0.742593,0.927779,-0.144997,-0.686769,3.264004,0.023744,3.046865,-0.311584,5.793396,0.092673,-0.074457,0.000000,0.324858,0.068135,0.000000
0.970000,-2.670819,0.268760,-1.514600,0.755484,0.072713,-0.060124,0.735872,0.960404,-0.144467,-0.657606,3.260597,0.082920,2.938009,-0.493804,6.128695,0.095922,-0.073790,0.000000,0.324916,0.064791,-0.000000
0.980000,-2.663228,0.269536,-1.515208,0.762810,0.082480,-0.061563,0.729454,0.992972,-0.143318,-0.624815,3.251531,0.148139,3.624678,-1.325299,6.918510,0.099170,-0.073157,0.000000,0.324520,0.061053,-0.000000
0.990000,-2.655563,0.270411,-1.515831,0.770074,0.092572,-0.062988,0.723390,1.025414,-0.141483,-0.588202,3.236510,0.219558,3.543726,-1.558069,7.278674,0.102411,-0.072564,0.000000,0.323649,0.056901,0.000000
1.000000,-2.647827,0.271389,-1.516468,0.777279,0.102988,-0.064390,0.717684,1.057697,-0.138917,-0.552642,3.219287,0.294453,3.721241,-2.010914,7.787035,0.105642,-0.072012,0.000000,0.322660,0.052840,0.000000
1.010000,-2.640018,0.272472,-1.517119,0.784429,0.113726,-0.065763,0.712353,1.089776,-0.135573,-0.513079,3.195701,0.375234,3.916291,-2.491019,8.296918,0.108862,-0.071503,0.000000,0.321166,0.048349,0.000000
1.020000,-2.632138,0.273664,-1.517783,0.791527,0.124783,-0.067099,0.707406,1.121612,-0.131401,-0.476855,3.171431,0.459720,3.593862,-2.575020,8.669437,0.112066,-0.071038,0.000000,0.319719,0.044172,-0.000000
1.030000,-2.624188,0.274969,-1.518461,0.798578,0.136157,-0.068388,0.702834,1.153179,-0.126358,-0.435632,3.139752,0.550071,4.657801,-3.768558,9.401779,0.115254,-0.070616,0.000000,0.317675,0.039464,-0.000000
1.040000,-2.616167,0.276388,-1.519151,0.805586,0.147845,-0.069623,0.698714,1.184380,-0.120380,-0.389111,3.100298,0.646321,4.376181,-3.910554,9.776481,0.118418,-0.070245,0.000000,0.315006,0.034193,0.000000
1.050000,-2.608076,0.277927,-1.519853,0.812554,0.159843,-0.070793,0.695037,1.215184,-0.113421,-0.345854,3.059720,0.746171,4.540890,-4.417681,10.261595,0.121555,-0.069926,0.000000,0.312356,0.029224,0.000000
1.060000,-2.599916,0.279586,-1.520566,0.819488,0.172147,-0.071888,0.691776,1.245582,-0.105436,-0.306874,3.019867,0.851749,4.535804,-4.779599,10.742662,0.124666,-0.069655,0.000000,0.309938,0.024642,0.000000
1.070000,-2.591686,0.281371,-1.521290,0.826391,0.184753,-0.072898,0.689003,1.275470,-0.096379,-0.243365,2.952827,0.959973,6.920776,-7.440353,11.005556,0.127743,-0.069440,0.000000,0.304930,0.017596,-0.000000
1.080000,-2.583388,0.283282,-1.522024,0.833270,0.197655,-0.073812,0.686851,1.304682,-0.086216,-0.194596,2.895999,1.074029,2.793901,-3.890345,11.805946,0.130769,-0.069294,0.000000,0.301110,0.011970,0.000000
1.090000,-2.575021,0.285325,-1.522766,0.840129,0.210845,-0.074618,0.685046,1.333439,-0.074879,-0.162310,2.850906,1.193884,4.920253,-6.332050,12.054797,0.133770,-0.069192,0.000000,0.298641,0.007940,0.000000
1.100000,-2.566585,0.287500,-1.523516,0.846972,0.224321,-0.075305,0.683704,1.361591,-0.062333,-0.106841,2.779487,1.315958,4.923288,-6.758562,12.462761,0.136732,-0.069144,0.000000,0.293666,0.001568,0.000000
1.110000,-2.558082,0.289812,-1.524272,0.853805,0.238075,-0.075861,0.682907,1.389014,-0.048543,-0.051680,2.703516,1.442623,5.127181,-7.401824,12.841843,0.139643,-0.069160,0.000000,0.288398,-0.004824,-0.000000
1.120000,-2.549509,0.292263,-1.525033,0.860632,0.252099,-0.076272,0.682597,1.415724,-0.033470,-0.013305,2.640912,1.572481,3.504967,-6.130756,13.148300,0.142507,-0.069234,0.000000,0.284613,-0.009581,-0.000000
1.130000,-2.540869,0.294855,-1.525797,0.867458,0.266387,-0.076526,0.682693,1.441763,-0.017081,0.038511,2.559661,1.705977,6.890421,-10.155402,13.546381,0.145329,-0.069359,0.000000,0.279111,-0.015735,-0.000000
1.140000,-2.532160,0.297591,-1.526563,0.874288,0.280931,-0.076609,0.683425,1.466841,0.000661,0.105236,2.458096,1.842825,5.493014,-9.145047,13.793818,0.148082,-0.069558,0.000000,0.271713,-0.023442,-0.000000
1.150000,-2.523383,0.300474,-1.527329,0.881129,0.295721,-0.076508,0.684729,1.490981,0.019782,0.156598,2.368041,1.981937,5.742807,-9.883898,14.045475,0.150769,-0.069826,0.000000,0.265595,-0.029667,-0.000000
1.160000,-2.514538,0.303506,-1.528092,0.887985,0.310747,-0.076209,0.686604,1.514129,0.040307,0.219126,2.259678,2.123253,6.024893,-10.701391,14.252037,0.153387,-0.070164,0.000000,0.257757,-0.037077,0.000000
1.170000,-2.505623,0.306690,-1.528852,0.894863,0.326000,-0.075697,0.689061,1.536235,0.062257,0.270322,2.163988,2.267218,4.932885,-9.497345,14.493876,0.155931,-0.070572,0.000000,0.251311,-0.043420,0.000000
1.180000,-2.496640,0.310027,-1.529605,0.901768,0.341469,-0.074959,0.692053,1.557331,0.085654,0.332863,2.047473,2.412147,7.598218,-13.840066,14.483095,0.158405,-0.071047,0.000000,0.242861,-0.050975,-0.000000
1.190000,-2.487588,0.313520,-1.530350,0.908706,0.357142,-0.073979,0.695765,1.577102,0.110501,0.407774,1.908576,2.557530,6.659461,-12.871533,14.625844,0.160780,-0.071609,0.000000,0.232216,-0.059861,-0.000000
1.200000,-2.478466,0.317171,-1.531084,0.915685,0.373007,-0.072744,0.700161,1.595559,0.136809,0.472190,1.780975,2.704157,6.944742,-13.712788,14.651051,0.163056,-0.072256,0.000000,0.222777,-0.067778,0.000000
1.210000,-2.469274,0.320981,-1.531804,0.922712,0.389049,-0.071238,0.705205,1.612690,0.164581,0.536138,1.644432,2.850051,7.044711,-14.390043,14.616138,0.165232,-0.072983,0.000000,0.212463,-0.075732,-0.000000
1.220000,-2.460012,0.324952,-1.532508,0.929792,0.405255,-0.069447,0.710985,1.628361,0.193816,0.624136,1.485891,2.997191,9.386392,-16.543715,14.708669,0.167296,-0.073802,0.000000,0.199940,-0.086250,0.000000
1.230000,-2.450678,0.329086,-1.533192,0.936934,0.421611,-0.067357,0.717637,1.642422,0.224516,0.699335,1.329822,3.142061,5.616130,-14.643268,14.252671,0.169232,-0.074728,0.000000,0.187636,-0.095570,-0.000000
1.240000,-2.441273,0.333385,-1.533854,0.944147,0.438099,-0.064952,0.724914,1.654976,0.256647,0.760064,1.177458,3.283955,7.707769,-16.606206,14.211270,0.171051,-0.075735,0.000000,0.175658,-0.103506,0.000000
1.250000,-2.431795,0.337849,-1.534490,0.951435,0.454705,-0.062219,0.732934,1.665888,0.290195,0.843480,1.004382,3.425280,7.800446,-17.228416,13.948637,0.172737,-0.076839,0.000000,0.161501,-0.113898,0.000000
1.260000,-2.422244,0.342479,-1.535097,0.958808,0.471411,-0.059144,0.741789,1.675081,0.325138,0.928495,0.833779,3.562614,8.092151,-17.781733,13.617557,0.174282,-0.078049,0.000000,0.147459,-0.124578,0.000000
1.270000,-2.412618,0.347277,-1.535672,0.966273,0.488200,-0.055712,0.751423,1.682473,0.361444,0.995104,0.640595,3.698430,6.307050,-19.986013,13.428224,0.175676,-0.079361,0.000000,0.131023,-0.133503,-0.000000
1.280000,-2.402918,0.352243,-1.536210,0.973839,0.505054,-0.051911,0.761750,1.687916,0.399087,1.077251,0.452304,3.828719,10.155175,-17.642492,12.615261,0.176904,-0.080767,0.000000,0.114847,-0.144154,0.000000
1.290000,-2.393141,0.357378,-1.536709,0.981512,0.521953,-0.047726,0.773034,1.691547,0.437997,1.176386,0.270266,3.952670,8.582412,-19.637500,12.271280,0.177975,-0.082297,0.000000,0.099037,-0.156710,-0.000000
1.300000,-2.383287,0.362683,-1.537164,0.989302,0.538878,-0.043146,0.785201,1.693235,0.478130,1.258099,0.067019,4.073010,8.843020,-20.138380,11.676902,0.178875,-0.083944,0.000000,0.080838,-0.167619,-0.000000
1.310000,-2.373355,0.368156,-1.537570,0.997219,0.555811,-0.038160,0.798213,1.692860,0.519426,1.344201,-0.143731,4.184728,8.955542,-20.817571,10.983191,0.179588,-0.085706,0.000000,0.061492,-0.179112,-0.000000
1.320000,-2.363342,0.373799,-1.537925,1.005270,0.572729,-0.032754,0.812136,1.690435,0.561827,1.442500,-0.338325,4.295460,10.137713,-19.256205,10.833149,0.180112,-0.087591,0.000000,0.043563,-0.192100,0.000000
1.330000,-2.353249,0.379610,-1.538224,1.013465,0.589613,-0.026920,0.827040,1.686018,0.605294,1.535061,-0.553102,4.394474,8.354034,-23.732777,8.948221,0.180450,-0.089609,0.000000,0.023072,-0.204609,-0.000000
1.340000,-2.343073,0.385591,-1.538462,1.021813,0.606441,-0.020645,0.842810,1.679292,0.649671,1.620924,-0.789514,4.480632,9.384419,-22.378275,8.593143,0.180563,-0.091748,0.000000,-0.000223,-0.216513,-0.000000
1.350000,-2.332812,0.391739,-1.538636,1.030324,0.623191,-0.013923,0.859505,1.670300,0.694900,1.717853,-1.010513,4.563381,9.431356,-22.982024,7.624304,0.180452,-0.094017,0.000000,-0.022313,-0.229800,-0.000000
1.360000,-2.322466,0.398054,-1.538739,1.039006,0.639840,-0.006745,0.877149,1.659015,0.740887,1.810765,-1.247869,4.631951,9.461588,-23.583545,6.554793,0.180108,-0.096418,0.000000,-0.046756,-0.242761,-0.000000
1.370000,-2.312031,0.404535,-1.538769,1.047870,0.656364,0.000897,0.895747,1.645396,0.787541,1.909911,-1.473784,4.698638,10.060536,-22.466572,6.309564,0.179521,-0.098955,0.000000,-0.070420,-0.256624,0.000000
1.380000,-2.301508,0.411181,-1.538720,1.056925,0.672740,0.009008,0.915333,1.629481,0.834800,2.005533,-1.715398,4.748228,9.051562,-25.875734,3.583668,0.178690,-0.101633,0.000000,-0.096496,-0.270179,0.000000
1.390000,-2.290892,0.417990,-1.538587,1.066180,0.688945,0.017594,0.935841,1.611026,0.882441,2.097045,-1.973454,4.779456,9.555624,-24.844122,3.118442,0.177581,-0.104445,0.000000,-0.125150,-0.283325,-0.000000
1.400000,-2.280183,0.424959,-1.538366,1.075645,0.704952,0.026658,0.957297,1.590067,0.930383,2.193985,-2.219568,4.806442,9.524322,-25.247023,1.804304,0.176192,-0.107394,0.000000,-0.153095,-0.297253,-0.000000
1.410000,-2.269379,0.432088,-1.538052,1.085329,0.720738,0.036202,0.979738,1.566632,0.978505,2.294852,-2.467088,4.815457,9.613066,-25.397530,0.417934,0.174516,-0.110485,0.000000,-0.182044,-0.311637,0.000000
1.420000,-2.258476,0.439373,-1.537641,1.095243,0.736276,0.046228,1.003113,1.540627,1.026680,2.376683,-2.737875,4.818571,7.752901,-27.629173,-0.218381,0.172538,-0.113714,0.000000,-0.214138,-0.324070,0.000000
1.430000,-2.247473,0.446813,-1.537126,1.105394,0.751541,0.056736,1.027320,1.511925,1.074808,2.470896,-2.995940,4.802221,11.117267,-23.935819,-3.071743,0.170236,-0.117069,0.000000,-0.245790,-0.337826,0.000000
1.440000,-2.236367,0.454403,-1.536504,1.115793,0.766507,0.067723,1.052584,1.480768,1.122652,2.578661,-3.238947,4.765401,9.418847,-25.780916,-3.879237,0.167626,-0.120575,0.000000,-0.276724,-0.353018,-0.000000
1.450000,-2.225156,0.462142,-1.535770,1.126449,0.781148,0.079187,1.078814,1.447060,1.170098,2.667772,-3.501701,4.720959,9.407139,-25.630957,-5.432431,0.164690,-0.124221,0.000000,-0.310487,-0.366190,0.000000
1.460000,-2.213837,0.470025,-1.534919,1.137372,0.795439,0.091123,1.105966,1.410800,1.217001,2.762536,-3.749069,4.656640,9.320957,-25.307395,-7.033265,0.161420,-0.128002,0.000000,-0.343440,-0.379855,-0.000000
1.470000,-2.202408,0.478049,-1.533946,1.148571,0.809355,0.103525,1.134043,1.371971,1.263210,2.852056,-4.021182,4.583911,8.787176,-27.668513,-7.905602,0.157807,-0.131916,0.000000,-0.379838,-0.392915,0.000000
1.480000,-2.190865,0.486211,-1.532847,1.160056,0.822870,0.116385,1.163012,1.330458,1.308606,2.942562,-4.272088,4.490292,9.312685,-22.456071,-10.832295,0.153830,-0.135958,0.000000,-0.414723,-0.405848,-0.000000
1.490000,-2.179206,0.494505,-1.531617,1.171835,0.835957,0.129694,1.192899,1.286620,1.352941,3.033865,-4.499080,4.375119,8.725682,-24.378701,-11.809729,0.149520,-0.140129,0.000000,-0.447678,-0.418565,-0.000000
1.500000,-2.167427,0.502928,-1.530252,1.183917,0.848594,0.143440,1.223664,1.240381,1.396085,3.118698,-4.747159,4.250753,8.443569,-23.784279,-13.455505,0.144863,-0.144421,0.000000,-0.483564,-0.430378,0.000000
1.510000,-2.155526,0.511475,-1.528747,1.196310,0.860756,0.157611,1.255216,1.191700,1.437893,3.189703,-4.988908,4.108259,7.854260,-23.356978,-15.067522,0.139849,-0.148820,0.000000,-0.519326,-0.440229,-0.000000
1.520000,-2.143500,0.520142,-1.527098,1.209024,0.872420,0.172193,1.287608,1.140715,1.478194,3.294973,-5.203079,3.949210,11.145980,-20.631283,-16.714570,0.134488,-0.153328,0.000000,-0.552482,-0.453653,-0.000000
1.530000,-2.131345,0.528922,-1.525302,1.222066,0.883564,0.187169,1.320998,1.087601,1.516826,3.369520,-5.425775,3.774560,3.691015,-23.934811,-18.210675,0.128795,-0.157960,0.000000,-0.586943,-0.463083,-0.000000
1.540000,-2.119057,0.537811,-1.523353,1.235445,0.894164,0.202523,1.354869,1.032158,1.553635,3.409987,-5.658046,3.584581,6.458632,-21.335009,-19.805200,0.122744,-0.162650,0.000000,-0.622759,-0.468012,0.000000
1.550000,-2.106635,0.546803,-1.521250,1.249166,0.904200,0.218235,1.389335,0.974554,1.588464,3.481022,-5.862254,3.378784,5.684893,-20.667640,-21.322713,0.116352,-0.167406,0.000000,-0.655543,-0.475928,-0.000000
1.560000,-2.094073,0.555893,-1.518988,1.263234,0.913648,0.234285,1.424391,0.914795,1.621168,3.528188,-6.091699,3.159673,4.882580,-20.393113,-22.770128,0.109619,-0.172220,0.000000,-0.691311,-0.480444,-0.000000
1.570000,-2.081369,0.565074,-1.516563,1.277655,0.922489,0.250651,1.459965,0.853122,1.651587,3.589076,-6.225528,2.920980,6.186779,-11.029440,-24.690444,0.102573,-0.177078,0.000000,-0.715707,-0.485788,-0.000000
1.580000,-2.068519,0.574341,-1.513974,1.292435,0.930707,0.267309,1.496093,0.790081,1.679554,3.628673,-6.410042,2.671704,1.696921,-25.999512,-25.147106,0.095282,-0.181976,0.000000,-0.745785,-0.487953,-0.000000
1.590000,-2.055519,0.583686,-1.511216,1.307578,0.938283,0.284234,1.532453,0.724698,1.704991,3.645372,-6.650538,2.412775,2.759675,-17.357421,-26.900907,0.087632,-0.186869,0.000000,-0.782186,-0.486712,0.000000
1.600000,-2.042366,0.593104,-1.508288,1.323085,0.945195,0.301400,1.569062,0.657466,1.727746,3.674426,-6.796714,2.136211,1.941576,-16.551092,-28.129342,0.079687,-0.191751,0.000000,-0.806837,-0.486018,-0.000000
1.610000,-2.029056,0.602588,-1.505187,1.338960,0.951427,0.318779,1.605991,0.588976,1.747678,3.713161,-6.890998,1.848212,1.671986,-13.969134,-29.321139,0.071523,-0.196623,0.000000,-0.824540,-0.485656,-0.000000
1.620000,-2.015586,0.612131,-1.501912,1.355205,0.956969,0.336344,1.642980,0.518785,1.764683,3.669864,-7.183118,1.551301,-6.315512,-33.083749,-30.181288,0.063095,-0.201446,0.000000,-0.865279,-0.474741,0.000000
1.630000,-2.001951,0.621725,-1.498460,1.371818,0.961793,0.354063,1.679567,0.445935,1.778662,3.671154,-7.313992,1.242062,6.699842,7.284186,-31.656466,0.054295,-0.206156,0.000000,-0.885707,-0.468246,0.000000
1.640000,-1.988148,0.631364,-1.494830,1.388798,0.965889,0.371906,1.716602,0.373189,1.789484,3.722660,-7.266611,0.921157,-0.451925,-9.247920,-32.375123,0.045468,-0.210845,0.000000,-0.883435,-0.466834,0.000000
1.650000,-1.974174,0.641040,-1.491022,1.406150,0.969255,0.389842,1.753690,0.299796,1.797066,3.696483,-7.401461,0.593727,-0.746817,-6.296323,-33.228088,0.036533,-0.215460,0.000000,-0.902064,-0.455399,-0.000000
1.660000,-1.960024,0.650747,-1.487033,1.423871,0.971882,0.407837,1.790567,0.225470,1.801342,3.676684,-7.460936,0.260711,-1.512470,-4.205667,-33.911389,0.027468,-0.219961,0.000000,-0.910309,-0.443997,0.000000
1.670000,-1.945695,0.660476,-1.482865,1.441961,0.973763,0.425857,1.827336,0.150760,1.802214,3.681821,-7.472802,-0.089243,0.880276,0.476802,-35.525009,0.018353,-0.224353,0.000000,-0.911522,-0.434533,-0.000000
1.680000,-1.931183,0.670219,-1.478516,1.460418,0.974897,0.443869,1.864099,0.076020,1.799565,3.659446,-7.479907,-0.438161,-5.412414,-1.949209,-34.223486,0.009243,-0.228640,0.000000,-0.910804,-0.421274,0.000000
1.690000,-1.916485,0.679971,-1.473987,1.479241,0.975283,0.461837,1.900412,0.001159,1.793465,3.606931,-7.484681,-0.784201,-3.425984,2.344705,-35.507795,0.000141,-0.232765,0.000000,-0.908504,-0.404040,0.000000
1.700000,-1.901597,0.689723,-1.469280,1.498425,0.974921,0.479727,1.936341,-0.073501,1.783828,3.576630,-7.444920,-1.143335,-4.304833,4.229365,-35.759518,-0.008902,-0.236730,0.000000,-0.899536,-0.388619,0.000000
1.710000,-1.886516,0.699467,-1.464393,1.517967,0.973814,0.497502,1.971817,-0.147943,1.770628,3.515347,-7.447069,-1.496287,-5.393608,5.013870,-35.817220,-0.017871,-0.240522,0.000000,-0.894428,-0.369336,0.000000
1.720000,-1.871237,0.709196,-1.459330,1.537860,0.971964,0.515127,2.006819,-0.221631,1.753821,3.492233,-7.255833,-1.868526,-1.716608,23.813218,-37.637222,-0.026689,-0.244134,0.000000,-0.864787,-0.353631,-0.000000
1.730000,-1.855757,0.718904,-1.454091,1.558102,0.969388,0.532566,2.041509,-0.293476,1.733306,3.428807,-7.168550,-2.228194,-11.047359,-6.663985,-34.247143,-0.035214,-0.247580,0.000000,-0.846758,-0.333285,-0.000000
1.740000,-1.840074,0.728582,-1.448679,1.578687,0.966093,0.549782,2.075230,-0.365469,1.709315,3.321549,-7.199094,-2.572802,-7.894886,10.039975,-35.639293,-0.043677,-0.250786,0.000000,-0.841959,-0.308134,0.000000
1.750000,-1.824182,0.738223,-1.443097,1.599604,0.962081,0.566740,2.108101,-0.436688,1.681784,3.249655,-7.048508,-2.932263,-8.981350,10.608595,-35.254092,-0.051958,-0.253765,0.000000,-0.814560,-0.286548,0.000000
1.760000,-1.808080,0.747821,-1.437346,1.620846,0.957364,0.583406,2.140191,-0.506487,1.650713,3.168453,-6.905314,-3.280928,-9.621154,12.390271,-34.788051,-0.059972,-0.256522,0.000000,-0.787469,-0.264167,0.000000
1.770000,-1.791764,0.757368,-1.431430,1.642404,0.951955,0.599743,2.171257,-0.575193,1.616156,3.035558,-6.852605,-3.630685,-14.656415,3.620500,-34.829335,-0.067752,-0.259033,0.000000,-0.770544,-0.235907,-0.000000
1.780000,-1.775231,0.766858,-1.425352,1.664267,0.945862,0.615717,2.200989,-0.643226,1.578135,2.923645,-6.718077,-3.970524,-7.648961,23.453740,-33.112128,-0.075344,-0.261263,0.000000,-0.743504,-0.210507,-0.000000
1.790000,-1.758478,0.776283,-1.419117,1.686421,0.939098,0.631294,2.229830,-0.709214,1.536786,2.836225,-6.494266,-4.299020,-12.148336,15.781672,-32.891447,-0.082582,-0.263268,0.000000,-0.705865,-0.188391,0.000000
1.800000,-1.741502,0.785638,-1.412728,1.708859,0.931683,0.646442,2.257512,-0.773491,1.492156,2.700464,-6.355626,-4.625326,-12.687412,17.446696,-32.035481,-0.089505,-0.265022,0.000000,-0.678110,-0.161170,0.000000
1.810000,-1.724300,0.794915,-1.406189,1.731567,0.923634,0.661127,2.283874,-0.836128,1.444322,2.570877,-6.168939,-4.939690,-13.333812,18.837457,-31.082684,-0.096122,-0.266511,0.000000,-0.644870,-0.135348,0.000000
1.820000,-1.706870,0.804108,-1.399507,1.754532,0.914967,0.675318,2.308900,-0.896909,1.393374,2.432881,-5.988667,-5.249090,-14.155885,18.222276,-30.531807,-0.102408,-0.267740,0.000000,-0.612524,-0.109140,-0.000000
1.830000,-1.689209,0.813212,-1.392685,1.777741,0.905702,0.688984,2.332516,-0.955811,1.339388,2.290051,-5.783395,-5.544773,-14.402640,22.852440,-28.584080,-0.108363,-0.268706,0.000000,-0.577701,-0.083259,-0.000000
1.840000,-1.671314,0.822220,-1.385729,1.801178,0.895858,0.702096,2.354687,-1.012483,1.282530,2.142788,-5.552392,-5.825624,-15.151867,22.310466,-27.828806,-0.113953,-0.269416,0.000000,-0.540524,-0.057825,-0.000000
1.850000,-1.653184,0.831127,-1.378645,1.824829,0.885460,0.714626,2.375345,-1.066901,1.222896,1.987997,-5.328777,-6.098959,-15.696750,23.418546,-26.573604,-0.119180,-0.269870,0.000000,-0.504729,-0.032321,-0.000000
1.860000,-1.634817,0.839928,-1.371438,1.848679,0.874528,0.726545,2.394409,-1.119032,1.160605,1.823268,-5.096723,-6.356962,-16.325674,24.225049,-25.246203,-0.124047,-0.270066,0.000000,-0.468736,-0.006764,0.000000
1.870000,-1.616210,0.848616,-1.364116,1.872712,0.863087,0.737829,2.411864,-1.168709,1.095784,1.670028,-4.833131,-6.605803,-15.209226,27.262322,-24.290535,-0.128543,-0.270014,0.000000,-0.429968,0.016732,-0.000000
1.880000,-1.597362,0.857188,-1.356684,1.896911,0.851163,0.748453,2.427748,-1.215730,1.028546,1.500463,-4.577312,-6.837931,-18.726316,23.844473,-22.120098,-0.132654,-0.269726,0.000000,-0.393021,0.040893,0.000000
1.890000,-1.578271,0.865638,-1.349149,1.921261,0.838781,0.758393,2.441809,-1.260300,0.959085,1.313656,-4.332103,-7.052557,-17.728646,26.401549,-21.022963,-0.136412,-0.269186,0.000000,-0.358215,0.065740,-0.000000
1.900000,-1.558936,0.873962,-1.341518,1.945742,0.825965,0.767628,2.454076,-1.302261,0.887527,1.138375,-4.060087,-7.256357,-18.218113,26.760188,-19.506946,-0.139809,-0.268407,0.000000,-0.321392,0.088469,-0.000000
1.910000,-1.539356,0.882156,-1.333799,1.970336,0.812744,0.776137,2.464556,-1.341500,0.814013,0.957434,-3.786586,-7.443982,-18.542865,27.153221,-17.977269,-0.142843,-0.267401,0.000000,-0.285454,0.110732,-0.000000
1.920000,-1.519529,0.890216,-1.325998,1.995027,0.799144,0.783902,2.473167,-1.378044,0.738702,0.762332,-3.524513,-7.615487,-19.906804,25.980220,-16.354815,-0.145527,-0.266168,0.000000,-0.251790,0.133398,-0.000000
1.930000,-1.499455,0.898138,-1.318124,2.019793,0.785192,0.790905,2.479820,-1.411949,0.661754,0.571273,-3.251884,-7.771746,-18.279485,28.543722,-14.895299,-0.147878,-0.264709,0.000000,-0.218009,0.154643,-0.000000
1.940000,-1.479133,0.905918,-1.310183,2.044617,0.770915,0.797132,2.484615,-1.443042,0.583318,0.385515,-2.969166,-7.912643,-19.432294,27.224225,-13.247172,-0.149886,-0.263046,0.000000,-0.184193,0.174386,0.000000
1.950000,-1.458563,0.913555,-1.302184,2.069479,0.756341,0.802567,2.487480,-1.471396,0.503557,0.187617,-2.701585,-8.036963,-19.572677,27.010660,-11.651343,-0.151572,-0.261180,0.000000,-0.152997,0.194365,0.000000
1.960000,-1.437744,0.921044,-1.294134,2.094360,0.741495,0.807199,2.488401,-1.497292,0.422635,-0.002795,-2.484876,-8.144590,-19.581877,25.559437,-10.034978,-0.152972,-0.259120,0.000000,-0.127857,0.212653,-0.000000
1.970000,-1.416676,0.928384,-1.286042,2.119240,0.726404,0.811017,2.487337,-1.520392,0.340706,-0.213825,-2.105733,-8.239172,-21.567475,41.269391,-8.726093,-0.154062,-0.256871,0.000000,-0.087434,0.232140,-0.000000
1.980000,-1.395359,0.935572,-1.277916,2.144100,0.711100,0.814010,2.484175,-1.539879,0.257912,-0.411974,-1.848374,-8.315861,-18.022907,9.906599,-6.609528,-0.154771,-0.254430,0.000000,-0.060226,0.249445,-0.000000
1.990000,-1.373794,0.942605,-1.269765,2.168918,0.695610,0.816173,2.479155,-1.557881,0.174449,-0.595390,-1.726186,-8.374600,-19.714090,23.587847,-5.300267,-0.155320,-0.251830,0.000000,-0.047038,0.264470,0.000000
2.000000,-1.351981,0.949483,-1.261596,2.193676,0.679950,0.817498,2.472188,-1.573744,0.090460,-0.797154,-1.453687,-8.420612,-19.577668,21.874533,-3.749240,-0.155650,-0.249071,0.000000,-0.019846,0.280569,-0.000000
2.010000,-1.329921,0.956204,-1.253418,2.218355,0.664143,0.817981,2.463271,-1.587226,0.006079,-0.985292,-1.245210,-8.453428,-19.340490,20.665971,-2.298954,-0.155745,-0.246158,0.000000,0.000426,0.294701,0.000000
2.020000,-1.307614,0.962766,-1.245239,2.242935,0.648212,0.817618,2.452385,-1.598619,-0.078518,-1.195819,-1.032441,-8.461926,-21.507768,21.089717,0.087246,-0.155642,-0.243099,0.000000,0.020224,0.310057,-0.000000
2.030000,-1.285062,0.969168,-1.237068,2.267396,0.632178,0.816410,2.439421,-1.607949,-0.163136,-1.389069,-0.840115,-8.462440,-17.103143,17.372028,-0.213326,-0.155349,-0.239889,0.000000,0.037604,0.323309,0.000000
2.040000,-1.262267,0.975409,-1.228914,2.291718,0.616059,0.814356,2.424677,-1.615496,-0.247748,-1.563307,-0.668048,-8.456122,-19.014174,17.891140,1.978938,-0.154898,-0.236562,0.000000,0.052687,0.334397,0.000000
2.050000,-1.239228,0.981489,-1.220784,2.315883,0.599874,0.811456,2.408062,-1.621271,-0.332175,-1.758651,-0.488601,-8.427365,-18.795197,17.216811,3.255041,-0.154294,-0.233114,0.000000,0.067764,0.346736,0.000000
2.060000,-1.215950,0.987406,-1.212687,2.339872,0.583641,0.807713,2.389452,-1.624738,-0.416304,-1.965670,-0.189068,-8.397452,-19.076531,19.396650,4.331765,-0.153494,-0.229539,0.000000,0.093633,0.359922,0.000000
2.070000,-1.192432,0.993162,-1.204632,2.363666,0.567384,0.803131,2.369027,-1.626872,-0.499958,-2.107735,-0.314679,-8.326060,-12.772227,-21.860593,8.373256,-0.152593,-0.225860,0.000000,0.079479,0.366138,0.000000
2.080000,-1.168677,0.998754,-1.196627,2.387248,0.551099,0.797717,2.347127,-1.629899,-0.582865,-2.293242,-0.150664,-8.263011,-24.439701,55.384275,4.179791,-0.151799,-0.222114,0.000000,0.092173,0.376413,0.000000
2.090000,-1.144687,1.004184,-1.188681,2.410601,0.534802,0.791476,2.322973,-1.628634,-0.665267,-2.527157,0.335239,-8.210946,-18.880791,18.945087,7.806513,-0.150637,-0.218226,0.000000,0.133821,0.391138,-0.000000
2.100000,-1.120466,1.009450,-1.180801,2.433701,0.518534,0.784414,2.296847,-1.624922,-0.746928,-2.700303,0.422122,-8.120430,-19.202446,21.194468,8.715328,-0.149283,-0.214229,0.000000,0.138409,0.399521,-0.000000
2.110000,-1.096014,1.014554,-1.172995,2.456531,0.502309,0.776540,2.268821,-1.619805,-0.827667,-2.906889,0.597326,-8.025422,-19.578828,21.048179,9.749525,-0.147835,-0.210133,0.000000,0.150735,0.410750,0.000000
2.120000,-1.071336,1.019497,-1.165273,2.479071,0.486145,0.767864,2.238903,-1.612396,-0.907446,-3.068496,0.908942,-7.930432,-15.195380,34.220983,9.759144,-0.146216,-0.205941,0.000000,0.175192,0.417943,-0.000000
2.130000,-1.046434,1.024278,-1.157641,2.501304,0.470072,0.758394,2.207326,-1.601968,-0.986219,-3.262272,1.133596,-7.819511,-23.628126,10.445519,12.436358,-0.144364,-0.201674,0.000000,0.191276,0.427689,-0.000000
2.140000,-1.021311,1.028898,-1.150107,2.523210,0.454110,0.748143,2.173521,-1.590111,-1.063777,-3.491121,1.258833,-7.692227,-19.647752,21.633798,12.495475,-0.142426,-0.197286,0.000000,0.198142,0.440190,0.000000
2.150000,-0.995971,1.033360,-1.142680,2.544768,0.438276,0.737123,2.137693,-1.576265,-1.140074,-3.676023,1.505022,-7.565268,-19.791100,20.484408,13.410873,-0.140354,-0.192797,0.000000,0.215700,0.448850,-0.000000
2.160000,-0.970417,1.037664,-1.135367,2.565958,0.422591,0.725346,2.100101,-1.560765,-1.215013,-3.837575,1.577190,-7.420323,-18.961738,16.897283,14.397062,-0.138179,-0.188230,0.000000,0.217740,0.455226,0.000000
2.170000,-0.944653,1.041813,-1.128176,2.586763,0.407068,0.712828,2.060446,-1.542977,-1.288543,-4.114358,2.053596,-7.288248,-30.112033,56.021083,13.154267,-0.135848,-0.183560,0.000000,0.254840,0.471825,0.000000
2.180000,-0.918683,1.045806,-1.121113,2.607158,0.391747,0.699580,2.018138,-1.520864,-1.360693,-4.307927,2.228223,-7.133379,-8.392005,-21.825950,17.849306,-0.133186,-0.178736,0.000000,0.265342,0.480881,0.000000
2.190000,-0.892511,1.049648,-1.114187,2.627122,0.376646,0.685620,1.974646,-1.499704,-1.431122,-4.408739,2.068079,-6.954481,-18.086587,12.310725,16.771058,-0.130652,-0.173889,0.000000,0.247013,0.481740,-0.000000
2.200000,-0.866142,1.053340,-1.107403,2.646645,0.361756,0.670963,1.929499,-1.477859,-1.499845,-4.615723,2.282870,-6.788315,-16.994329,8.182601,17.603673,-0.128104,-0.168977,0.000000,0.261053,0.492010,0.000000
2.210000,-0.839580,1.056884,-1.100770,2.665706,0.347093,0.655628,1.882510,-1.454446,-1.566859,-4.780559,2.401685,-6.613855,-16.234655,6.516821,18.212310,-0.125465,-0.163983,0.000000,0.266859,0.498681,0.000000
2.220000,-0.812830,1.060283,-1.094293,2.684290,0.332669,0.639632,1.833892,-1.430617,-1.632027,-4.942792,2.329997,-6.415658,-15.950104,-12.034577,20.514549,-0.122835,-0.158925,0.000000,0.256318,0.504951,-0.000000
2.230000,-0.785896,1.063538,-1.087979,2.702379,0.318478,0.622995,1.783693,-1.407488,-1.695196,-5.094092,2.346230,-6.222719,-14.301523,15.578985,18.036552,-0.120307,-0.153809,0.000000,0.253562,0.510539,-0.000000
2.240000,-0.758784,1.066653,-1.081835,2.719959,0.304523,0.605734,1.732050,-1.383285,-1.756512,-5.234082,2.463979,-6.036795,-13.960208,-0.889361,20.053178,-0.117728,-0.148642,0.000000,0.259584,0.515445,0.000000
2.250000,-0.731498,1.069630,-1.075866,2.737015,0.290813,0.587871,1.679017,-1.358954,-1.815845,-5.371146,2.404525,-5.829571,-13.196558,-2.109545,20.473107,-0.115178,-0.143429,0.000000,0.250612,0.520030,-0.000000
2.260000,-0.704045,1.072470,-1.070079,2.753534,0.277344,0.569424,1.624562,-1.334766,-1.873125,-5.521273,2.438288,-5.626157,-12.915659,-2.445753,20.833767,-0.112679,-0.138166,0.000000,0.249680,0.525956,0.000000
2.270000,-0.676430,1.075177,-1.064480,2.769502,0.264116,0.550415,1.568918,-1.311118,-1.928306,-5.593517,2.251895,-5.407232,-5.340809,-23.801354,22.331193,-0.110262,-0.132871,0.000000,0.230502,0.525433,-0.000000
2.280000,-0.648657,1.077753,-1.059073,2.784910,0.251115,0.530866,1.512523,-1.289219,-1.981289,-5.708025,2.193820,-5.192542,-17.684326,12.555294,20.580883,-0.108026,-0.127578,0.000000,0.222287,0.528726,-0.000000
2.290000,-0.620733,1.080200,-1.053864,2.799747,0.238334,0.510797,1.454568,-1.266671,-2.032180,-5.870363,2.280868,-4.983339,-10.948128,-6.233296,21.872743,-0.105769,-0.122217,0.000000,0.226262,0.536255,0.000000
2.300000,-0.592664,1.082521,-1.048859,2.813998,0.225780,0.490229,1.395426,-1.244476,-2.080899,-5.959647,2.163836,-4.760457,-10.737539,-6.085606,22.081368,-0.103573,-0.116818,0.000000,0.213445,0.537831,0.000000
2.310000,-0.564455,1.084717,-1.044061,2.827653,0.213442,0.469186,1.335311,-1.223229,-2.127390,-6.062276,2.082571,-4.537268,-10.241813,-6.930693,22.324335,-0.101485,-0.111396,0.000000,0.203778,0.540758,-0.000000
2.320000,-0.536113,1.086790,-1.039476,2.840701,0.201313,0.447689,1.274160,-1.202590,-2.171655,-6.168661,2.055082,-4.316151,-10.596351,-1.690432,22.115243,-0.099477,-0.105944,0.000000,0.198726,0.544260,-0.000000
2.330000,-0.507643,1.088744,-1.035109,2.853132,0.189389,0.425760,1.211975,-1.182298,-2.213696,-6.264983,1.983153,-4.090417,-8.654088,-12.787752,23.034541,-0.097525,-0.100460,0.000000,0.190147,0.547146,-0.000000
2.340000,-0.479052,1.090579,-1.030963,2.864937,0.177663,0.403423,1.148900,-1.163113,-2.253446,-6.350618,1.862763,-3.859994,-8.915389,-8.125303,22.823883,-0.095689,-0.094952,0.000000,0.177748,0.549378,0.000000
2.350000,-0.450347,1.092297,-1.027042,2.876107,0.166124,0.380699,1.084944,-1.144816,-2.290908,-6.439505,1.793865,-3.632116,-8.418803,-8.802768,22.970507,-0.093950,-0.089419,0.000000,0.169740,0.552158,-0.000000
2.360000,-0.421532,1.093902,-1.023350,2.886633,0.154764,0.357612,1.020155,-1.127389,-2.326076,-6.516817,1.689028,-3.401063,-7.852316,-9.554229,23.100207,-0.092306,-0.083863,0.000000,0.158934,0.554234,0.000000
2.370000,-0.392616,1.095393,-1.019891,2.896508,0.143573,0.334185,0.954561,-1.110849,-2.358937,-6.603977,1.626822,-3.171428,-8.792167,-5.415375,22.957316,-0.090756,-0.078282,0.000000,0.151742,0.557387,0.000000
2.380000,-0.363604,1.096774,-1.016667,2.905722,0.132545,0.310441,0.888132,-1.094994,-2.389495,-6.676125,1.527634,-2.939170,-5.611593,-14.498569,23.496071,-0.089282,-0.072672,0.000000,0.141662,0.559570,-0.000000
2.390000,-0.334504,1.098045,-1.013683,2.914268,0.121669,0.286403,0.821098,-1.080450,-2.417710,-6.732089,1.388108,-2.704241,-6.373763,-10.848287,23.353448,-0.087935,-0.067050,0.000000,0.128434,0.560698,-0.000000
2.400000,-0.305321,1.099208,-1.010940,2.922142,0.110932,0.262095,0.753447,-1.067053,-2.443587,-6.796840,1.289044,-2.470997,-5.784187,-11.507418,23.427446,-0.086699,-0.061411,0.000000,0.118611,0.562823,-0.000000
2.410000,-0.276063,1.100264,-1.008442,2.929335,0.100324,0.237539,0.685197,-1.054748,-2.467122,-6.852172,1.171069,-2.235722,-5.244812,-11.985937,23.497418,-0.085569,-0.055753,0.000000,0.107357,0.564451,-0.000000
2.420000,-0.246737,1.101214,-1.006190,2.935844,0.089833,0.212760,0.616424,-1.043639,-2.488310,-6.901392,1.050344,-2.002260,-4.633884,-12.248783,23.318469,-0.084552,-0.050081,0.000000,0.095995,0.565871,0.000000
2.430000,-0.217349,1.102061,-1.004187,2.941662,0.079447,0.187781,0.547186,-1.033760,-2.507159,-6.945581,0.924208,-1.766760,-4.204656,-12.975103,23.784237,-0.083650,-0.044395,0.000000,0.084275,0.567154,0.000000
2.440000,-0.187906,1.102804,-1.002435,2.946786,0.069154,0.162625,0.477529,-1.025173,-2.523637,-6.984766,0.792907,-1.529120,-3.596420,-13.181720,23.616842,-0.082868,-0.038698,0.000000,0.072206,0.568307,0.000000
2.450000,-0.158415,1.103444,-1.000935,2.951212,0.058939,0.137316,0.407512,-1.017906,-2.537750,-7.017808,0.659900,-1.293371,-3.047368,-13.508075,23.657378,-0.082206,-0.032991,0.000000,0.060083,0.569253,0.000000
2.460000,-0.128884,1.103983,-0.999689,2.954935,0.048791,0.111878,0.337188,-1.011976,-2.549498,-7.046179,0.525786,-1.055954,-2.508575,-13.733816,23.698929,-0.081666,-0.027275,0.000000,0.047920,0.570101,0.000000
2.470000,-0.099319,1.104420,-0.998698,2.957955,0.038695,0.086334,0.266616,-1.007431,-2.558878,-7.066893,0.381460,-0.820570,-1.748748,-14.708489,23.499756,-0.081251,-0.021552,0.000000,0.034998,0.570620,-0.000000
2.480000,-0.069727,1.104757,-0.997963,2.960267,0.028638,0.060708,0.195862,-1.004333,-2.565902,-7.083560,0.240487,-0.583397,-1.588313,-13.464612,23.937925,-0.080965,-0.015825,0.000000,0.022371,0.571093,0.000000
2.490000,-0.040116,1.104993,-0.997484,2.961871,0.018604,0.035024,0.124957,-1.002604,-2.570539,-7.096341,0.103962,-0.344305,-0.852282,-14.249603,23.756243,-0.080802,-0.010093,0.000000,0.010114,0.571537,-0.000000
2.500000,-0.010492,1.105129,-0.997262,2.962766,0.008581,0.009305,0.053963,-1.002288,-2.572797,-7.101590,-0.040771,-0.107232,-0.312685,-14.270985,23.781014,-0.080765,-0.004358,0.000000,-0.002776,0.571662,-0.000000
2.510000,0.019137,1.105164,-0.997298,2.962950,-0.001447,-0.016424,-0.017061,-1.003402,-2.572677,-7.102178,-0.181712,0.131410,0.230133,-14.228298,23.809648,-0.080856,0.001378,0.000000,-0.015370,0.571697,-0.000000
2.520000,0.048764,1.105100,-0.997591,2.962425,-0.011492,-0.042141,-0.088060,-1.005946,-2.570179,-7.096664,-0.328099,0.367687,0.838537,-14.728995,23.578234,-0.081074,0.007113,0.000000,-0.028396,0.571527,-0.000000
2.530000,0.078383,1.104935,-0.998141,2.961190,-0.021570,-0.067820,-0.158977,-1.009945,-2.565316,-7.086126,-0.469580,0.605755,1.268016,-13.548386,24.038783,-0.081423,0.012846,0.000000,-0.041062,0.571237,0.000000
2.540000,0.107986,1.104668,-0.998947,2.959246,-0.031696,-0.093439,-0.229766,-1.015316,-2.558057,-7.070613,-0.605169,0.845756,1.868959,-13.873808,23.826418,-0.081894,0.018575,0.000000,-0.053302,0.570837,0.000000
2.550000,0.137566,1.104300,-1.000009,2.956595,-0.041881,-0.118973,-0.300369,-1.022066,-2.548411,-7.049041,-0.744210,1.083408,2.411266,-13.612184,23.836908,-0.082490,0.024300,0.000000,-0.065849,0.570231,0.000000
2.560000,0.167115,1.103830,-1.001326,2.953239,-0.052141,-0.144399,-0.370728,-1.030176,-2.536382,-7.021929,-0.877140,1.322462,2.961204,-13.280885,23.847244,-0.083209,0.030018,0.000000,-0.077972,0.569468,-0.000000
2.570000,0.196628,1.103257,-1.002897,2.949181,-0.062489,-0.169693,-0.440793,-1.039622,-2.521972,-6.990275,-1.012557,1.559174,3.417828,-13.487162,23.615908,-0.084051,0.035729,0.000000,-0.090348,0.568617,-0.000000
2.580000,0.226097,1.102580,-1.004719,2.944424,-0.072938,-0.194831,-0.510513,-1.050399,-2.505193,-6.952560,-1.140274,1.797319,4.126706,-12.038323,24.015559,-0.085014,0.041430,0.000000,-0.102194,0.567565,0.000000
2.590000,0.255514,1.101798,-1.006793,2.938972,-0.083501,-0.219789,-0.579824,-1.062397,-2.486020,-6.908721,-1.259359,2.036987,4.592213,-12.079969,23.793390,-0.086092,0.047120,0.000000,-0.113446,0.566309,-0.000000
2.600000,0.284874,1.100910,-1.009115,2.932829,-0.094190,-0.244543,-0.648673,-1.075594,-2.464464,-6.860304,-1.379087,2.274200,5.139581,-11.549123,23.770382,-0.087284,0.052798,0.000000,-0.124832,0.564957,0.000000
2.610000,0.314168,1.099914,-1.011683,2.926001,-0.105017,-0.269070,-0.717007,-1.089943,-2.440532,-6.805521,-1.489472,2.512217,5.695963,-10.945455,23.738814,-0.088587,0.058462,0.000000,-0.135581,0.563376,-0.000000
2.620000,0.343392,1.098809,-1.014495,2.918491,-0.115993,-0.293346,-0.784775,-1.105397,-2.414228,-6.747502,-1.601766,2.748086,6.024692,-11.094348,23.522293,-0.089997,0.064110,0.000000,-0.146588,0.561802,-0.000000
2.630000,0.372536,1.097594,-1.017549,2.910307,-0.127129,-0.317347,-0.851934,-1.121937,-2.385567,-6.682577,-1.702574,2.984496,6.963499,-9.048469,23.760047,-0.091515,0.069743,0.000000,-0.156800,0.559949,-0.000000
2.640000,0.401595,1.096266,-1.020841,2.901455,-0.138435,-0.341049,-0.918402,-1.139404,-2.354536,-6.610614,-1.790962,3.221424,7.310173,-9.040027,23.532447,-0.093130,0.075355,0.000000,-0.166145,0.557806,0.000000
2.650000,0.430563,1.094824,-1.024369,2.891942,-0.149920,-0.364430,-0.984137,-1.157765,-2.321149,-6.535384,-1.879740,3.455855,7.852938,-8.295969,23.440862,-0.094839,0.080948,0.000000,-0.175646,0.555656,-0.000000
2.660000,0.459432,1.093267,-1.028128,2.881775,-0.161593,-0.387464,-1.049087,-1.176965,-2.285418,-6.453769,-1.959040,3.690104,8.391242,-7.553466,23.332931,-0.096641,0.086518,0.000000,-0.184527,0.553257,-0.000000
2.670000,0.488196,1.091592,-1.032117,2.870963,-0.173461,-0.410130,-1.113201,-1.196920,-2.247357,-6.368301,-2.030675,3.921781,8.776963,-6.776811,23.068868,-0.098528,0.092064,0.000000,-0.192920,0.550795,-0.000000
2.680000,0.516849,1.089797,-1.036330,2.859514,-0.185533,-0.432404,-1.176432,-1.217553,-2.206984,-6.276665,-2.094658,4.152879,9.551205,-6.017560,23.149139,-0.100498,0.097587,0.000000,-0.200846,0.548089,-0.000000
2.690000,0.545384,1.087880,-1.040763,2.847437,-0.197815,-0.454262,-1.238713,-1.238787,-2.164301,-6.178840,-2.150847,4.383262,9.935560,-5.211559,22.852230,-0.102544,0.103081,0.000000,-0.208298,0.545133,-0.000000
2.700000,0.573796,1.085840,-1.045414,2.834743,-0.210311,-0.475682,-1.299998,-1.260543,-2.119331,-6.077339,-2.198915,4.610438,10.439203,-4.407571,22.648879,-0.104662,0.108547,0.000000,-0.215227,0.542106,-0.000000
2.710000,0.602077,1.083673,-1.050276,2.821441,-0.223027,-0.496641,-1.360262,-1.282798,-2.072097,-5.975084,-2.252615,4.836014,10.835651,-3.868075,22.417181,-0.106852,0.113984,0.000000,-0.222783,0.539257,0.000000
2.720000,0.630223,1.081379,-1.055345,2.807541,-0.235968,-0.517117,-1.419420,-1.305377,-2.022622,-5.853062,-2.253577,5.058273,12.766410,1.288740,22.072132,-0.109100,0.119388,0.000000,-0.226139,0.534991,-0.000000
2.730000,0.658226,1.078953,-1.060616,2.793056,-0.249134,-0.537086,-1.477347,-1.327962,-1.970939,-5.736596,-2.276945,5.278246,10.500783,-6.032978,21.918125,-0.111382,0.124750,0.000000,-0.231487,0.531401,0.000000
2.740000,0.686082,1.076395,-1.066085,2.777998,-0.262529,-0.556528,-1.534180,-1.351019,-1.917066,-5.626854,-2.325799,5.495652,12.256033,-1.319887,21.513780,-0.113739,0.130085,0.000000,-0.239113,0.528583,-0.000000
2.750000,0.713784,1.073702,-1.071745,2.762377,-0.276155,-0.575421,-1.589808,-1.374266,-1.861041,-5.498344,-2.323701,5.708762,12.640078,-0.657968,21.145162,-0.116148,0.135385,0.000000,-0.242653,0.524386,-0.000000
2.760000,0.741328,1.070871,-1.077591,2.746206,-0.290014,-0.593742,-1.644153,-1.397589,-1.802898,-5.370140,-2.341388,5.919167,13.071385,-0.097029,20.753522,-0.118600,0.140645,0.000000,-0.248002,0.520406,-0.000000
2.770000,0.768707,1.067901,-1.083618,2.729498,-0.304107,-0.611472,-1.697190,-1.420849,-1.742685,-5.236251,-2.299899,6.122075,13.640250,5.718945,19.990933,-0.121087,0.145865,0.000000,-0.248475,0.516074,-0.000000
2.780000,0.795916,1.064788,-1.089819,2.712267,-0.318430,-0.628589,-1.748867,-1.443690,-1.680464,-5.098720,-2.283167,6.322411,13.865727,-2.438879,20.073709,-0.123579,0.151042,0.000000,-0.251163,0.511607,0.000000
2.790000,0.822950,1.061532,-1.096187,2.694525,-0.332981,-0.645074,-1.799153,-1.466625,-1.616245,-4.957520,-2.293875,6.519939,14.445228,3.034200,19.251658,-0.126121,0.156176,0.000000,-0.256337,0.506989,0.000000
2.800000,0.849805,1.058128,-1.102718,2.676288,-0.347761,-0.660907,-1.847996,-1.489321,-1.550097,-4.810337,-2.245067,6.708735,14.926475,4.046162,18.669515,-0.128685,0.161262,0.000000,-0.256532,0.501931,0.000000
2.810000,0.876474,1.054576,-1.109403,2.657571,-0.362766,-0.676070,-1.895269,-1.511306,-1.482103,-4.641193,-2.142575,6.888648,15.776387,6.494382,17.950117,-0.131233,0.166290,0.000000,-0.252188,0.495042,-0.000000
2.820000,0.902955,1.050872,-1.116237,2.638388,-0.377986,-0.690543,-1.941046,-1.532900,-1.412297,-4.523558,-2.206542,7.073497,10.786944,-9.578111,18.383334,-0.133792,0.171269,0.000000,-0.262255,0.492788,-0.000000
2.830000,0.929241,1.047015,-1.123212,2.618754,-0.393426,-0.704310,-1.985570,-1.554898,-1.340689,-4.361722,-2.130327,7.242967,21.674043,25.142523,15.481871,-0.136432,0.176220,0.000000,-0.260348,0.486684,0.000000
