time,x,y,z,vx,vy,vz,ax,ay,az,jx,jy,jz,sx,sy,sz,roll,pitch,yaw,p,q,r
0.000000,-2.162682,-2.173436,-1.457455,0.004277,0.022623,0.000643,-0.308419,-0.883229,-0.027962,3.650515,17.704143,0.119046,15.388746,-194.044195,-1.411121,-0.089494,0.031340,0.000000,1.782212,-0.368839,0.000000
0.010000,-2.162654,-2.173251,-1.457450,0.001378,0.014645,0.000369,-0.271217,-0.715435,-0.026843,3.782886,15.898938,0.104566,11.162572,-167.455703,-1.475607,-0.072575,0.027565,0.000000,1.605621,-0.382967,-0.000000
0.020000,-2.162653,-2.173137,-1.457448,-0.001143,0.008258,0.000106,-0.232895,-0.564409,-0.025872,3.875267,14.346075,0.089713,7.386502,-143.553607,-1.486222,-0.057304,0.023674,0.000000,1.452300,-0.392911,-0.000000
0.030000,-2.162676,-2.173081,-1.457448,-0.003277,0.003309,-0.000149,-0.193830,-0.427760,-0.025048,3.932036,13.019357,0.075007,4.036412,-122.204178,-1.447084,-0.043458,0.019706,0.000000,1.320344,-0.399116,-0.000000
0.040000,-2.162718,-2.173067,-1.457451,-0.005018,-0.000338,-0.000396,-0.154359,-0.303351,-0.024369,3.957334,11.893928,0.060924,1.088176,-103.273685,-1.362311,-0.030832,0.015695,0.000000,1.207741,-0.402011,0.000000
0.050000,-2.162775,-2.173083,-1.457456,-0.006364,-0.002793,-0.000637,-0.114775,-0.189289,-0.023826,3.955059,10.946266,0.047899,-1.482333,-86.628398,-1.236022,-0.019245,0.011671,0.000000,1.112452,-0.402003,0.000000
0.060000,-2.162844,-2.173119,-1.457463,-0.007314,-0.004152,-0.000873,-0.075337,-0.083907,-0.023407,3.928866,10.154189,0.036328,-3.699240,-72.134586,-1.072335,-0.008532,0.007661,0.000000,1.032459,-0.399476,0.000000
0.070000,-2.162920,-2.173163,-1.457473,-0.007872,-0.004495,-0.001105,-0.036266,0.014244,-0.023094,3.882172,9.496849,0.026563,-5.586670,-59.658520,-0.875368,0.001449,0.003688,0.000000,0.965802,-0.394791,-0.000000
0.080000,-2.163000,-2.173206,-1.457485,-0.008042,-0.003887,-0.001335,0.002249,0.106414,-0.022868,3.818151,8.954738,0.018918,-7.168751,-49.066470,-0.649241,0.010822,-0.000229,0.000000,0.910608,-0.388283,-0.000000
0.090000,-2.163079,-2.173238,-1.457500,-0.007829,-0.002383,-0.001563,0.040049,0.193662,-0.022708,3.739735,8.509685,0.013662,-8.469606,-40.224703,-0.398071,0.019693,-0.004073,0.000000,0.865101,-0.380262,0.000000
0.100000,-2.163155,-2.173251,-1.457517,-0.007243,-0.000027,-0.001789,0.077004,0.276875,-0.022586,3.649616,8.144855,0.011026,-9.513363,-32.999492,-0.125977,0.028151,-0.007831,0.000000,0.827621,-0.371015,0.000000
0.110000,-2.163223,-2.173236,-1.457536,-0.006293,0.003143,-0.002015,0.113010,0.356775,-0.022478,3.550244,7.844752,0.011198,-10.324147,-27.257105,0.162923,0.036267,-0.011493,0.000000,0.796630,-0.360801,-0.000000
0.120000,-2.163280,-2.173185,-1.457557,-0.004987,0.007099,-0.002239,0.147986,0.433938,-0.022353,3.443829,7.595216,0.014327,-10.926084,-22.863812,0.464510,0.044100,-0.015050,0.000000,0.770715,-0.349857,0.000000
0.130000,-2.163322,-2.173091,-1.457580,-0.003336,0.011814,-0.002461,0.181870,0.508805,-0.022181,3.332338,7.383425,0.020517,-11.343300,-19.685883,0.774666,0.051694,-0.018495,0.000000,0.748596,-0.338392,0.000000
0.140000,-2.163345,-2.172946,-1.457606,-0.001353,0.017268,-0.002682,0.214621,0.581694,-0.021932,3.217498,7.197893,0.029835,-11.599920,-17.589587,1.089272,0.059081,-0.021826,0.000000,0.729125,-0.326589,-0.000000
0.150000,-2.163348,-2.172743,-1.457634,0.000952,0.023442,-0.002900,0.246214,0.652816,-0.021574,3.100795,7.028474,0.042304,-11.720070,-16.441195,1.404210,0.066282,-0.025038,0.000000,0.711291,-0.314609,-0.000000
0.160000,-2.163325,-2.172475,-1.457664,0.003567,0.030319,-0.003113,0.276635,0.722288,-0.021075,2.983471,6.866355,0.057907,-11.727876,-16.106976,1.715362,0.073309,-0.028131,0.000000,0.694219,-0.302584,-0.000000
0.170000,-2.163275,-2.172135,-1.457696,0.006481,0.037883,-0.003321,0.305884,0.790143,-0.020405,2.866531,6.704066,0.076585,-11.647464,-16.453200,2.018608,0.080166,-0.031106,0.000000,0.677169,-0.290622,0.000000
0.180000,-2.163195,-2.171715,-1.457730,0.009681,0.046117,-0.003520,0.333970,0.856348,-0.019534,2.750736,6.535469,0.098239,-11.502959,-17.346136,2.309832,0.086851,-0.033963,0.000000,0.659540,-0.278806,0.000000
0.190000,-2.163081,-2.171210,-1.457767,0.013156,0.055004,-0.003711,0.360905,0.920815,-0.018431,2.636605,6.355767,0.122728,-11.318488,-18.652054,2.584913,0.093354,-0.036704,0.000000,0.640865,-0.267191,-0.000000
0.200000,-2.162931,-2.170613,-1.457805,0.016895,0.064527,-0.003888,0.386708,0.983415,-0.017070,2.524419,6.161497,0.149869,-11.118176,-20.237224,2.839734,0.099663,-0.039331,0.000000,0.620813,-0.255810,0.000000
0.210000,-2.162742,-2.169918,-1.457844,0.020884,0.074674,-0.004051,0.411496,1.043667,-0.015423,2.423100,5.920842,0.179695,-11.150584,-21.217884,3.063747,0.105732,-0.041856,0.000000,0.596205,-0.245569,0.000000
0.220000,-2.162512,-2.169118,-1.457886,0.025119,0.085403,-0.004196,0.435169,1.101797,-0.013469,2.311410,5.703310,0.211339,-11.187920,-22.302176,3.260051,0.111584,-0.044270,0.000000,0.574044,-0.234319,0.000000
0.230000,-2.162239,-2.168208,-1.457928,0.029584,0.096703,-0.004319,0.457723,1.157696,-0.011190,2.199336,5.474593,0.244793,-11.226830,-23.448211,3.425313,0.117210,-0.046572,0.000000,0.550886,-0.223071,0.000000
0.240000,-2.161920,-2.167182,-1.457972,0.034269,0.108549,-0.004418,0.479154,1.211250,-0.008568,2.086879,5.234280,0.279731,-11.263957,-24.614098,3.556203,0.122599,-0.048762,0.000000,0.526697,-0.211824,0.000000
0.250000,-2.161553,-2.166035,-1.458016,0.039163,0.120919,-0.004490,0.499460,1.262343,-0.005592,1.974074,4.982384,0.315791,-11.295944,-25.757950,3.649390,0.127740,-0.050840,0.000000,0.501481,-0.200582,-0.000000
0.260000,-2.161136,-2.164762,-1.458062,0.044255,0.133791,-0.004529,0.518636,1.310744,-0.002241,1.861040,4.708618,0.353437,-11.320738,-26.567204,3.679935,0.132613,-0.052807,0.000000,0.474222,-0.189358,-0.000000
0.270000,-2.160667,-2.163358,-1.458107,0.049532,0.147129,-0.004533,0.536680,1.356489,0.001477,1.747758,4.439199,0.390216,-11.333522,-27.303786,3.668759,0.137223,-0.054661,0.000000,0.447511,-0.178136,-0.000000
0.280000,-2.160145,-2.161818,-1.458152,0.054985,0.160911,-0.004499,0.553591,1.399505,0.005562,1.634422,4.162814,0.426671,-11.330779,-27.958950,3.615179,0.141562,-0.056403,0.000000,0.420220,-0.166935,-0.000000
0.290000,-2.159567,-2.160138,-1.458197,0.060600,0.175110,-0.004421,0.569369,1.439725,0.010008,1.521206,3.880320,0.462376,-11.308995,-28.523949,3.518507,0.145625,-0.058034,0.000000,0.392422,-0.155769,0.000000
0.300000,-2.158932,-2.158314,-1.458240,0.066368,0.189696,-0.004297,0.584016,1.477094,0.014806,1.408317,3.592664,0.496895,-11.264653,-28.990036,3.378058,0.149409,-0.059552,0.000000,0.364199,-0.144651,-0.000000
0.310000,-2.158239,-2.156343,-1.458283,0.072277,0.204643,-0.004124,0.597526,1.511526,0.019951,1.295040,3.297350,0.530746,-11.170014,-29.259338,3.168975,0.152905,-0.060958,0.000000,0.335302,-0.133511,-0.000000
0.320000,-2.157486,-2.154220,-1.458323,0.078315,0.219918,-0.003897,0.609920,1.543034,0.025413,1.183924,3.003850,0.561213,-11.048753,-29.423151,2.917705,0.156114,-0.062254,0.000000,0.306618,-0.122583,-0.000000
0.330000,-2.156672,-2.151943,-1.458360,0.084472,0.235494,-0.003615,0.621209,1.571600,0.031166,1.074156,2.709231,0.588967,-10.900321,-29.483641,2.626522,0.159037,-0.063441,0.000000,0.277852,-0.111785,-0.000000
0.340000,-2.155796,-2.149509,-1.458395,0.090736,0.251341,-0.003273,0.631409,1.597218,0.037182,0.966010,2.414515,0.613618,-10.724169,-29.442976,2.297699,0.161671,-0.064519,0.000000,0.249085,-0.101139,0.000000
0.350000,-2.154857,-2.146916,-1.458426,0.097096,0.267429,-0.002870,0.640536,1.619893,0.043427,0.859767,2.120701,0.634803,-10.519747,-29.303323,1.933513,0.164019,-0.065491,0.000000,0.220396,-0.090666,0.000000
0.360000,-2.153854,-2.144160,-1.458452,0.103543,0.283729,-0.002404,0.648605,1.639628,0.049873,0.755114,1.827812,0.652847,-10.271428,-29.042628,1.519354,0.166079,-0.066357,0.000000,0.191778,-0.080332,-0.000000
0.370000,-2.152786,-2.141241,-1.458473,0.110065,0.300212,-0.001873,0.655647,1.656460,0.056470,0.653757,1.539073,0.665848,-9.995586,-28.690246,1.076446,0.167855,-0.067121,0.000000,0.163502,-0.070293,-0.000000
0.380000,-2.151653,-2.138155,-1.458489,0.116653,0.316849,-0.001274,0.661690,1.670423,0.063174,0.555290,1.254295,0.674294,-9.693521,-28.251310,0.609132,0.169350,-0.067784,0.000000,0.135546,-0.060507,0.000000
0.390000,-2.150453,-2.134903,-1.458499,0.123296,0.333611,-0.000609,0.666763,1.681561,0.069940,0.459969,0.974318,0.677963,-9.366529,-27.730956,0.121753,0.170567,-0.068349,0.000000,0.107974,-0.050996,0.000000
0.400000,-2.149187,-2.131483,-1.458501,0.129985,0.350471,0.000124,0.670900,1.689928,0.076717,0.368038,0.699931,0.676677,-9.015908,-27.134315,-0.381349,0.171511,-0.068820,0.000000,0.080851,-0.041781,-0.000000
0.410000,-2.147853,-2.127894,-1.458496,0.136711,0.367400,0.000925,0.674133,1.695580,0.083459,0.279486,0.431747,0.670495,-8.636900,-26.463433,-0.900795,0.172186,-0.069198,0.000000,0.054228,-0.032859,0.000000
0.420000,-2.146452,-2.124135,-1.458482,0.143465,0.384373,0.001793,0.676503,1.698586,0.090110,0.195097,0.170743,0.658861,-8.237598,-25.726910,-1.426674,0.172597,-0.069488,0.000000,0.028185,-0.024304,-0.000000
0.430000,-2.144984,-2.120206,-1.458460,0.150238,0.401364,0.002727,0.678049,1.699020,0.096618,0.114795,-0.082591,0.641957,-7.820042,-24.930257,-1.954035,0.172752,-0.069693,0.000000,0.002767,-0.016109,0.000000
0.440000,-2.143447,-2.116107,-1.458428,0.157023,0.418345,0.003725,0.678813,1.696962,0.102931,0.038751,-0.327680,0.619792,-7.386271,-24.078987,-2.477929,0.172655,-0.069816,0.000000,-0.021974,-0.008291,-0.000000
0.450000,-2.141843,-2.111839,-1.458385,0.163812,0.435295,0.004785,0.678839,1.692496,0.108997,-0.032883,-0.564007,0.592426,-6.938322,-23.178611,-2.993408,0.172315,-0.069862,0.000000,-0.045987,-0.000866,-0.000000
0.460000,-2.140171,-2.107402,-1.458332,0.170598,0.452188,0.005904,0.678170,1.685714,0.114760,-0.100015,-0.790983,0.559703,-6.477241,-22.237778,-3.488834,0.171738,-0.069835,0.000000,-0.069215,0.006155,-0.000000
0.470000,-2.138431,-2.102796,-1.458267,0.177373,0.469002,0.007079,0.676854,1.676708,0.120174,-0.162439,-1.008494,0.522409,-6.006183,-21.258479,-3.966764,0.170933,-0.069739,0.000000,-0.091632,0.012746,0.000000
0.480000,-2.136624,-2.098022,-1.458190,0.184133,0.485715,0.008306,0.674937,1.665577,0.125193,-0.220112,-1.216041,0.480440,-5.527308,-20.245840,-4.423068,0.169908,-0.069578,0.000000,-0.113186,0.018901,0.000000
0.490000,-2.134749,-2.093082,-1.458101,0.190870,0.502306,0.009581,0.672468,1.652422,0.129768,-0.272967,-1.413317,0.434034,-5.042777,-19.204988,-4.853615,0.168672,-0.069357,0.000000,-0.133838,0.024609,-0.000000
0.500000,-2.132806,-2.087976,-1.457998,0.197580,0.518757,0.010900,0.669494,1.637346,0.133859,-0.320956,-1.600064,0.383468,-4.554750,-18.141053,-5.254275,0.167234,-0.069080,0.000000,-0.153548,0.029860,0.000000
0.510000,-2.130797,-2.082707,-1.457883,0.204259,0.535047,0.012257,0.666066,1.620458,0.137419,-0.363990,-1.775862,0.328478,-4.067082,-17.064605,-5.606185,0.165605,-0.068753,0.000000,-0.172271,0.034645,0.000000
0.520000,-2.128721,-2.077276,-1.457753,0.210900,0.551160,0.013647,0.662231,1.601865,0.140418,-0.402224,-1.941068,0.270807,-3.580032,-15.974661,-5.921750,0.163792,-0.068379,0.000000,-0.190005,0.038965,-0.000000
0.530000,-2.126579,-2.071685,-1.457610,0.217502,0.567079,0.015063,0.658037,1.581674,0.142825,-0.435599,-2.095326,0.210172,-3.095552,-14.875681,-6.198644,0.161808,-0.067964,0.000000,-0.206707,0.042812,-0.000000
0.540000,-2.124372,-2.065935,-1.457452,0.224060,0.582789,0.016501,0.653535,1.559995,0.144613,-0.464150,-2.238567,0.146971,-2.615597,-13.772125,-6.434539,0.159662,-0.067513,0.000000,-0.222355,0.046185,-0.000000
0.550000,-2.122098,-2.060030,-1.457279,0.230572,0.598274,0.017953,0.648770,1.536939,0.145757,-0.487933,-2.370768,0.081626,-2.142118,-12.668456,-6.627108,0.157364,-0.067030,0.000000,-0.236927,0.049083,-0.000000
0.560000,-2.119760,-2.053970,-1.457093,0.237035,0.613523,0.019414,0.643793,1.512619,0.146232,-0.506888,-2.491661,0.013879,-1.680425,-11.576436,-6.756301,0.154927,-0.066521,0.000000,-0.250391,0.051501,0.000000
0.570000,-2.117358,-2.047760,-1.456891,0.243447,0.628523,0.020876,0.638648,1.487142,0.146031,-0.521425,-2.601997,-0.054139,-1.228704,-10.492328,-6.839686,0.152360,-0.065989,0.000000,-0.262777,0.053463,0.000000
0.580000,-2.114891,-2.041401,-1.456675,0.249807,0.643262,0.022332,0.633379,1.460615,0.145147,-0.531501,-2.701546,-0.122761,-0.788497,-9.419700,-6.877105,0.149675,-0.065441,0.000000,-0.274058,0.054965,-0.000000
0.590000,-2.112362,-2.034896,-1.456445,0.256114,0.657732,0.023777,0.628032,1.433147,0.143576,-0.537238,-2.790441,-0.191527,-0.361346,-8.362117,-6.868403,0.146883,-0.064879,0.000000,-0.284232,0.056016,-0.000000
0.600000,-2.109769,-2.028247,-1.456200,0.262368,0.671923,0.025202,0.622649,1.404842,0.141318,-0.538776,-2.868850,-0.259975,0.051205,-7.323145,-6.813424,0.143994,-0.064310,0.000000,-0.293300,0.056626,0.000000
0.610000,-2.107115,-2.021458,-1.455941,0.268567,0.685826,0.026601,0.617272,1.375808,0.138372,-0.536093,-2.936620,-0.328271,0.443199,-6.315384,-6.696099,0.141021,-0.063737,0.000000,-0.301244,0.056793,0.000000
0.620000,-2.104398,-2.014532,-1.455668,0.274713,0.699437,0.027967,0.611940,1.346142,0.134757,-0.529772,-2.994837,-0.394458,0.818050,-5.332262,-6.534132,0.137973,-0.063164,0.000000,-0.308137,0.056563,0.000000
0.630000,-2.101621,-2.007470,-1.455381,0.280806,0.712747,0.029294,0.606689,1.315943,0.130489,-0.519793,-3.043356,-0.458811,1.174758,-4.376239,-6.329315,0.134862,-0.062596,0.000000,-0.313968,0.055937,-0.000000
0.640000,-2.098782,-2.000278,-1.455082,0.286848,0.725754,0.030575,0.601555,1.285307,0.125588,-0.506341,-3.082460,-0.520908,1.512320,-3.449775,-6.083438,0.131697,-0.062036,0.000000,-0.318755,0.054932,0.000000
0.650000,-2.095884,-1.992956,-1.454770,0.292838,0.738452,0.031804,0.596573,1.254325,0.120080,-0.489613,-3.112458,-0.580348,1.829736,-2.555331,-5.798295,0.128490,-0.061489,0.000000,-0.322523,0.053565,0.000000
0.660000,-2.092926,-1.985510,-1.454446,0.298780,0.750840,0.032975,0.591775,1.223091,0.113987,-0.469625,-3.133288,-0.637173,2.121170,-1.705304,-5.464966,0.125250,-0.060957,0.000000,-0.325268,0.051842,0.000000
0.670000,-2.089908,-1.977941,-1.454111,0.304674,0.762914,0.034082,0.587190,1.191687,0.107348,-0.447046,-3.146239,-0.690011,2.391046,-0.891002,-5.097265,0.121988,-0.060445,0.000000,-0.327104,0.049822,-0.000000
0.680000,-2.086832,-1.970252,-1.453765,0.310524,0.774673,0.035120,0.582843,1.160193,0.100199,-0.421877,-3.151231,-0.739014,2.638957,-0.113667,-4.698296,0.118711,-0.059954,0.000000,-0.328027,0.047508,-0.000000
0.690000,-2.083698,-1.962448,-1.453409,0.316332,0.786117,0.036084,0.578760,1.128687,0.092581,-0.394341,-3.148640,-0.783883,2.864491,0.625457,-4.271162,0.115430,-0.059489,0.000000,-0.328077,0.044924,0.000000
0.700000,-2.080506,-1.954531,-1.453043,0.322100,0.797247,0.036970,0.574963,1.097244,0.084536,-0.364664,-3.138854,-0.824354,3.067241,1.325127,-3.818967,0.112153,-0.059051,0.000000,-0.327296,0.042093,0.000000
0.710000,-2.077256,-1.946504,-1.452670,0.327832,0.808063,0.037774,0.571475,1.065937,0.076108,-0.332894,-3.121900,-0.860351,3.242257,1.974668,-3.340742,0.108887,-0.058643,0.000000,-0.325692,0.039021,-0.000000
0.720000,-2.073949,-1.938371,-1.452288,0.333531,0.818566,0.038491,0.568311,1.034827,0.067346,-0.299693,-3.099075,-0.891289,3.394225,2.583422,-2.844162,0.105641,-0.058266,0.000000,-0.323396,0.035774,0.000000
0.730000,-2.070586,-1.930134,-1.451900,0.339199,0.828760,0.039120,0.565486,1.003975,0.058299,-0.265086,-3.070368,-0.917185,3.523292,3.151301,-2.332828,0.102422,-0.057924,0.000000,-0.320415,0.032358,-0.000000
0.740000,-2.067165,-1.921797,-1.451506,0.344842,0.838647,0.039656,0.563013,0.973438,0.049019,-0.229303,-3.036186,-0.937908,3.629605,3.678216,-1.810341,0.099235,-0.057616,0.000000,-0.316797,0.028795,-0.000000
0.750000,-2.063689,-1.913362,-1.451107,0.350461,0.848230,0.040099,0.560903,0.943268,0.039558,-0.192569,-2.996940,-0.953366,3.713311,4.164078,-1.280305,0.096088,-0.057345,0.000000,-0.312592,0.025112,0.000000
0.760000,-2.060156,-1.904833,-1.450704,0.356061,0.857513,0.040447,0.559166,0.913518,0.029970,-0.154967,-2.952745,-0.963415,3.770919,4.601310,-0.748497,0.092985,-0.057112,0.000000,-0.307819,0.021315,0.000000
0.770000,-2.056568,-1.896213,-1.450299,0.361645,0.866502,0.040698,0.557805,0.884227,0.020308,-0.117061,-2.904714,-0.968237,3.806658,4.998228,-0.216076,0.089933,-0.056917,0.000000,-0.302599,0.017465,0.000000
0.780000,-2.052923,-1.887504,-1.449891,0.367218,0.875200,0.040853,0.556825,0.855436,0.010623,-0.078905,-2.852912,-0.967746,3.821121,5.355662,0.313623,0.086935,-0.056761,0.000000,-0.296947,0.013568,0.000000
0.790000,-2.049223,-1.878710,-1.449482,0.372783,0.883612,0.040911,0.556227,0.827180,0.000970,-0.040708,-2.797730,-0.961985,3.814900,5.674438,0.837263,0.083995,-0.056645,0.000000,-0.290911,0.009646,0.000000
0.800000,-2.045468,-1.869833,-1.449073,0.378344,0.891745,0.040873,0.556011,0.799491,-0.008599,-0.002674,-2.739549,-0.951032,3.788588,5.955385,1.351509,0.081118,-0.056568,0.000000,-0.284537,0.005720,-0.000000
0.810000,-2.041656,-1.860876,-1.448665,0.383905,0.899604,0.040739,0.556174,0.772400,-0.018030,0.035094,-2.678562,-0.934730,3.740378,6.194700,1.846271,0.078306,-0.056530,0.000000,-0.277852,0.001800,0.000000
0.820000,-2.037790,-1.851842,-1.448258,0.389469,0.907195,0.040513,0.556711,0.745928,-0.027277,0.072179,-2.615567,-0.913856,3.673554,6.398410,2.325795,0.075561,-0.056532,0.000000,-0.270947,-0.002067,0.000000
0.830000,-2.033867,-1.842733,-1.447855,0.395040,0.914525,0.040195,0.557615,0.720095,-0.036292,0.108506,-2.550708,-0.888273,3.589001,6.567909,2.787573,0.072887,-0.056572,0.000000,-0.263843,-0.005876,-0.000000
0.840000,-2.029889,-1.833552,-1.447455,0.400622,0.921599,0.039788,0.558878,0.694919,-0.045028,0.143903,-2.484319,-0.858172,3.487607,6.704593,3.229098,0.070285,-0.056649,0.000000,-0.256579,-0.009609,-0.000000
0.850000,-2.025855,-1.824302,-1.447059,0.406219,0.928425,0.039295,0.560489,0.670412,-0.053441,0.178205,-2.416721,-0.823767,3.370257,6.809857,3.647860,0.067756,-0.056764,0.000000,-0.249195,-0.013248,-0.000000
0.860000,-2.021764,-1.814984,-1.446669,0.411833,0.935010,0.038720,0.562438,0.646588,-0.061486,0.211303,-2.348157,-0.784938,3.236679,6.883456,4.032230,0.065302,-0.056914,0.000000,-0.241716,-0.016784,-0.000000
0.870000,-2.017618,-1.805602,-1.446285,0.417469,0.941359,0.038067,0.564711,0.623451,-0.069127,0.242943,-2.279073,-0.742804,3.089057,6.928626,4.389938,0.062922,-0.057100,0.000000,-0.234200,-0.020187,0.000000
0.880000,-2.013415,-1.796158,-1.445908,0.423128,0.947481,0.037339,0.567292,0.601007,-0.076330,0.273041,-2.209673,-0.697232,2.928421,6.946964,4.719593,0.060618,-0.057319,0.000000,-0.226668,-0.023451,-0.000000
0.890000,-2.009155,-1.786653,-1.445539,0.428815,0.953382,0.036542,0.570166,0.579258,-0.083061,0.301472,-2.140218,-0.648510,2.755796,6.940066,5.019803,0.058389,-0.057569,0.000000,-0.219150,-0.026561,-0.000000
0.900000,-2.004838,-1.777091,-1.445177,0.434533,0.959068,0.035679,0.573315,0.558202,-0.089291,0.328120,-2.070951,-0.596939,2.572210,6.909528,5.289178,0.056234,-0.057850,0.000000,-0.211672,-0.029508,0.000000
0.910000,-2.000464,-1.767473,-1.444825,0.440283,0.964548,0.034757,0.576722,0.537837,-0.094988,0.352889,-2.002132,-0.542463,2.378528,6.857723,5.516949,0.054155,-0.058160,0.000000,-0.204263,-0.032282,-0.000000
0.920000,-1.996033,-1.757801,-1.444482,0.446068,0.969828,0.033781,0.580366,0.518158,-0.100133,0.375669,-1.933900,-0.486290,2.175961,6.785376,5.712250,0.052149,-0.058496,0.000000,-0.196941,-0.034867,-0.000000
0.930000,-1.991543,-1.748077,-1.444150,0.451891,0.974914,0.032757,0.584228,0.499157,-0.104708,0.396382,-1.866488,-0.428327,1.965555,6.693988,5.874838,0.050216,-0.058857,0.000000,-0.189731,-0.037257,-0.000000
0.940000,-1.986995,-1.738303,-1.443827,0.457753,0.979813,0.031689,0.588287,0.480825,-0.108695,0.414957,-1.800078,-0.368903,1.748359,6.585059,6.004467,0.048354,-0.059242,0.000000,-0.182650,-0.039445,-0.000000
0.950000,-1.982388,-1.728481,-1.443516,0.463657,0.984532,0.030585,0.592520,0.463151,-0.112082,0.431330,-1.734840,-0.308348,1.525418,6.460091,6.100897,0.046562,-0.059646,0.000000,-0.175717,-0.041423,0.000000
0.960000,-1.977721,-1.718613,-1.443216,0.469604,0.989078,0.029449,0.596906,0.446122,-0.114856,0.445431,-1.671013,-0.246678,1.298268,6.322802,6.155852,0.044839,-0.060070,0.000000,-0.168954,-0.043186,-0.000000
0.970000,-1.972995,-1.708700,-1.442927,0.475596,0.993457,0.028290,0.601421,0.429726,-0.117014,0.457262,-1.608527,-0.184982,1.067410,6.172205,6.178103,0.043182,-0.060510,0.000000,-0.162358,-0.044727,-0.000000
0.980000,-1.968209,-1.698744,-1.442650,0.481633,0.997675,0.027111,0.606043,0.413947,-0.118555,0.466770,-1.547609,-0.123223,0.833831,6.009528,6.168391,0.041591,-0.060965,0.000000,-0.155948,-0.046044,0.000000
0.990000,-1.963363,-1.688747,-1.442385,0.487717,1.001738,0.025921,0.610749,0.398768,-0.119479,0.473932,-1.488373,-0.061718,0.598519,5.836003,6.127454,0.040063,-0.061431,0.000000,-0.149736,-0.047131,0.000000
1.000000,-1.958455,-1.678710,-1.442132,0.493848,1.005652,0.024724,0.615514,0.384173,-0.119791,0.478738,-1.430921,-0.000775,0.362463,5.652857,6.056034,0.038596,-0.061907,0.000000,-0.143731,-0.047987,-0.000000
1.010000,-1.953486,-1.668635,-1.441891,0.500027,1.009423,0.023527,0.620315,0.370142,-0.119495,0.481149,-1.375448,0.059531,0.127484,5.463958,5.949121,0.037187,-0.062391,0.000000,-0.137951,-0.048608,-0.000000
1.020000,-1.948454,-1.658522,-1.441661,0.506254,1.013057,0.022336,0.625129,0.356658,-0.118605,0.481254,-1.321784,0.118369,-0.106366,5.267576,5.813909,0.035836,-0.062879,0.000000,-0.132379,-0.048996,0.000000
1.030000,-1.943360,-1.648374,-1.441444,0.512530,1.016558,0.021157,0.629933,0.343700,-0.117133,0.479029,-1.270118,0.175720,-0.338201,5.064617,5.651840,0.034539,-0.063371,0.000000,-0.127032,-0.049150,-0.000000
1.040000,-1.938203,-1.638191,-1.441238,0.518853,1.019932,0.019995,0.634702,0.331249,-0.115096,0.474499,-1.220511,0.231321,-0.567137,4.855987,5.464360,0.033295,-0.063862,0.000000,-0.121915,-0.049070,-0.000000
1.050000,-1.932983,-1.627976,-1.441044,0.525224,1.023185,0.018856,0.639415,0.319283,-0.112513,0.467699,-1.173014,0.284927,-0.792286,4.642595,5.252913,0.032100,-0.064352,0.000000,-0.117031,-0.048758,0.000000
1.060000,-1.927699,-1.617728,-1.440861,0.531641,1.026320,0.017746,0.644048,0.307780,-0.109404,0.458629,-1.127762,0.336429,-1.011752,4.427625,5.015797,0.030953,-0.064837,0.000000,-0.112393,-0.048211,-0.000000
1.070000,-1.922350,-1.607450,-1.440689,0.538104,1.029342,0.016670,0.648580,0.296720,-0.105793,0.447437,-1.084575,0.385314,-1.225785,4.209427,4.757987,0.029851,-0.065316,0.000000,-0.107981,-0.047441,-0.000000
1.080000,-1.916937,-1.597142,-1.440527,0.544612,1.032255,0.015632,0.652990,0.286081,-0.101706,0.434134,-1.043582,0.431526,-1.433623,3.988628,4.481312,0.028793,-0.065786,0.000000,-0.103808,-0.046447,0.000000
1.090000,-1.911458,-1.586805,-1.440376,0.551164,1.035065,0.014637,0.657256,0.275841,-0.097172,0.418787,-1.004809,0.474884,-1.634505,3.765854,4.187599,0.027774,-0.066244,0.000000,-0.099875,-0.045234,-0.000000
1.100000,-1.905913,-1.576441,-1.440234,0.557757,1.037773,0.013690,0.661359,0.265978,-0.092219,0.401470,-0.968270,0.515227,-1.827669,3.541734,3.878678,0.026794,-0.066690,0.000000,-0.096181,-0.043807,0.000000
1.110000,-1.900302,-1.566050,-1.440102,0.564390,1.040385,0.012794,0.665279,0.256468,-0.086878,0.382217,-0.934037,0.552439,-2.011201,3.318419,3.555705,0.025850,-0.067120,0.000000,-0.092732,-0.042167,-0.000000
1.120000,-1.894625,-1.555633,-1.439978,0.571062,1.042904,0.011954,0.668998,0.247290,-0.081181,0.361225,-0.901970,0.586333,-2.185633,3.094826,3.221265,0.024939,-0.067533,0.000000,-0.089515,-0.040332,0.000000
1.130000,-1.888881,-1.545192,-1.439863,0.577769,1.045332,0.011172,0.672498,0.238421,-0.075162,0.338536,-0.872140,0.616833,-2.350344,2.871397,2.877268,0.024059,-0.067926,0.000000,-0.086535,-0.038304,0.000000
1.140000,-1.883070,-1.534727,-1.439755,0.584511,1.047673,0.010451,0.675763,0.229839,-0.068856,0.314252,-0.844540,0.643853,-2.504714,2.648571,2.525627,0.023207,-0.068299,0.000000,-0.083790,-0.036090,-0.000000
1.150000,-1.877191,-1.524239,-1.439653,0.591284,1.049930,0.009795,0.678778,0.221523,-0.062297,0.288479,-0.819165,0.667326,-2.648122,2.426791,2.168251,0.022382,-0.068648,0.000000,-0.081279,-0.033701,0.000000
1.160000,-1.871244,-1.513728,-1.439559,0.598086,1.052105,0.009206,0.681527,0.213448,-0.055522,0.261275,-0.796029,0.687151,-2.778613,2.207235,1.808434,0.021581,-0.068972,0.000000,-0.079002,-0.031139,0.000000
1.170000,-1.865229,-1.503197,-1.439469,0.604913,1.054200,0.008686,0.683999,0.205595,-0.048566,0.232887,-0.775047,0.703426,-2.897064,1.989516,1.446537,0.020801,-0.069270,0.000000,-0.076951,-0.028430,0.000000
1.180000,-1.859146,-1.492645,-1.439385,0.611765,1.056217,0.008235,0.686181,0.197940,-0.041465,0.203376,-0.756231,0.716080,-3.003019,1.773985,1.084301,0.020041,-0.069540,0.000000,-0.075126,-0.025578,-0.000000
1.190000,-1.852994,-1.482073,-1.439304,0.618636,1.058159,0.007857,0.688063,0.190463,-0.034256,0.172870,-0.739559,0.725117,-3.096022,1.560992,0.723469,0.019298,-0.069781,0.000000,-0.073524,-0.022594,0.000000
1.200000,-1.846773,-1.471482,-1.439227,0.625525,1.060027,0.007551,0.689636,0.183142,-0.026975,0.141500,-0.725002,0.730560,-3.175614,1.350889,0.365784,0.018570,-0.069992,0.000000,-0.072142,-0.019492,-0.000000
1.210000,-1.840483,-1.460873,-1.439153,0.632428,1.061822,0.007317,0.690890,0.175956,-0.019658,0.109341,-0.712537,0.732335,-3.239767,1.144216,0.015869,0.017855,-0.070171,0.000000,-0.070978,-0.016277,0.000000
1.220000,-1.834124,-1.450246,-1.439081,0.639342,1.063546,0.007157,0.691821,0.168884,-0.012340,0.076682,-0.702114,0.730770,-3.289789,0.941110,-0.327769,0.017150,-0.070317,0.000000,-0.070024,-0.012981,-0.000000
1.230000,-1.827696,-1.439602,-1.439010,0.646263,1.065200,0.007070,0.692422,0.161907,-0.005054,0.043594,-0.693702,0.725805,-3.325415,0.741900,-0.663740,0.016453,-0.070430,0.000000,-0.069278,-0.009609,0.000000
1.240000,-1.821199,-1.428942,-1.438939,0.653189,1.066785,0.007056,0.692692,0.155004,0.002165,0.010222,-0.687262,0.717525,-3.346381,0.546912,-0.990655,0.015764,-0.070509,0.000000,-0.068735,-0.006178,-0.000000
1.250000,-1.814632,-1.418266,-1.438868,0.660116,1.068301,0.007113,0.692626,0.148155,0.009286,-0.023284,-0.682749,0.706027,-3.352423,0.356475,-1.307124,0.015078,-0.070554,0.000000,-0.068391,-0.002701,-0.000000
1.260000,-1.807997,-1.407576,-1.438796,0.667040,1.069748,0.007241,0.692225,0.141343,0.016274,-0.056847,-0.680116,0.691272,-3.341469,0.170906,-1.607962,0.014395,-0.070563,0.000000,-0.068240,0.000811,-0.000000
1.270000,-1.801292,-1.396872,-1.438723,0.673959,1.071128,0.007438,0.691490,0.134547,0.023101,-0.090144,-0.679313,0.673741,-3.315283,-0.009457,-1.896041,0.013713,-0.070537,0.000000,-0.068277,0.004325,0.000000
1.280000,-1.794518,-1.386154,-1.438647,0.680869,1.072439,0.007703,0.690424,0.127750,0.029739,-0.123102,-0.680286,0.653396,-3.273822,-0.184285,-2.170438,0.013029,-0.070477,0.000000,-0.068495,0.007831,-0.000000
1.290000,-1.787674,-1.375423,-1.438569,0.687767,1.073682,0.008032,0.689030,0.120935,0.036160,-0.155569,-0.682979,0.630381,-3.217044,-0.353251,-2.430227,0.012342,-0.070381,0.000000,-0.068889,0.011313,-0.000000
1.300000,-1.780762,-1.364680,-1.438487,0.694649,1.074858,0.008425,0.687314,0.114085,0.042338,-0.187392,-0.687331,0.604844,-3.144906,-0.516024,-2.674484,0.011651,-0.070251,0.000000,-0.069451,0.014754,-0.000000
1.310000,-1.773781,-1.353926,-1.438400,0.701512,1.075964,0.008878,0.685284,0.107183,0.048247,-0.218493,-0.693283,0.576781,-3.055403,-0.672156,-2.898133,0.010953,-0.070086,0.000000,-0.070176,0.018144,0.000000
1.320000,-1.766732,-1.343161,-1.438309,0.708353,1.077001,0.009389,0.682948,0.100215,0.053867,-0.248537,-0.700757,0.546752,-2.950694,-0.821453,-3.104910,0.010247,-0.069888,0.000000,-0.071055,0.021446,0.000000
1.330000,-1.759614,-1.332386,-1.438212,0.715170,1.077968,0.009955,0.680317,0.093164,0.059176,-0.277457,-0.709688,0.514741,-2.830975,-0.963604,-3.294400,0.009531,-0.069657,0.000000,-0.072080,0.024651,-0.000000
1.340000,-1.752429,-1.321602,-1.438110,0.721959,1.078864,0.010572,0.677403,0.086016,0.064156,-0.305107,-0.720004,0.480923,-2.696444,-1.098293,-3.466187,0.008804,-0.069395,0.000000,-0.073243,0.027741,0.000000
1.350000,-1.745175,-1.310809,-1.438001,0.728717,1.079688,0.011237,0.674219,0.078759,0.068789,-0.331337,-0.731628,0.445477,-2.547299,-1.225208,-3.619856,0.008066,-0.069103,0.000000,-0.074536,0.030701,0.000000
1.360000,-1.737855,-1.300009,-1.437885,0.735442,1.080439,0.011946,0.670780,0.071379,0.073059,-0.356082,-0.744500,0.408429,-2.381770,-1.343568,-3.750983,0.007313,-0.068782,0.000000,-0.075953,0.033521,0.000000
1.370000,-1.730467,-1.289201,-1.437762,0.742132,1.081115,0.012697,0.667103,0.063865,0.076953,-0.379014,-0.758492,0.370340,-2.202262,-1.453584,-3.863651,0.006546,-0.068433,0.000000,-0.077479,0.036162,0.000000
1.380000,-1.723012,-1.278387,-1.437631,0.748783,1.081716,0.013484,0.663206,0.056206,0.080462,-0.400082,-0.773543,0.331217,-2.009211,-1.554999,-3.957935,0.005763,-0.068059,0.000000,-0.079106,0.038620,0.000000
1.390000,-1.715491,-1.267567,-1.437492,0.755395,1.082239,0.014305,0.659108,0.048391,0.083575,-0.419155,-0.789563,0.291243,-1.803056,-1.647558,-4.033911,0.004964,-0.067661,0.000000,-0.080827,0.040877,0.000000
1.400000,-1.707904,-1.256742,-1.437344,0.761965,1.082683,0.015154,0.654830,0.040412,0.086285,-0.436101,-0.806463,0.250600,-1.584234,-1.731003,-4.091652,0.004147,-0.067242,0.000000,-0.082630,0.042919,-0.000000
1.410000,-1.700252,-1.245913,-1.437189,0.768491,1.083046,0.016029,0.650393,0.032259,0.088584,-0.450869,-0.824186,0.209334,-1.351391,-1.804205,-4.127803,0.003311,-0.066804,0.000000,-0.084509,0.044738,-0.000000
1.420000,-1.692535,-1.235081,-1.437024,0.774972,1.083327,0.016925,0.645821,0.023926,0.090470,-0.463171,-0.842555,0.167949,-1.106977,-1.867887,-4.146290,0.002456,-0.066348,0.000000,-0.086446,0.046301,0.000000
1.430000,-1.684753,-1.224247,-1.436850,0.781407,1.083524,0.017837,0.641138,0.015406,0.091942,-0.472973,-0.861512,0.126466,-0.851648,-1.921902,-4.147610,0.001582,-0.065878,0.000000,-0.088433,0.047604,0.000000
1.440000,-1.676907,-1.213411,-1.436667,0.787795,1.083635,0.018762,0.636370,0.006694,0.093000,-0.480169,-0.880960,0.085053,-0.586062,-1.966100,-4.132258,0.000687,-0.065397,0.000000,-0.090460,0.048634,0.000000
1.450000,-1.668997,-1.202575,-1.436475,0.794135,1.083657,0.019696,0.631544,-0.002215,0.093644,-0.484662,-0.900801,0.043874,-0.310875,-2.000332,-4.100728,-0.000227,-0.064907,0.000000,-0.092516,0.049379,-0.000000
1.460000,-1.661024,-1.191738,-1.436273,0.800426,1.083590,0.020634,0.626686,-0.011324,0.093878,-0.486415,-0.920981,0.002991,-0.025285,-2.023239,-4.051010,-0.001163,-0.064410,0.000000,-0.094596,0.049835,-0.000000
1.470000,-1.652989,-1.180903,-1.436062,0.806668,1.083430,0.021572,0.621825,-0.020635,0.093706,-0.485206,-0.941286,-0.037208,0.268413,-2.036030,-3.986413,-0.002119,-0.063911,0.000000,-0.096677,0.049978,-0.000000
1.480000,-1.644891,-1.170070,-1.435842,0.812862,1.083177,0.022506,0.616991,-0.030150,0.093136,-0.481022,-0.961668,-0.076690,0.569382,-2.038703,-3.907739,-0.003097,-0.063412,0.000000,-0.098754,0.049804,-0.000000
1.490000,-1.636731,-1.159240,-1.435612,0.819008,1.082827,0.023433,0.612215,-0.039868,0.092175,-0.473797,-0.982026,-0.115319,0.876786,-2.031256,-3.815790,-0.004094,-0.062916,0.000000,-0.100817,0.049307,0.000000
1.500000,-1.628511,-1.148414,-1.435373,0.825107,1.082379,0.024349,0.607526,-0.049790,0.090833,-0.463468,-1.002259,-0.152964,1.189791,-2.013688,-3.711370,-0.005113,-0.062427,0.000000,-0.102853,0.048480,0.000000
1.510000,-1.620230,-1.137593,-1.435125,0.831159,1.081830,0.025249,0.602955,-0.059913,0.089119,-0.450025,-1.022320,-0.189560,1.508584,-1.984629,-3.593955,-0.006151,-0.061947,0.000000,-0.104860,0.047321,-0.000000
1.520000,-1.611888,-1.126778,-1.434868,0.837167,1.081180,0.026130,0.598536,-0.070235,0.087046,-0.433329,-1.041980,-0.224867,1.831179,-1.945614,-3.465835,-0.007210,-0.061481,0.000000,-0.106813,0.045817,-0.000000
1.530000,-1.603486,-1.115969,-1.434603,0.843131,1.080425,0.026988,0.594300,-0.080751,0.084626,-0.413392,-1.061200,-0.258844,2.156616,-1.896810,-3.327974,-0.008288,-0.061032,0.000000,-0.108708,0.043967,-0.000000
1.540000,-1.595025,-1.105169,-1.434328,0.849053,1.079564,0.027821,0.590279,-0.091457,0.081874,-0.390191,-1.079884,-0.291397,2.483931,-1.838383,-3.181338,-0.009384,-0.060603,0.000000,-0.110536,0.041771,0.000000
1.550000,-1.586505,-1.094379,-1.434046,0.854937,1.078595,0.028625,0.586507,-0.102347,0.078803,-0.363711,-1.097936,-0.322445,2.812165,-1.770501,-3.026892,-0.010498,-0.060198,0.000000,-0.112287,0.039228,0.000000
1.560000,-1.577927,-1.083598,-1.433756,0.860784,1.077516,0.029396,0.583016,-0.113414,0.075430,-0.333970,-1.115315,-0.351912,3.140908,-1.692006,-2.865595,-0.011629,-0.059820,0.000000,-0.113957,0.036340,0.000000
1.570000,-1.569290,-1.072829,-1.433458,0.866598,1.076326,0.030132,0.579838,-0.124650,0.071770,-0.300921,-1.131805,-0.379737,3.468578,-1.604550,-2.698418,-0.012777,-0.059472,0.000000,-0.115526,0.033103,-0.000000
1.580000,-1.560595,-1.062072,-1.433154,0.872382,1.075023,0.030831,0.577008,-0.136047,0.067841,-0.264605,-1.147377,-0.405864,3.794147,-1.508461,-2.526324,-0.013939,-0.059159,0.000000,-0.116989,0.029522,-0.000000
1.590000,-1.551842,-1.051329,-1.432842,0.878140,1.073605,0.031488,0.574557,-0.147595,0.063659,-0.225048,-1.161947,-0.430250,4.116584,-1.404069,-2.350279,-0.015116,-0.058883,0.000000,-0.118341,0.025601,0.000000
1.600000,-1.543032,-1.040600,-1.432524,0.883875,1.072071,0.032103,0.572518,-0.159282,0.059242,-0.182287,-1.175432,-0.452860,4.434863,-1.291703,-2.171249,-0.016306,-0.058648,0.000000,-0.119572,0.021345,0.000000
1.610000,-1.534165,-1.029888,-1.432200,0.889592,1.070419,0.032673,0.570922,-0.171100,0.054608,-0.136372,-1.187798,-0.473617,4.748049,-1.170604,-1.991509,-0.017507,-0.058457,0.000000,-0.120680,0.016760,-0.000000
1.620000,-1.525240,-1.019192,-1.431871,0.895295,1.068648,0.033195,0.569801,-0.183034,0.049775,-0.087351,-1.198869,-0.492628,5.055005,-1.042320,-1.810553,-0.018719,-0.058314,0.000000,-0.121649,0.011854,0.000000
1.630000,-1.516259,-1.008515,-1.431536,0.900989,1.066758,0.033667,0.569185,-0.195073,0.044762,-0.035296,-1.208622,-0.509826,5.354691,-0.907314,-1.629184,-0.019940,-0.058221,0.000000,-0.122476,0.006634,-0.000000
1.640000,-1.507221,-0.997857,-1.431197,0.906680,1.064746,0.034089,0.569105,-0.207202,0.039585,0.019715,-1.216994,-0.525213,5.646066,-0.766045,-1.448209,-0.021168,-0.058182,0.000000,-0.123156,0.001109,-0.000000
1.650000,-1.498125,-0.987220,-1.430855,0.912373,1.062613,0.034459,0.569589,-0.219408,0.034263,0.077594,-1.223924,-0.538794,5.928088,-0.618976,-1.268430,-0.022402,-0.058200,0.000000,-0.123685,-0.004709,0.000000
1.660000,-1.488973,-0.976605,-1.430508,0.918074,1.060358,0.034774,0.570666,-0.231676,0.028816,0.138256,-1.229384,-0.550491,6.199361,-0.465858,-1.093089,-0.023641,-0.058277,0.000000,-0.124060,-0.010811,-0.000000
1.670000,-1.479764,-0.966014,-1.430159,0.923789,1.057980,0.035035,0.572363,-0.243990,0.023259,0.201559,-1.233257,-0.560556,6.459244,-0.307950,-0.920256,-0.024883,-0.058417,0.000000,-0.124271,-0.017181,-0.000000
1.680000,-1.470497,-0.955446,-1.429808,0.929523,1.055478,0.035239,0.574705,-0.256336,0.017611,0.267400,-1.235529,-0.568907,6.706739,-0.145800,-0.750436,-0.026126,-0.058622,0.000000,-0.124316,-0.023807,0.000000
1.690000,-1.461173,-0.944905,-1.429455,0.935285,1.052853,0.035387,0.577719,-0.268696,0.011887,0.335649,-1.236161,-0.575576,6.940850,0.020043,-0.584136,-0.027369,-0.058894,0.000000,-0.124194,-0.030675,0.000000
1.700000,-1.451791,-0.934390,-1.429100,0.941080,1.050104,0.035477,0.581426,-0.281053,0.006105,0.406169,-1.235118,-0.580603,7.160579,0.189030,-0.421862,-0.028609,-0.059236,0.000000,-0.123901,-0.037769,0.000000
1.710000,-1.442352,-0.923903,-1.428745,0.946916,1.047232,0.035508,0.585850,-0.293392,0.000281,0.478839,-1.232383,-0.583903,7.364179,0.360897,-0.267286,-0.029846,-0.059650,0.000000,-0.123438,-0.045077,-0.000000
1.720000,-1.432853,-0.913445,-1.428390,0.952800,1.044237,0.035482,0.591009,-0.305695,-0.005568,0.553432,-1.227906,-0.585823,7.551495,0.534777,-0.117360,-0.031078,-0.060139,0.000000,-0.122799,-0.052573,0.000000
1.730000,-1.423295,-0.903019,-1.428036,0.958739,1.041118,0.035397,0.596924,-0.317945,-0.011430,0.629812,-1.221682,-0.586266,7.721621,0.710085,0.027797,-0.032302,-0.060703,0.000000,-0.121986,-0.060244,0.000000
1.740000,-1.413678,-0.892623,-1.427683,0.964741,1.037878,0.035253,0.603611,-0.330123,-0.017289,0.707804,-1.213701,-0.585283,7.873651,0.886238,0.168068,-0.033517,-0.061345,0.000000,-0.120998,-0.068071,0.000000
1.750000,-1.404000,-0.882261,-1.427331,0.970813,1.034516,0.035051,0.611085,-0.342213,-0.023131,0.787222,-1.203957,-0.582922,8.006681,1.062653,0.303335,-0.034721,-0.062066,0.000000,-0.119835,-0.076034,-0.000000
1.760000,-1.394261,-0.871934,-1.426982,0.976965,1.031034,0.034791,0.619360,-0.354196,-0.028942,0.867916,-1.192445,-0.579103,8.118664,1.238636,0.430180,-0.035913,-0.062867,0.000000,-0.118499,-0.084119,-0.000000
1.770000,-1.384461,-0.861641,-1.426636,0.983203,1.027433,0.034473,0.628447,-0.366056,-0.034709,0.949577,-1.179182,-0.574187,8.209975,1.413729,0.552187,-0.037090,-0.063749,0.000000,-0.116991,-0.092292,-0.000000
1.780000,-1.374597,-0.851385,-1.426293,0.989537,1.023713,0.034097,0.638354,-0.377774,-0.040421,1.032044,-1.164175,-0.568074,8.279848,1.587359,0.669643,-0.038252,-0.064714,0.000000,-0.115312,-0.100538,0.000000
1.790000,-1.364670,-0.841167,-1.425954,0.995973,1.019878,0.033664,0.649089,-0.389334,-0.046067,1.115100,-1.147442,-0.560808,8.327518,1.758957,0.782834,-0.039396,-0.065762,0.000000,-0.113466,-0.108834,0.000000
1.800000,-1.354677,-0.830988,-1.425620,1.002521,1.015927,0.033176,0.660657,-0.400717,-0.051634,1.198518,-1.129005,-0.552431,8.352218,1.927953,0.892043,-0.040521,-0.066893,0.000000,-0.111456,-0.117158,-0.000000
1.810000,-1.344619,-0.820849,-1.425290,1.009189,1.011864,0.032632,0.673061,-0.411908,-0.057111,1.282127,-1.108877,-0.542874,8.351608,2.093372,0.994884,-0.041625,-0.068107,0.000000,-0.109283,-0.125493,0.000000
1.820000,-1.334493,-0.810751,-1.424967,1.015985,1.007690,0.032034,0.686299,-0.422889,-0.062488,1.365539,-1.087132,-0.532424,8.326691,2.255098,1.094643,-0.042706,-0.069405,0.000000,-0.106955,-0.133799,0.000000
1.830000,-1.324299,-0.800696,-1.424650,1.022918,1.003407,0.031383,0.700370,-0.433645,-0.067756,1.448578,-1.063789,-0.520989,8.276892,2.412611,1.191933,-0.043763,-0.070785,0.000000,-0.104474,-0.142060,-0.000000
1.840000,-1.314034,-0.790683,-1.424340,1.029995,0.999018,0.030679,0.715269,-0.444160,-0.072904,1.530992,-1.038895,-0.508591,8.201639,2.565391,1.287369,-0.044795,-0.072248,0.000000,-0.101847,-0.150250,-0.000000
1.850000,-1.303698,-0.780716,-1.424037,1.037226,0.994525,0.029925,0.730987,-0.454418,-0.077924,1.612524,-1.012499,-0.495246,8.100359,2.712916,1.381564,-0.045800,-0.073793,0.000000,-0.099078,-0.158345,0.000000
1.860000,-1.293289,-0.770793,-1.423741,1.044618,0.989930,0.029121,0.747516,-0.464405,-0.082806,1.692988,-0.984634,-0.480913,7.970522,2.854108,1.473883,-0.046776,-0.075418,0.000000,-0.096172,-0.166327,-0.000000
1.870000,-1.282805,-0.760917,-1.423454,1.052179,0.985237,0.028269,0.764842,-0.474106,-0.087540,1.771932,-0.955413,-0.465712,7.813751,2.989073,1.566340,-0.047723,-0.077123,0.000000,-0.093140,-0.174152,-0.000000
1.880000,-1.272245,-0.751089,-1.423176,1.059917,0.980449,0.027371,0.782949,-0.483509,-0.092117,1.849172,-0.924875,-0.449583,7.629714,3.117360,1.659701,-0.048639,-0.078905,0.000000,-0.089987,-0.181802,0.000000
1.890000,-1.261606,-0.741309,-1.422907,1.067840,0.975568,0.026428,0.801819,-0.492599,-0.096528,1.924435,-0.893089,-0.432513,7.418076,3.238515,1.754731,-0.049522,-0.080762,0.000000,-0.086721,-0.189252,-0.000000
1.900000,-1.250888,-0.731578,-1.422648,1.075956,0.970598,0.025441,0.821431,-0.501367,-0.100764,1.997441,-0.860130,-0.414480,7.178505,3.352087,1.852196,-0.050373,-0.082694,0.000000,-0.083349,-0.196475,0.000000
1.910000,-1.240087,-0.721897,-1.422398,1.084271,0.965542,0.024413,0.841759,-0.509796,-0.104815,2.067880,-0.825884,-0.395494,6.911431,3.452823,1.953771,-0.051189,-0.084696,0.000000,-0.079860,-0.203443,-0.000000
1.920000,-1.229201,-0.712267,-1.422159,1.092794,0.960403,0.023345,0.862779,-0.517881,-0.108670,2.135540,-0.790885,-0.375433,6.615664,3.545659,2.059201,-0.051969,-0.086767,0.000000,-0.076310,-0.210136,-0.000000
1.930000,-1.218230,-0.702689,-1.421932,1.101529,0.955186,0.022240,0.884460,-0.525611,-0.112320,2.200096,-0.754997,-0.354295,6.290775,3.630732,2.169143,-0.052715,-0.088903,0.000000,-0.072684,-0.216525,-0.000000
1.940000,-1.207170,-0.693164,-1.421715,1.110485,0.949892,0.021100,0.906769,-0.532978,-0.115752,2.261257,-0.718296,-0.332032,5.936339,3.708176,2.284250,-0.053423,-0.091102,0.000000,-0.068992,-0.222583,0.000000
1.950000,-1.196020,-0.683692,-1.421510,1.119667,0.944527,0.019926,0.929673,-0.539975,-0.118957,2.318723,-0.680858,-0.308590,5.551928,3.778127,2.405178,-0.054094,-0.093360,0.000000,-0.065241,-0.228283,-0.000000
1.960000,-1.184776,-0.674273,-1.421316,1.129080,0.939094,0.018721,0.953137,-0.546601,-0.121922,2.372826,-0.643438,-0.284034,5.121147,3.857903,2.535791,-0.054728,-0.095674,0.000000,-0.061507,-0.233659,0.000000
1.970000,-1.173437,-0.664910,-1.421135,1.138731,0.933597,0.017488,0.977114,-0.552841,-0.124633,2.421763,-0.604498,-0.257995,4.661492,3.928354,2.673142,-0.055324,-0.098039,0.000000,-0.057639,-0.238539,-0.000000
1.980000,-1.162001,-0.655602,-1.420967,1.148624,0.928039,0.016230,1.001557,-0.558688,-0.127077,2.465965,-0.564909,-0.230548,4.174493,3.987512,2.817491,-0.055881,-0.100451,0.000000,-0.053724,-0.242968,0.000000
1.990000,-1.150464,-0.646349,-1.420811,1.158763,0.922424,0.014948,1.026417,-0.564137,-0.129239,2.505167,-0.524792,-0.201621,3.661677,4.033408,2.969099,-0.056398,-0.102904,0.000000,-0.049775,-0.246923,0.000000
2.000000,-1.138824,-0.637153,-1.420668,1.169153,0.916757,0.013646,1.051643,-0.569183,-0.131104,2.539117,-0.484291,-0.171141,3.124572,4.064074,3.128230,-0.056876,-0.105395,0.000000,-0.045806,-0.250383,-0.000000
2.010000,-1.127080,-0.628014,-1.420538,1.179797,0.911042,0.012327,1.077172,-0.573809,-0.132659,2.566805,-0.442339,-0.139270,2.584325,4.046502,3.301179,-0.057313,-0.107918,0.000000,-0.041712,-0.253249,-0.000000
2.020000,-1.115228,-0.618933,-1.420421,1.190698,0.905282,0.010994,1.102960,-0.578031,-0.133883,2.589849,-0.402027,-0.105363,2.020444,4.013565,3.481433,-0.057711,-0.110467,0.000000,-0.037803,-0.255694,0.000000
2.030000,-1.103265,-0.609909,-1.420318,1.201857,0.899482,0.009650,1.128950,-0.581851,-0.134760,2.607133,-0.362113,-0.069618,1.432054,3.967095,3.668516,-0.058070,-0.113038,0.000000,-0.033955,-0.257606,-0.000000
2.040000,-1.091190,-0.600943,-1.420228,1.213277,0.893646,0.008300,1.155083,-0.585275,-0.135270,2.618406,-0.322724,-0.031971,0.818283,3.908925,3.861951,-0.058390,-0.115626,0.000000,-0.030181,-0.258967,-0.000000
2.050000,-1.078999,-0.592036,-1.420152,1.224959,0.887778,0.006946,1.181297,-0.588307,-0.135393,2.623411,-0.283967,0.007640,0.178256,3.840889,4.061261,-0.058673,-0.118224,0.000000,-0.026492,-0.259754,-0.000000
2.060000,-1.066690,-0.583188,-1.420089,1.236903,0.881882,0.005593,1.207536,-0.590963,-0.135113,2.622490,-0.246527,0.048990,-0.504307,3.779825,4.273088,-0.058921,-0.120829,0.000000,-0.022953,-0.260003,-0.000000
2.070000,-1.054260,-0.574398,-1.420040,1.249110,0.875960,0.004245,1.233724,-0.593240,-0.134406,2.613925,-0.209068,0.092798,-1.212988,3.710722,4.488964,-0.059133,-0.123431,0.000000,-0.019438,-0.259555,0.000000
2.080000,-1.041707,-0.565669,-1.420004,1.261577,0.870018,0.002907,1.259791,-0.595147,-0.133250,2.598147,-0.172340,0.138778,-1.946772,3.633574,4.707538,-0.059310,-0.126027,0.000000,-0.016019,-0.258455,-0.000000
2.090000,-1.029027,-0.556998,-1.419982,1.274305,0.864059,0.001582,1.285662,-0.596690,-0.131623,2.574910,-0.136423,0.186953,-2.704649,3.548376,4.927462,-0.059454,-0.128607,0.000000,-0.012704,-0.256680,0.000000
2.100000,-1.016220,-0.548387,-1.419973,1.287290,0.858086,0.000276,1.311263,-0.597878,-0.129503,2.543977,-0.101399,0.237328,-3.485604,3.455123,5.147386,-0.059564,-0.131167,0.000000,-0.009501,-0.254212,0.000000
2.110000,-1.003281,-0.539836,-1.419976,1.300529,0.852102,-0.001006,1.336522,-0.598727,-0.126872,2.505767,-0.067947,0.289614,-4.304878,3.368952,5.373085,-0.059645,-0.133699,0.000000,-0.006474,-0.251091,-0.000000
2.120000,-0.990208,-0.531345,-1.419993,1.314018,0.846112,-0.002260,1.361351,-0.599240,-0.123704,2.458542,-0.034729,0.344459,-5.143215,3.272861,5.595214,-0.059694,-0.136195,0.000000,-0.003496,-0.247156,-0.000000
2.130000,-0.976999,-0.522914,-1.420022,1.327754,0.840119,-0.003479,1.385665,-0.599425,-0.119976,2.402850,-0.002529,0.401499,-5.997612,3.164993,5.811551,-0.059715,-0.138648,0.000000,-0.000641,-0.242459,0.000000
2.140000,-0.963652,-0.514543,-1.420062,1.341730,0.834125,-0.004657,1.409379,-0.599294,-0.115667,2.338546,0.028526,0.460664,-6.865068,3.043488,6.019875,-0.059708,-0.141050,0.000000,0.002079,-0.236986,0.000000
2.150000,-0.950164,-0.506232,-1.420115,1.355939,0.828134,-0.005790,1.432407,-0.598859,-0.110756,2.265515,0.058289,0.521862,-7.742580,2.906486,6.217963,-0.059674,-0.143394,0.000000,0.004650,-0.230726,-0.000000
2.160000,-0.936533,-0.497980,-1.420178,1.370376,0.822148,-0.006870,1.454653,-0.598120,-0.105225,2.182986,0.087839,0.584766,-8.609856,2.720769,6.409046,-0.059614,-0.145670,0.000000,0.007181,-0.223598,-0.000000
2.170000,-0.922756,-0.489789,-1.420252,1.385030,0.816172,-0.007892,1.476037,-0.597109,-0.099054,2.092525,0.114053,0.649749,-9.483300,2.519677,6.584784,-0.059531,-0.147871,0.000000,0.009362,-0.215762,-0.000000
2.180000,-0.908831,-0.481657,-1.420335,1.399893,0.810207,-0.008849,1.496474,-0.595846,-0.092225,1.993303,0.138188,0.716401,-10.362024,2.305193,6.742287,-0.059427,-0.149990,0.000000,0.011320,-0.207127,0.000000
2.190000,-0.894757,-0.473585,-1.420428,1.414956,0.804256,-0.009734,1.515874,-0.594352,-0.084721,1.885270,0.160119,0.784524,-11.245144,2.079296,6.878666,-0.059305,-0.152018,0.000000,0.013043,-0.197684,0.000000
2.200000,-0.880532,-0.465572,-1.420530,1.430207,0.798321,-0.010541,1.534150,-0.592651,-0.076530,1.768388,0.179742,0.853894,-12.131772,1.843969,6.991033,-0.059167,-0.153948,0.000000,0.014524,-0.187421,-0.000000
2.210000,-0.866153,-0.457618,-1.420639,1.445635,0.792404,-0.011263,1.551220,-0.590772,-0.067640,1.643380,0.196365,0.924233,-13.040078,1.616559,7.077068,-0.059016,-0.155771,0.000000,0.015695,-0.176402,-0.000000
2.220000,-0.851618,-0.449724,-1.420755,1.461227,0.786506,-0.011892,1.566987,-0.588732,-0.058043,1.508439,0.211363,0.995310,-13.947788,1.381798,7.133242,-0.058854,-0.157479,0.000000,0.016694,-0.164438,-0.000000
2.230000,-0.836928,-0.441888,-1.420877,1.476970,0.780629,-0.012421,1.581359,-0.586553,-0.047733,1.364437,0.223977,1.066788,-14.851682,1.139785,7.156598,-0.058683,-0.159063,0.000000,0.017447,-0.151604,0.000000
2.240000,-0.822079,-0.434111,-1.421003,1.492849,0.774775,-0.012844,1.594246,-0.584260,-0.036707,1.211429,0.234135,1.138323,-15.748543,0.890621,7.144175,-0.058506,-0.160514,0.000000,0.017949,-0.137889,0.000000
2.250000,-0.807070,-0.426392,-1.421133,1.508849,0.768945,-0.013153,1.605558,-0.581879,-0.024967,1.049501,0.241766,1.209542,-16.635151,0.634404,7.093016,-0.058325,-0.161822,0.000000,0.018195,-0.123287,-0.000000
2.260000,-0.791901,-0.418732,-1.421266,1.524954,0.763138,-0.013341,1.615208,-0.579431,-0.012516,0.878869,0.247055,1.280263,-17.510772,0.364776,6.994635,-0.058143,-0.162981,0.000000,0.018204,-0.107805,-0.000000
2.270000,-0.776571,-0.411129,-1.421399,1.541148,0.757356,-0.013401,1.623106,-0.576947,0.000634,0.699453,0.249329,1.349535,-18.369398,0.089084,6.852276,-0.057962,-0.163979,0.000000,0.017912,-0.091408,-0.000000
2.280000,-0.761078,-0.403585,-1.421533,1.557410,0.751599,-0.013326,1.629168,-0.574453,0.014469,0.511550,0.248820,1.417154,-19.207505,-0.191781,6.663658,-0.057785,-0.164809,0.000000,0.017344,-0.074107,0.000000
2.290000,-0.745422,-0.396097,-1.421665,1.573725,0.745867,-0.013109,1.633310,-0.571980,0.028970,0.315383,0.245480,1.482647,-20.021570,-0.476930,6.426499,-0.057616,-0.165461,0.000000,0.016496,-0.055903,-0.000000
2.300000,-0.729603,-0.388667,-1.421795,1.590070,0.740159,-0.012744,1.635449,-0.569553,0.044113,0.111210,0.239270,1.545515,-20.808070,-0.765473,6.138516,-0.057456,-0.165926,0.000000,0.015365,-0.036796,-0.000000
2.310000,-0.713621,-0.381294,-1.421920,1.606427,0.734475,-0.012225,1.635509,-0.567201,0.059875,-0.100606,0.230452,1.605740,-21.565232,-1.063850,5.784800,-0.057309,-0.166195,0.000000,0.013978,-0.016806,-0.000000
2.320000,-0.697475,-0.373978,-1.422039,1.622773,0.728815,-0.011545,1.633413,-0.564954,0.076215,-0.319900,0.218318,1.661595,-22.287568,-1.362944,5.377243,-0.057178,-0.166260,0.000000,0.012269,0.004097,0.000000
2.330000,-0.681166,-0.366718,-1.422150,1.639087,0.723176,-0.010699,1.629088,-0.562844,0.093093,-0.546229,0.203197,1.713103,-22.971340,-1.660966,4.915110,-0.057065,-0.166110,0.000000,0.010270,0.025885,-0.000000
2.340000,-0.664693,-0.359514,-1.422252,1.655347,0.717557,-0.009682,1.622466,-0.560900,0.110461,-0.779186,0.185108,1.759713,-23.612811,-1.956129,4.397663,-0.056973,-0.165738,0.000000,0.007985,0.048546,-0.000000
2.350000,-0.648059,-0.352367,-1.422343,1.671529,0.711957,-0.008488,1.613483,-0.559152,0.128269,-1.018331,0.164090,1.800869,-24.208244,-2.246645,3.824169,-0.056906,-0.165135,0.000000,0.005419,0.072061,-0.000000
2.360000,-0.631263,-0.345275,-1.422421,1.687609,0.706374,-0.007115,1.602080,-0.557630,0.146466,-1.263176,0.140021,1.836749,-24.754138,-2.526294,3.175156,-0.056866,-0.164292,0.000000,0.002555,0.096395,0.000000
2.370000,-0.614307,-0.338239,-1.422485,1.703562,0.700804,-0.005558,1.588202,-0.556361,0.164981,-1.513225,0.113391,1.865025,-25.246489,-2.798263,2.470917,-0.056856,-0.163201,0.000000,-0.000545,0.121553,-0.000000
2.380000,-0.597192,-0.331259,-1.422532,1.719364,0.695245,-0.003815,1.571800,-0.555371,0.183742,-1.767914,0.084086,1.885988,-25.681530,-3.061308,1.713011,-0.056878,-0.161854,0.000000,-0.003896,0.147487,-0.000000
2.390000,-0.579921,-0.324334,-1.422561,1.734990,0.689695,-0.001883,1.552831,-0.554688,0.202675,-2.026652,0.052199,1.899111,-26.055495,-3.314185,0.902995,-0.056935,-0.160244,0.000000,-0.007486,0.174159,-0.000000
2.400000,-0.562493,-0.317465,-1.422569,1.750412,0.684151,0.000239,1.531256,-0.554335,0.221697,-2.288808,0.017840,1.903880,-26.364617,-3.555648,0.042428,-0.057028,-0.158363,0.000000,-0.011302,0.201522,-0.000000
2.410000,-0.544913,-0.310651,-1.422555,1.765606,0.678607,0.002551,1.507041,-0.554337,0.240732,-2.554118,-0.018705,1.900644,-26.594976,-3.788654,-0.888540,-0.057161,-0.156205,0.000000,-0.015319,0.229550,0.000000
2.420000,-0.527182,-0.303893,-1.422517,1.780544,0.673062,0.005053,1.480167,-0.554717,0.259678,-2.820924,-0.057697,1.886915,-26.754202,-4.007242,-1.864322,-0.057335,-0.153763,0.000000,-0.019546,0.258118,-0.000000
2.430000,-0.509303,-0.297190,-1.422453,1.795200,0.667512,0.007744,1.450618,-0.555498,0.278437,-3.088956,-0.098796,1.863222,-26.839771,-4.209653,-2.880737,-0.057553,-0.151032,0.000000,-0.023953,0.287187,0.000000
2.440000,-0.491279,-0.290543,-1.422362,1.809548,0.661951,0.010621,1.418386,-0.556699,0.296908,-3.357465,-0.141831,1.829179,-26.849161,-4.394128,-3.933607,-0.057815,-0.148008,0.000000,-0.028517,0.316681,-0.000000
2.450000,-0.473113,-0.283951,-1.422240,1.823559,0.656376,0.013681,1.383470,-0.558340,0.314985,-3.625677,-0.186613,1.784442,-26.779848,-4.558906,-5.018751,-0.058124,-0.144687,0.000000,-0.033215,0.346513,-0.000000
2.460000,-0.454809,-0.277415,-1.422088,1.837208,0.650783,0.016919,1.345871,-0.560436,0.332569,-3.893285,-0.232847,1.729538,-26.616844,-4.704504,-6.152901,-0.058480,-0.141065,0.000000,-0.038015,0.376627,0.000000
2.470000,-0.436370,-0.270935,-1.421902,1.850468,0.645166,0.020330,1.305611,-0.563002,0.349538,-4.158296,-0.280523,1.662247,-26.371616,-4.826608,-7.308407,-0.058884,-0.137141,0.000000,-0.042898,0.406828,0.000000
2.480000,-0.417801,-0.264512,-1.421680,1.863312,0.639521,0.023907,1.262715,-0.566050,0.365775,-4.420440,-0.329294,1.583321,-26.043167,-4.923182,-8.478527,-0.059338,-0.132914,0.000000,-0.047828,0.437045,0.000000
2.490000,-0.399106,-0.258145,-1.421423,1.875714,0.633843,0.027642,1.217215,-0.569590,0.381165,-4.678879,-0.378895,1.492650,-25.630502,-4.992186,-9.656522,-0.059841,-0.128385,0.000000,-0.052769,0.467157,0.000000
2.500000,-0.380288,-0.251835,-1.421127,1.887648,0.628128,0.031527,1.169152,-0.573630,0.395589,-4.932766,-0.429039,1.390187,-25.132623,-5.031583,-10.835652,-0.060393,-0.123555,0.000000,-0.057682,0.497033,0.000000
2.510000,-0.361354,-0.245583,-1.420792,1.899088,0.622369,0.035550,1.118573,-0.578178,0.408936,-5.181684,-0.479966,1.276549,-24.537430,-5.025573,-12.024176,-0.060995,-0.118427,0.000000,-0.062589,0.526574,-0.000000
2.520000,-0.342308,-0.239388,-1.420416,1.910011,0.616563,0.039701,1.065540,-0.583228,0.421080,-5.423724,-0.530059,1.150420,-23.856390,-4.987564,-13.198518,-0.061644,-0.113006,0.000000,-0.067301,0.555541,0.000000
2.530000,-0.323156,-0.233251,-1.419997,1.920391,0.610703,0.043968,1.010122,-0.588777,0.431905,-5.658526,-0.579610,1.012655,-23.089863,-4.917206,-14.350100,-0.062340,-0.107297,0.000000,-0.071842,0.583823,-0.000000
2.540000,-0.303902,-0.227174,-1.419536,1.930206,0.604785,0.048335,0.952396,-0.594818,0.441296,-5.885238,-0.628294,0.863523,-22.238212,-4.814145,-15.470347,-0.063080,-0.101309,0.000000,-0.076170,0.611263,-0.000000
2.550000,-0.284554,-0.221156,-1.419030,1.939432,0.598805,0.052788,0.892447,-0.601339,0.449139,-6.103008,-0.675782,0.703381,-21.301800,-4.678028,-16.550681,-0.063863,-0.095051,0.000000,-0.080239,0.637696,-0.000000
2.560000,-0.265116,-0.215198,-1.418480,1.948048,0.592757,0.057312,0.830357,-0.608332,0.455328,-6.312036,-0.722148,0.532657,-20.254621,-4.498260,-17.582174,-0.064685,-0.088532,0.000000,-0.084050,0.663068,-0.000000
2.570000,-0.245595,-0.209301,-1.417884,1.956033,0.586637,0.061889,0.766243,-0.615775,0.459759,-6.509008,-0.766096,0.351912,-19.126635,-4.285986,-18.556644,-0.065543,-0.081766,0.000000,-0.087456,0.686947,-0.000000
2.580000,-0.225997,-0.203466,-1.417242,1.963366,0.580440,0.066501,0.700216,-0.623647,0.462335,-6.694312,-0.807763,0.161743,-17.921432,-4.042106,-19.465557,-0.066433,-0.074768,0.000000,-0.090465,0.709295,0.000000
2.590000,-0.206330,-0.197693,-1.416554,1.970031,0.574163,0.071129,0.632398,-0.631922,0.462965,-6.867192,-0.846836,-0.037152,-16.642605,-3.767524,-20.300378,-0.067350,-0.067555,0.000000,-0.093040,0.729953,-0.000000
2.600000,-0.186599,-0.191983,-1.415820,1.976009,0.567801,0.075754,0.562916,-0.640574,0.461565,-7.026930,-0.883014,-0.243989,-15.293744,-3.463139,-21.052575,-0.068292,-0.060142,0.000000,-0.095146,0.748770,-0.000000
2.610000,-0.166812,-0.186337,-1.415039,1.981284,0.561350,0.080354,0.491895,-0.649573,0.458053,-7.173787,-0.916153,-0.458638,-13.854645,-3.126066,-21.694962,-0.069252,-0.052550,0.000000,-0.096762,0.765707,0.000000
2.620000,-0.146976,-0.180756,-1.414213,1.985842,0.554808,0.084908,0.419489,-0.658885,0.452372,-7.304886,-0.945613,-0.678397,-12.355608,-2.761458,-22.239940,-0.070225,-0.044799,0.000000,-0.097835,0.780384,-0.000000
2.630000,-0.127098,-0.175241,-1.413341,1.989670,0.548172,0.089394,0.345848,-0.668473,0.444469,-7.420721,-0.971295,-0.903092,-10.803140,-2.370681,-22.681260,-0.071207,-0.036911,0.000000,-0.098354,0.792807,-0.000000
2.640000,-0.107185,-0.169793,-1.412425,1.992756,0.541438,0.093789,0.271128,-0.678298,0.434298,-7.520792,-0.992944,-1.131655,-9.203744,-1.955100,-23.012672,-0.072190,-0.028910,0.000000,-0.098302,0.802878,-0.000000
2.650000,-0.087245,-0.164413,-1.411466,1.995090,0.534605,0.098072,0.195487,-0.688318,0.421826,-7.604661,-1.010318,-1.362958,-7.563926,-1.516081,-23.227924,-0.073171,-0.020820,0.000000,-0.097667,0.810522,-0.000000
2.660000,-0.067286,-0.159101,-1.410464,1.996663,0.527671,0.102219,0.119083,-0.698495,0.407019,-7.672521,-1.023703,-1.597162,-5.875967,-1.042069,-23.286513,-0.074142,-0.012664,0.000000,-0.096482,0.815740,-0.000000
2.670000,-0.047314,-0.153859,-1.409422,1.997469,0.520635,0.106205,0.042093,-0.708776,0.389883,-7.722730,-1.031673,-1.829803,-4.162338,-0.548932,-23.220637,-0.075098,-0.004468,0.000000,-0.094642,0.818351,-0.000000
2.680000,-0.027339,-0.148689,-1.408341,1.997504,0.513495,0.110009,-0.035314,-0.719111,0.370427,-7.755709,-1.034628,-2.061153,-2.431285,-0.039617,-23.028243,-0.076033,0.003741,0.000000,-0.092202,0.818417,-0.000000
2.690000,-0.007367,-0.143590,-1.407222,1.996762,0.506253,0.113606,-0.112963,-0.729451,0.348669,-7.771325,-1.032421,-2.289939,-0.691055,0.482927,-22.707274,-0.076940,0.011939,0.000000,-0.089170,0.815950,-0.000000
2.700000,0.012594,-0.138564,-1.406069,1.995244,0.498907,0.116974,-0.190682,-0.739742,0.324641,-7.769527,-1.024935,-2.514863,1.050106,1.015753,-22.255675,-0.077815,0.020100,0.000000,-0.085565,0.810987,0.000000
2.710000,0.032536,-0.133612,-1.404884,1.992949,0.491458,0.120092,-0.268294,-0.749935,0.298371,-7.750213,-1.012365,-2.736267,2.780551,1.563073,-21.629536,-0.078650,0.028200,0.000000,-0.081422,0.803567,0.000000
2.720000,0.052450,-0.128735,-1.403668,1.989879,0.483909,0.122935,-0.345629,-0.759971,0.269939,-7.713815,-0.993982,-2.948890,4.495849,2.113902,-20.873781,-0.079441,0.036213,0.000000,-0.076731,0.793815,-0.000000
2.730000,0.072331,-0.123934,-1.402426,1.986038,0.476260,0.125484,-0.422514,-0.769796,0.239420,-7.660373,-0.970088,-3.153321,6.188170,2.664418,-19.991481,-0.080183,0.044119,0.000000,-0.071543,0.781814,-0.000000
2.740000,0.092169,-0.119210,-1.401160,1.981431,0.468514,0.127717,-0.498780,-0.779355,0.206904,-7.590154,-0.940707,-3.348308,7.849682,3.210795,-18.985705,-0.080871,0.051893,0.000000,-0.065893,0.767681,-0.000000
2.750000,0.111957,-0.114564,-1.399873,1.976065,0.460673,0.129615,-0.574262,-0.788592,0.172490,-7.503508,-0.905899,-3.532634,9.472555,3.749210,-17.859523,-0.081499,0.059516,0.000000,-0.059822,0.751552,-0.000000
2.760000,0.131687,-0.109997,-1.398569,1.969949,0.452743,0.131161,-0.648787,-0.797450,0.136274,-7.399958,-0.865339,-3.706606,11.026233,4.265165,-16.578174,-0.082065,0.066967,0.000000,-0.053317,0.733470,-0.000000
2.770000,0.151353,-0.105510,-1.397251,1.963093,0.444726,0.132336,-0.722211,-0.805882,0.098402,-7.282140,-0.820167,-3.865521,12.528394,4.766816,-15.187190,-0.082565,0.074229,0.000000,-0.046555,0.713838,-0.000000
2.780000,0.170947,-0.101103,-1.395923,1.955508,0.436627,0.133124,-0.794381,-0.813837,0.059012,-7.149579,-0.770059,-4.010010,13.973989,5.251645,-13.694273,-0.082995,0.081287,0.000000,-0.039518,0.692707,-0.000000
2.790000,0.190461,-0.096777,-1.394590,1.947210,0.428451,0.133512,-0.865155,-0.821267,0.018253,-7.002866,-0.715198,-4.139092,15.357970,5.717134,-12.107127,-0.083354,0.088127,0.000000,-0.032251,0.670246,0.000000
2.800000,0.209889,-0.092534,-1.393254,1.938211,0.420203,0.133485,-0.934393,-0.828126,-0.023715,-6.842642,-0.655789,-4.251864,16.675290,6.160767,-10.433452,-0.083640,0.094735,0.000000,-0.024797,0.646624,0.000000
2.810000,0.229223,-0.088374,-1.391921,1.928527,0.411890,0.133034,-1.001952,-0.834365,-0.066737,-6.668444,-0.591767,-4.348483,17.891718,6.572515,-8.656072,-0.083849,0.101100,0.000000,-0.017163,0.621887,0.000000
2.820000,0.248457,-0.084297,-1.390595,1.918177,0.403518,0.132148,-1.067723,-0.839948,-0.110625,-6.483749,-0.524090,-4.425869,19.034961,6.958292,-6.810615,-0.083983,0.107214,0.000000,-0.009479,0.596503,0.000000
2.830000,0.267584,-0.080303,-1.389280,1.907179,0.395094,0.130819,-1.131591,-0.844835,-0.155192,-6.287993,-0.452693,-4.484504,20.103546,7.316499,-4.907829,-0.084039,0.113070,0.000000,-0.001740,0.570492,0.000000
