time,x,y,z,vx,vy,vz,ax,ay,az,jx,jy,jz,sx,sy,sz,roll,pitch,yaw,p,q,r
0.000000,-2.462413,-1.655391,-1.472566,0.004278,0.022625,0.000646,-0.308466,-0.883326,-0.027953,3.644638,17.694243,0.066341,19.377013,-187.775295,20.779586,-0.089504,0.031344,0.000000,1.781691,-0.368411,0.000000
0.010000,-2.462386,-1.655206,-1.472561,0.001379,0.014646,0.000373,-0.271130,-0.715329,-0.026295,3.814919,15.948192,0.261011,14.758574,-161.889392,18.188130,-0.072568,0.027557,0.000000,1.609536,-0.385798,0.000000
0.020000,-2.462385,-1.655093,-1.472559,-0.001139,0.008264,0.000126,-0.232314,-0.563544,-0.022816,3.941357,14.447590,0.430764,10.604416,-138.663085,15.794959,-0.057234,0.023622,0.000000,1.461066,-0.398925,-0.000000
0.030000,-2.462407,-1.655036,-1.472559,-0.003264,0.003329,-0.000078,-0.192434,-0.425646,-0.017756,4.028475,13.166510,0.577543,6.890320,-117.962684,13.591678,-0.043275,0.019578,0.000000,1.334078,-0.408218,0.000000
0.040000,-2.462449,-1.655022,-1.472560,-0.004986,-0.000288,-0.000225,-0.151861,-0.299564,-0.011335,4.080550,12.080362,0.703203,3.592067,-99.654500,11.569893,-0.030488,0.015461,0.000000,1.226346,-0.414079,0.000000
0.050000,-2.462505,-1.655038,-1.472563,-0.006300,-0.002696,-0.000301,-0.110926,-0.183466,-0.003756,4.101621,11.165892,0.809518,0.685438,-83.604842,9.721210,-0.018691,0.011303,0.000000,1.135680,-0.416888,-0.000000
0.060000,-2.462573,-1.655072,-1.472566,-0.007204,-0.003985,-0.000297,-0.069919,-0.075747,0.004796,4.095483,10.401183,0.898176,-1.853785,-69.680022,8.037234,-0.007725,0.007131,0.000000,1.059961,-0.416998,0.000000
0.070000,-2.462648,-1.655114,-1.472568,-0.007699,-0.004234,-0.000203,-0.029095,0.024988,0.014154,4.065690,9.765654,0.970783,-4.049822,-57.746348,6.509571,0.002551,0.002970,0.000000,0.997163,-0.414743,-0.000000
0.080000,-2.462726,-1.655154,-1.472570,-0.007787,-0.003505,-0.000011,0.011327,0.119932,0.024163,4.015550,9.240064,1.028861,-5.926890,-47.670131,5.129827,0.012255,-0.001157,0.000000,0.945368,-0.410433,-0.000000
0.090000,-2.462802,-1.655181,-1.472568,-0.007474,-0.001851,0.000282,0.051158,0.210096,0.034687,3.948134,8.806506,1.073845,-7.509210,-39.317682,3.889606,0.021489,-0.005233,0.000000,0.902779,-0.404359,-0.000000
0.100000,-2.462874,-1.655188,-1.472564,-0.006767,0.000684,0.000684,0.090241,0.296314,0.045601,3.866268,8.448410,1.107090,-8.820998,-32.555309,2.780515,0.030336,-0.009242,0.000000,0.867719,-0.396787,0.000000
0.110000,-2.462936,-1.655165,-1.472554,-0.005672,0.004064,0.001195,0.128444,0.379264,0.056794,3.772535,8.150545,1.129864,-9.886475,-27.249324,1.794159,0.038863,-0.013169,0.000000,0.838644,-0.387965,0.000000
0.120000,-2.462986,-1.655104,-1.472539,-0.004201,0.008260,0.001820,0.165660,0.459479,0.068168,3.669279,7.899015,1.143354,-10.729860,-23.266036,0.922144,0.047124,-0.017003,0.000000,0.814138,-0.378118,0.000000
0.130000,-2.463019,-1.654997,-1.472518,-0.002363,0.013246,0.002559,0.201805,0.537357,0.079634,3.558598,7.681261,1.148660,-11.375370,-20.471756,0.156076,0.055157,-0.020737,0.000000,0.792921,-0.367451,0.000000
0.140000,-2.463032,-1.654836,-1.472488,-0.000169,0.019000,0.003413,0.236814,0.613179,0.091117,3.442350,7.486062,1.146801,-11.847224,-18.732793,-0.512441,0.062989,-0.024362,0.000000,0.773846,-0.356148,-0.000000
0.150000,-2.463022,-1.654614,-1.472449,0.002370,0.025503,0.004381,0.270639,0.687120,0.102549,3.322151,7.303533,1.138709,-12.169643,-17.915459,-1.091800,0.070638,-0.027872,0.000000,0.755906,-0.344368,0.000000
0.160000,-2.462984,-1.654324,-1.472400,0.005240,0.032737,0.005463,0.303248,0.759263,0.113873,3.199375,7.125126,1.125234,-12.366843,-17.886061,-1.590396,0.078108,-0.031265,0.000000,0.738228,-0.332252,-0.000000
0.170000,-2.462916,-1.653957,-1.472339,0.008430,0.040683,0.006658,0.334622,0.829612,0.125039,3.075151,6.943631,1.107142,-12.463044,-18.510912,-2.016624,0.085401,-0.034537,0.000000,0.720082,-0.319914,-0.000000
0.180000,-2.462814,-1.653508,-1.472266,0.011928,0.049323,0.007963,0.364749,0.898106,0.136003,2.950370,6.753173,1.085115,-12.482466,-19.656321,-2.378877,0.092506,-0.037686,0.000000,0.700873,-0.307449,-0.000000
0.190000,-2.462676,-1.652969,-1.472180,0.015721,0.058638,0.009377,0.393629,0.964631,0.146730,2.825677,6.549215,1.059750,-12.449325,-21.188598,-2.685550,0.099413,-0.040712,0.000000,0.680149,-0.294926,-0.000000
0.200000,-2.462499,-1.652333,-1.472078,0.019797,0.068608,0.010897,0.421265,1.029035,0.157188,2.701478,6.328557,1.031561,-12.387843,-22.974054,-2.945038,0.106103,-0.043614,0.000000,0.657597,-0.282390,-0.000000
0.210000,-2.462279,-1.651594,-1.471961,0.024140,0.079220,0.012520,0.447757,1.090817,0.167358,2.586821,6.059615,1.001435,-12.546712,-24.128323,-3.177255,0.112525,-0.046402,0.000000,0.630003,-0.270780,-0.000000
0.220000,-2.462015,-1.650746,-1.471828,0.028745,0.090427,0.014243,0.472996,1.150187,0.177210,2.460589,5.812219,0.968636,-12.698190,-25.360310,-3.377664,0.118699,-0.049063,0.000000,0.604526,-0.257922,-0.000000
0.230000,-2.461704,-1.649784,-1.471676,0.033596,0.102215,0.016063,0.496964,1.207020,0.186724,2.332893,5.552289,0.933964,-12.839008,-26.628245,-3.553250,0.124611,-0.051596,0.000000,0.577693,-0.244862,0.000000
0.240000,-2.461342,-1.648700,-1.471506,0.038680,0.114558,0.017976,0.519649,1.261190,0.195884,2.203856,5.279674,0.897631,-12.965897,-27.890356,-3.710997,0.130248,-0.053998,0.000000,0.549506,-0.231617,0.000000
0.250000,-2.460929,-1.647491,-1.471316,0.043984,0.127430,0.019980,0.541037,1.312572,0.204672,2.073632,4.994641,0.859780,-13.075590,-29.104872,-3.857888,0.135597,-0.056267,0.000000,0.520004,-0.218205,-0.000000
0.260000,-2.460462,-1.646150,-1.471106,0.049496,0.140803,0.022068,0.561118,1.360926,0.213087,1.942408,4.686996,0.821646,-13.164729,-29.955257,-4.030218,0.140632,-0.058402,0.000000,0.488179,-0.204658,0.000000
0.270000,-2.459939,-1.644673,-1.470875,0.055202,0.154642,0.024240,0.579883,1.406285,0.221099,1.810413,4.383594,0.780486,-13.230147,-30.708150,-4.202071,0.145358,-0.060401,0.000000,0.456738,-0.190984,-0.000000
0.280000,-2.459357,-1.643056,-1.470621,0.061089,0.168919,0.026489,0.597325,1.448575,0.228691,1.677895,4.073185,0.737595,-13.268585,-31.355428,-4.376842,0.149765,-0.062262,0.000000,0.424557,-0.177218,-0.000000
0.290000,-2.458716,-1.641293,-1.470345,0.067144,0.183603,0.028812,0.613440,1.487729,0.235845,1.545142,3.756865,0.692928,-13.276787,-31.888965,-4.557926,0.153847,-0.063985,0.000000,0.391753,-0.163392,0.000000
0.300000,-2.458014,-1.639382,-1.470045,0.073354,0.198663,0.031204,0.628228,1.523696,0.242543,1.412471,3.435812,0.646404,-13.251496,-32.300634,-4.748717,0.157598,-0.065569,0.000000,0.358447,-0.149540,-0.000000
0.310000,-2.457249,-1.637319,-1.469720,0.079705,0.214067,0.033661,0.641680,1.556394,0.248780,1.279209,3.107566,0.599175,-13.163549,-32.488369,-4.984562,0.161011,-0.067012,0.000000,0.324411,-0.135602,0.000000
0.320000,-2.456419,-1.635100,-1.469371,0.086183,0.229781,0.036178,0.653816,1.585843,0.254519,1.148167,2.782272,0.548098,-13.038766,-32.549488,-5.232992,0.164086,-0.068317,0.000000,0.290622,-0.121846,0.000000
0.330000,-2.455525,-1.632722,-1.468997,0.092777,0.245773,0.038749,0.664648,1.612039,0.259734,1.018557,2.456987,0.494475,-12.877062,-32.487370,-5.493487,0.166823,-0.069483,0.000000,0.256799,-0.108201,0.000000
0.340000,-2.454564,-1.630184,-1.468596,0.099472,0.262011,0.041371,0.674193,1.634987,0.264399,0.890749,2.132925,0.438189,-12.678350,-32.305392,-5.765532,0.169222,-0.070512,0.000000,0.223063,-0.094706,-0.000000
0.350000,-2.453535,-1.627482,-1.468169,0.106256,0.278462,0.044036,0.682470,1.654706,0.268488,0.765113,1.811267,0.379128,-12.442546,-32.006932,-6.048607,0.171285,-0.071405,0.000000,0.189527,-0.081398,-0.000000
0.360000,-2.452438,-1.624614,-1.467715,0.113117,0.295095,0.046738,0.689497,1.671212,0.271982,0.641380,1.492067,0.318079,-12.153344,-31.567689,-6.364845,0.173013,-0.072164,0.000000,0.156208,-0.068259,0.000000
0.370000,-2.451272,-1.621579,-1.467234,0.120042,0.311876,0.049473,0.695308,1.684563,0.274839,0.521440,1.179032,0.252818,-11.828864,-31.022108,-6.688305,0.174410,-0.072792,0.000000,0.123439,-0.055466,-0.000000
0.380000,-2.450037,-1.618376,-1.466726,0.127020,0.328776,0.052233,0.699937,1.694813,0.277028,0.404914,0.871957,0.184300,-11.471008,-30.376955,-7.015695,0.175483,-0.073291,0.000000,0.091214,-0.042989,0.000000
0.390000,-2.448732,-1.615003,-1.466190,0.134037,0.345762,0.055011,0.703419,1.702026,0.278514,0.292125,0.571803,0.112502,-11.081676,-29.638996,-7.343724,0.176237,-0.073666,0.000000,0.059627,-0.030863,-0.000000
0.400000,-2.447356,-1.611461,-1.465625,0.141084,0.362806,0.057800,0.705793,1.706275,0.279267,0.183379,0.279464,0.037434,-10.662770,-28.814997,-7.669102,0.176678,-0.073919,0.000000,0.028770,-0.019123,-0.000000
0.410000,-2.445910,-1.607747,-1.465033,0.148150,0.379878,0.060594,0.707098,1.707642,0.279256,0.078713,-0.004395,-0.040552,-10.209914,-27.907635,-7.996336,0.176815,-0.074056,0.000000,-0.001284,-0.007777,-0.000000
0.420000,-2.444393,-1.603863,-1.464414,0.155223,0.396950,0.063383,0.707383,1.706219,0.278445,-0.021016,-0.278631,-0.122110,-9.732052,-26.928267,-8.313381,0.176656,-0.074079,0.000000,-0.030428,0.003090,-0.000000
0.430000,-2.442806,-1.599808,-1.463766,0.162294,0.413994,0.066160,0.706694,1.702103,0.276803,-0.115853,-0.542745,-0.206771,-9.231855,-25.884161,-8.615990,0.176210,-0.073994,0.000000,-0.058600,0.013473,-0.000000
0.440000,-2.441147,-1.595583,-1.463090,0.169354,0.430983,0.068916,0.705083,1.695399,0.274300,-0.205588,-0.796123,-0.294368,-8.711993,-24.782585,-8.899915,0.175487,-0.073807,0.000000,-0.085729,0.023349,-0.000000
0.450000,-2.439419,-1.591189,-1.462388,0.176393,0.447894,0.071643,0.702600,1.686218,0.270907,-0.290037,-1.038229,-0.384693,-8.175133,-23.630806,-9.160911,0.174499,-0.073522,0.000000,-0.111751,0.032691,0.000000
0.460000,-2.437620,-1.586626,-1.461658,0.183403,0.464700,0.074331,0.699300,1.674676,0.266595,-0.369054,-1.268405,-0.477752,-7.623676,-22.440909,-9.388265,0.173256,-0.073145,0.000000,-0.136591,0.041483,-0.000000
0.470000,-2.435751,-1.581895,-1.460901,0.190376,0.481379,0.076972,0.695238,1.660890,0.261345,-0.442483,-1.486711,-0.572645,-7.060593,-21.214755,-9.584987,0.171771,-0.072682,0.000000,-0.160232,0.049697,-0.000000
0.480000,-2.433812,-1.576999,-1.460118,0.197305,0.497911,0.079555,0.690469,1.644983,0.255136,-0.510236,-1.692602,-0.669338,-6.488588,-19.959020,-9.747625,0.170056,-0.072138,0.000000,-0.182608,0.057320,-0.000000
0.490000,-2.431805,-1.571938,-1.459310,0.204184,0.514272,0.082071,0.685052,1.627081,0.247953,-0.572234,-1.885815,-0.767472,-5.910362,-18.680382,-9.872722,0.168123,-0.071521,0.000000,-0.203676,0.064339,-0.000000
0.500000,-2.429729,-1.566714,-1.458477,0.211004,0.530446,0.084511,0.679044,1.607310,0.239783,-0.628431,-2.066155,-0.866655,-5.328617,-17.385518,-9.956825,0.165987,-0.070835,0.000000,-0.223401,0.070744,0.000000
0.510000,-2.427585,-1.561329,-1.457620,0.217763,0.546413,0.086864,0.672504,1.585805,0.230611,-0.678679,-2.233122,-0.967094,-4.749208,-16.090482,-9.980469,0.163660,-0.070088,0.000000,-0.241726,0.076517,0.000000
0.520000,-2.425374,-1.555786,-1.456740,0.224453,0.562157,0.089120,0.665490,1.562691,0.220441,-0.723280,-2.387533,-1.066826,-4.171298,-14.791426,-9.958170,0.161157,-0.069286,0.000000,-0.258690,0.081673,0.000000
0.530000,-2.423096,-1.550087,-1.455838,0.231071,0.577662,0.091269,0.658058,1.538097,0.209276,-0.762118,-2.528956,-1.166100,-3.597205,-13.493881,-9.888433,0.158491,-0.068435,0.000000,-0.274247,0.086202,0.000000
0.540000,-2.420753,-1.544234,-1.454915,0.237613,0.592914,0.093302,0.650266,1.512155,0.197122,-0.795244,-2.657434,-1.264432,-3.029245,-12.203376,-9.769763,0.155676,-0.067542,0.000000,-0.288387,0.090104,-0.000000
0.550000,-2.418344,-1.538230,-1.453973,0.244075,0.607901,0.095208,0.642172,1.484992,0.183992,-0.822731,-2.773065,-1.361327,-2.469734,-10.925439,-9.600665,0.152728,-0.066613,0.000000,-0.301106,0.093384,0.000000
0.560000,-2.415871,-1.532077,-1.453012,0.250455,0.622610,0.096979,0.633832,1.456741,0.169894,-0.844469,-2.875506,-1.457031,-1.926174,-9.678171,-9.360475,0.149660,-0.065655,0.000000,-0.312368,0.096032,-0.000000
0.570000,-2.413335,-1.525778,-1.452034,0.256751,0.637032,0.098603,0.625300,1.427523,0.154860,-0.861065,-2.966141,-1.549222,-1.395061,-8.452990,-9.069216,0.146485,-0.064673,0.000000,-0.322277,0.098096,0.000000
0.580000,-2.410737,-1.519337,-1.451040,0.262961,0.651158,0.100073,0.616628,1.397459,0.138920,-0.872418,-3.044652,-1.638248,-0.878078,-7.253889,-8.727741,0.143219,-0.063674,0.000000,-0.330806,0.099571,0.000000
0.590000,-2.408076,-1.512756,-1.450033,0.269083,0.664979,0.101379,0.607869,1.366669,0.122108,-0.878679,-3.111319,-1.723612,-0.376905,-6.084855,-8.336905,0.139874,-0.062663,0.000000,-0.337978,0.100472,-0.000000
0.600000,-2.405355,-1.506039,-1.449013,0.275118,0.678489,0.102512,0.599071,1.335271,0.104462,-0.880014,-3.166463,-1.804825,0.106775,-4.949881,-7.897560,0.136463,-0.061646,0.000000,-0.343823,0.100816,-0.000000
0.610000,-2.402574,-1.499188,-1.447983,0.281065,0.691682,0.103466,0.590287,1.303383,0.086019,-0.876362,-3.209871,-1.882058,0.565081,-3.867417,-7.394044,0.133002,-0.060630,0.000000,-0.348328,0.100603,-0.000000
0.620000,-2.399734,-1.492206,-1.446944,0.286924,0.704555,0.104231,0.581559,1.271109,0.066838,-0.868503,-3.243300,-1.953293,1.003290,-2.825222,-6.845747,0.129501,-0.059618,0.000000,-0.351649,0.099904,0.000000
0.630000,-2.396836,-1.485097,-1.445899,0.292696,0.717104,0.104800,0.572931,1.238551,0.046973,-0.856366,-3.266517,-2.018834,1.420481,-1.825514,-6.255546,0.125973,-0.058617,0.000000,-0.353780,0.098719,0.000000
0.640000,-2.393881,-1.477865,-1.444849,0.298383,0.729326,0.105168,0.564445,1.205811,0.026482,-0.840166,-3.279959,-2.078274,1.815731,-0.870513,-5.626315,0.122429,-0.057630,0.000000,-0.354769,0.097074,-0.000000
0.650000,-2.390869,-1.470512,-1.443796,0.303986,0.741220,0.105328,0.556141,1.172983,0.005429,-0.820128,-3.284084,-2.131239,2.188117,0.037563,-4.960930,0.118881,-0.056662,0.000000,-0.354672,0.094994,-0.000000
0.660000,-2.387801,-1.463042,-1.442743,0.309507,0.752785,0.105275,0.548057,1.140165,-0.016125,-0.796238,-3.278802,-2.177780,2.530534,0.882111,-4.252216,0.115340,-0.055718,0.000000,-0.353495,0.092486,0.000000
0.670000,-2.384679,-1.455457,-1.441692,0.314948,0.764023,0.105004,0.540227,1.107434,-0.038103,-0.769321,-3.265965,-2.216635,2.849000,1.677056,-3.514329,0.111814,-0.054801,0.000000,-0.351423,0.089631,0.000000
0.680000,-2.381503,-1.447762,-1.440644,0.320312,0.774934,0.104512,0.532681,1.074871,-0.060432,-0.739339,-3.245428,-2.247983,3.143350,2.421939,-2.751376,0.108314,-0.053915,0.000000,-0.348460,0.086433,0.000000
0.690000,-2.378273,-1.439960,-1.439602,0.325602,0.785521,0.103795,0.525450,1.042550,-0.083037,-0.706535,-3.217695,-2.271593,3.413418,3.116304,-1.967463,0.104848,-0.053063,0.000000,-0.344671,0.082920,0.000000
0.700000,-2.374991,-1.432053,-1.438569,0.330822,0.795786,0.102850,0.518559,1.010540,-0.105838,-0.671152,-3.183272,-2.287276,3.659039,3.759692,-1.166697,0.101423,-0.052248,0.000000,-0.340121,0.079122,-0.000000
0.710000,-2.371657,-1.424045,-1.437546,0.335975,0.805733,0.101677,0.512037,0.978910,-0.128756,-0.633231,-3.142195,-2.294975,3.874873,4.339603,-0.350882,0.098048,-0.051474,0.000000,-0.334829,0.075047,-0.000000
0.720000,-2.368271,-1.415939,-1.436536,0.341064,0.815366,0.100275,0.505901,0.947714,-0.151710,-0.593504,-3.096110,-2.294368,4.066563,4.869096,0.473292,0.094729,-0.050741,0.000000,-0.328972,0.070773,0.000000
0.730000,-2.364836,-1.407739,-1.435541,0.346094,0.824689,0.098643,0.500172,0.917005,-0.174616,-0.551979,-3.044978,-2.285496,4.234578,5.349186,1.301438,0.091471,-0.050052,0.000000,-0.322562,0.066304,0.000000
0.740000,-2.361350,-1.399447,-1.434564,0.351069,0.833708,0.096783,0.494867,0.886830,-0.197392,-0.508890,-2.989288,-2.268341,4.379386,5.780890,2.129168,0.088279,-0.049410,0.000000,-0.315662,0.061668,0.000000
0.750000,-2.357814,-1.391066,-1.433606,0.355993,0.842428,0.094696,0.489999,0.857233,-0.219955,-0.464467,-2.929518,-2.242929,4.501456,6.165225,2.952094,0.085159,-0.048815,0.000000,-0.308334,0.056890,0.000000
0.760000,-2.354230,-1.382599,-1.432671,0.360870,0.850854,0.092385,0.485583,0.828255,-0.242222,-0.418798,-2.865825,-2.209150,4.597808,6.495307,3.761276,0.082114,-0.048268,0.000000,-0.300605,0.051981,0.000000
0.770000,-2.350597,-1.374050,-1.431759,0.365706,0.858995,0.089853,0.481626,0.799926,-0.264112,-0.372428,-2.799407,-2.167544,4.672781,6.781020,4.557435,0.079148,-0.047772,0.000000,-0.292610,0.047000,0.000000
0.780000,-2.346916,-1.365420,-1.430874,0.370505,0.866855,0.087104,0.478136,0.772276,-0.285546,-0.325411,-2.730346,-2.118057,4.727265,7.024347,5.336741,0.076263,-0.047326,0.000000,-0.284366,0.041953,0.000000
0.790000,-2.343187,-1.356713,-1.430018,0.375270,0.874443,0.084144,0.475119,0.745327,-0.306447,-0.277948,-2.659055,-2.060878,4.762152,7.227272,6.095364,0.073461,-0.046931,0.000000,-0.275925,0.036861,0.000000
0.800000,-2.339411,-1.347932,-1.429192,0.380009,0.881764,0.080977,0.472578,0.719101,-0.326739,-0.230230,-2.585929,-1.996232,4.778331,7.391779,6.829473,0.070745,-0.046587,0.000000,-0.267335,0.031745,-0.000000
0.810000,-2.335587,-1.339079,-1.428399,0.384724,0.888827,0.077611,0.470515,0.693615,-0.346344,-0.182383,-2.511222,-1.924020,4.775244,7.516850,7.526065,0.068115,-0.046294,0.000000,-0.258627,0.026615,0.000000
0.820000,-2.331716,-1.330156,-1.427641,0.389420,0.895639,0.074053,0.468930,0.668880,-0.365196,-0.134717,-2.435571,-1.845404,4.755408,7.607838,8.191605,0.065572,-0.046053,0.000000,-0.249877,0.021506,0.000000
0.830000,-2.327799,-1.321167,-1.426919,0.394104,0.902207,0.070310,0.467820,0.644906,-0.383230,-0.087327,-2.359171,-1.760300,4.719893,7.667094,8.823386,0.063118,-0.045863,0.000000,-0.241105,0.016426,-0.000000
0.840000,-2.323834,-1.312113,-1.426235,0.398778,0.908540,0.066391,0.467182,0.621698,-0.400382,-0.040367,-2.282327,-1.669058,4.669765,7.696970,9.418701,0.060750,-0.045724,0.000000,-0.232348,0.011388,0.000000
0.850000,-2.319823,-1.302997,-1.425591,0.403449,0.914644,0.062306,0.467011,0.599260,-0.416592,0.006023,-2.205322,-1.572057,4.606094,7.699818,9.974844,0.058470,-0.045635,0.000000,-0.223636,0.006407,-0.000000
0.860000,-2.315765,-1.293821,-1.424989,0.408120,0.920527,0.058063,0.467300,0.577590,-0.431800,0.051700,-2.128471,-1.469258,4.530281,7.679443,10.477922,0.056277,-0.045595,0.000000,-0.215002,0.001492,0.000000
0.870000,-2.311661,-1.284587,-1.424431,0.412796,0.926198,0.053673,0.468042,0.556689,-0.445961,0.096575,-2.051873,-1.362143,4.443019,7.636564,10.937782,0.054170,-0.045604,0.000000,-0.206461,-0.003343,-0.000000
0.880000,-2.307509,-1.275298,-1.423916,0.417482,0.931664,0.049147,0.469229,0.536551,-0.459029,0.140525,-1.975807,-1.250651,4.345337,7.573354,11.353086,0.052148,-0.045662,0.000000,-0.198041,-0.008091,-0.000000
0.890000,-2.303311,-1.265955,-1.423448,0.422183,0.936932,0.044496,0.470849,0.517171,-0.470961,0.183451,-1.900466,-1.135234,4.238260,7.491987,11.722496,0.050209,-0.045766,0.000000,-0.189758,-0.012744,-0.000000
0.900000,-2.299066,-1.256560,-1.423027,0.426901,0.942010,0.039732,0.472894,0.498539,-0.481722,0.225263,-1.826021,-1.016358,4.122818,7.394635,12.044675,0.048352,-0.045917,0.000000,-0.181631,-0.017293,-0.000000
0.910000,-2.294773,-1.247115,-1.422654,0.431642,0.946905,0.034866,0.475350,0.480645,-0.491274,0.265821,-1.752800,-0.894069,4.001598,7.288015,12.307345,0.046575,-0.046112,0.000000,-0.173688,-0.021730,-0.000000
0.920000,-2.290433,-1.237622,-1.422330,0.436409,0.951625,0.029910,0.478206,0.463479,-0.499595,0.305203,-1.680504,-0.769885,3.873876,7.169201,12.521447,0.044878,-0.046351,0.000000,-0.165902,-0.026058,-0.000000
0.930000,-2.286045,-1.228083,-1.422056,0.441207,0.956177,0.024878,0.481450,0.447030,-0.506665,0.343279,-1.609451,-0.643802,3.740486,7.039809,12.686984,0.043257,-0.046633,0.000000,-0.158301,-0.030268,-0.000000
0.940000,-2.281608,-1.218499,-1.421832,0.446039,0.960568,0.019781,0.485067,0.431286,-0.512467,0.379997,-1.539738,-0.516307,3.602265,6.901458,12.803956,0.041711,-0.046957,0.000000,-0.150891,-0.034356,0.000000
0.950000,-2.277124,-1.208872,-1.421660,0.450910,0.964805,0.014633,0.489045,0.416231,-0.516988,0.415311,-1.471446,-0.387885,3.460049,6.755764,12.872366,0.040238,-0.047321,0.000000,-0.143678,-0.038320,-0.000000
0.960000,-2.272590,-1.199204,-1.421540,0.455822,0.968895,0.009446,0.493368,0.401849,-0.520219,0.449104,-1.404873,-0.258659,3.316782,6.610182,12.883054,0.038837,-0.047723,0.000000,-0.136686,-0.042151,-0.000000
0.970000,-2.268007,-1.189495,-1.421472,0.460778,0.972844,0.004233,0.498022,0.388129,-0.522162,0.481544,-1.339519,-0.129973,3.170935,6.459776,12.846304,0.037504,-0.048164,0.000000,-0.129867,-0.045861,0.000000
0.980000,-2.263374,-1.179747,-1.421455,0.465783,0.976660,-0.000993,0.502994,0.375054,-0.522820,0.512516,-1.275690,-0.001887,3.023083,6.305448,12.763241,0.036239,-0.048641,0.000000,-0.123246,-0.049442,0.000000
0.990000,-2.258691,-1.169962,-1.421491,0.470839,0.980347,-0.006220,0.508268,0.362610,-0.522203,0.542001,-1.213420,0.125141,2.873807,6.148101,12.634988,0.035038,-0.049153,0.000000,-0.116822,-0.052893,0.000000
1.000000,-2.253957,-1.160141,-1.421580,0.475949,0.983914,-0.011433,0.513829,0.350780,-0.520323,0.569989,-1.152735,0.250666,2.723684,5.988636,12.462669,0.033901,-0.049699,0.000000,-0.110594,-0.056212,0.000000
1.010000,-2.249172,-1.150284,-1.421720,0.481117,0.987365,-0.016622,0.519661,0.339547,-0.517193,0.596393,-1.093867,0.374513,2.575336,5.833400,12.240805,0.032826,-0.050277,0.000000,-0.104582,-0.059392,-0.000000
1.020000,-2.244335,-1.140394,-1.421912,0.486343,0.990707,-0.021773,0.525752,0.328898,-0.512840,0.621405,-1.036313,0.495640,2.427047,5.677183,11.977930,0.031809,-0.050887,0.000000,-0.098734,-0.062449,-0.000000
1.030000,-2.239445,-1.130470,-1.422155,0.491632,0.993945,-0.026875,0.532085,0.318816,-0.507290,0.644935,-0.980326,0.613941,2.279143,5.520222,11.675975,0.030850,-0.051526,0.000000,-0.093071,-0.065374,-0.000000
1.040000,-2.234502,-1.120515,-1.422449,0.496986,0.997085,-0.031915,0.538645,0.309286,-0.500572,0.666990,-0.925911,0.729035,2.131953,5.362753,11.336874,0.029947,-0.052195,0.000000,-0.087590,-0.068167,0.000000
1.050000,-2.229505,-1.110529,-1.422793,0.502406,1.000132,-0.036882,0.545419,0.300292,-0.492721,0.687578,-0.873072,0.840561,1.985803,5.205012,10.962558,0.029098,-0.052890,0.000000,-0.082288,-0.070828,-0.000000
1.060000,-2.224454,-1.100513,-1.423187,0.507895,1.003093,-0.041766,0.552391,0.291817,-0.483772,0.706648,-0.821963,0.948328,1.842604,5.051081,10.551119,0.028301,-0.053611,0.000000,-0.077177,-0.073351,-0.000000
1.070000,-2.219347,-1.090467,-1.423628,0.513455,1.005970,-0.046554,0.559548,0.283848,-0.473769,0.724364,-0.772223,1.051652,1.700907,4.896877,10.108798,0.027554,-0.054357,0.000000,-0.072221,-0.075749,0.000000
1.080000,-2.214184,-1.080394,-1.424117,0.519087,1.008771,-0.051238,0.566874,0.276368,-0.462755,0.740672,-0.724027,1.150409,1.560846,4.742165,9.637998,0.026856,-0.055126,0.000000,-0.067432,-0.078014,0.000000
1.090000,-2.208965,-1.070292,-1.424653,0.524793,1.011499,-0.055806,0.574356,0.269362,-0.450777,0.755587,-0.677382,1.244325,1.422554,4.586710,9.141122,0.026205,-0.055918,0.000000,-0.062809,-0.080148,-0.000000
1.100000,-2.203688,-1.060164,-1.425233,0.530574,1.014160,-0.060250,0.581981,0.262815,-0.437885,0.769129,-0.632296,1.333152,1.286166,4.430275,8.620572,0.025599,-0.056729,0.000000,-0.058351,-0.082148,0.000000
1.110000,-2.198353,-1.050009,-1.425857,0.536433,1.016757,-0.064561,0.589734,0.256710,-0.424131,0.781279,-0.588848,1.416714,1.152775,4.274332,8.077512,0.025037,-0.057561,0.000000,-0.054063,-0.084012,0.000000
1.120000,-2.192959,-1.039829,-1.426524,0.542369,1.019296,-0.068730,0.597602,0.251033,-0.409569,0.792148,-0.546891,1.494695,1.021438,4.116729,7.515734,0.024517,-0.058410,0.000000,-0.049929,-0.085746,0.000000
1.130000,-2.187506,-1.029623,-1.427231,0.548385,1.021779,-0.072750,0.605573,0.245767,-0.394256,0.801715,-0.506521,1.566975,0.892170,3.957023,6.937791,0.024038,-0.059276,0.000000,-0.045957,-0.087347,-0.000000
1.140000,-2.181991,-1.019393,-1.427978,0.554481,1.024212,-0.076613,0.613632,0.240897,-0.378249,0.809999,-0.467759,1.633406,0.764988,3.794770,6.346237,0.023597,-0.060157,0.000000,-0.042147,-0.088812,-0.000000
1.150000,-2.176416,-1.009139,-1.428763,0.560658,1.026598,-0.080313,0.621769,0.236406,-0.361608,0.817022,-0.430635,1.693863,0.639907,3.629524,5.743624,0.023194,-0.061052,0.000000,-0.038502,-0.090142,0.000000
1.160000,-2.170778,-0.998862,-1.429584,0.566917,1.028942,-0.083843,0.629969,0.232279,-0.344393,0.822789,-0.395166,1.748209,0.517329,3.460486,5.133531,0.022827,-0.061960,0.000000,-0.035022,-0.091333,-0.000000
1.170000,-2.165077,-0.988561,-1.430439,0.573257,1.031245,-0.087199,0.638220,0.228497,-0.326664,0.827358,-0.361422,1.796468,0.396837,3.287611,4.517363,0.022493,-0.062879,0.000000,-0.031712,-0.092389,0.000000
1.180000,-2.159312,-0.978237,-1.431327,0.579681,1.033513,-0.090375,0.646512,0.225045,-0.308484,0.830732,-0.329428,1.838544,0.278402,3.110498,3.897545,0.022192,-0.063807,0.000000,-0.028576,-0.093306,-0.000000
1.190000,-2.153483,-0.967891,-1.432246,0.586188,1.035747,-0.093367,0.654831,0.221903,-0.289914,0.832933,-0.299228,1.874415,0.161990,2.928746,3.276507,0.021921,-0.064745,0.000000,-0.025617,-0.094084,-0.000000
1.200000,-2.147588,-0.957522,-1.433194,0.592778,1.037952,-0.096172,0.663167,0.219054,-0.271016,0.833979,-0.270870,1.904078,0.047572,2.741955,2.656677,0.021679,-0.065689,0.000000,-0.022840,-0.094720,-0.000000
1.210000,-2.141627,-0.947132,-1.434169,0.599451,1.040129,-0.098787,0.671507,0.216480,-0.251854,0.833891,-0.244333,1.927447,-0.064899,2.547855,2.043335,0.021464,-0.066639,0.000000,-0.020244,-0.095215,0.000000
1.220000,-2.135599,-0.936719,-1.435169,0.606208,1.042282,-0.101209,0.679841,0.214161,-0.232488,0.832688,-0.219848,1.944837,-0.175438,2.348142,1.435707,0.021274,-0.067593,0.000000,-0.017851,-0.095567,-0.000000
1.230000,-2.129503,-0.926286,-1.436193,0.613048,1.044413,-0.103436,0.688157,0.212076,-0.212978,0.830389,-0.197389,1.956187,-0.284072,2.142645,0.835871,0.021106,-0.068550,0.000000,-0.015659,-0.095776,0.000000
1.240000,-2.123338,-0.915831,-1.437237,0.619971,1.046524,-0.105468,0.696445,0.210206,-0.193384,0.827013,-0.177015,1.961587,-0.390831,1.931192,0.245908,0.020960,-0.069509,0.000000,-0.013676,-0.095840,-0.000000
1.250000,-2.117103,-0.905356,-1.438301,0.626977,1.048618,-0.107304,0.704694,0.208529,-0.173765,0.822578,-0.158786,1.961145,-0.495745,1.713610,-0.332105,0.020832,-0.070467,0.000000,-0.011908,-0.095759,-0.000000
1.260000,-2.110798,-0.894859,-1.439383,0.634065,1.050695,-0.108943,0.712893,0.207024,-0.154182,0.817112,-0.142661,1.954826,-0.599049,1.487122,-0.891901,0.020721,-0.071424,0.000000,-0.010352,-0.095532,0.000000
1.270000,-2.104422,-0.884342,-1.440480,0.641234,1.052759,-0.110388,0.721032,0.205668,-0.134687,0.810613,-0.128948,1.943172,-0.700539,1.254480,-1.436101,0.020624,-0.072378,0.000000,-0.009041,-0.095159,-0.000000
1.280000,-2.097973,-0.873804,-1.441590,0.648485,1.054809,-0.111638,0.729102,0.204437,-0.115336,0.803107,-0.117591,1.926161,-0.800221,1.015832,-1.963141,0.020539,-0.073327,0.000000,-0.007969,-0.094640,0.000000
1.290000,-2.091452,-0.863246,-1.442712,0.655816,1.056848,-0.112695,0.737091,0.203308,-0.096181,0.794614,-0.108651,1.903972,-0.898098,0.771325,-2.471454,0.020464,-0.074270,0.000000,-0.007144,-0.093975,0.000000
1.300000,-2.084857,-0.852667,-1.443843,0.663227,1.058876,-0.113562,0.744991,0.202256,-0.077273,0.785151,-0.102184,1.876800,-0.994174,0.521106,-2.959473,0.020396,-0.075206,0.000000,-0.006574,-0.093165,0.000000
1.310000,-2.078187,-0.842068,-1.444982,0.670716,1.060893,-0.114241,0.752791,0.201257,-0.058663,0.774745,-0.098146,1.844658,-1.088670,0.262761,-3.420650,0.020332,-0.076134,0.000000,-0.006256,-0.092208,-0.000000
1.320000,-2.071442,-0.831449,-1.446127,0.678282,1.062901,-0.114736,0.760483,0.200284,-0.040395,0.763394,-0.096831,1.808240,-1.181346,-0.000688,-3.859011,0.020270,-0.077050,0.000000,-0.006220,-0.091109,0.000000
1.330000,-2.064621,-0.820810,-1.447276,0.685925,1.064899,-0.115051,0.768056,0.199312,-0.022513,0.751125,-0.098175,1.767557,-1.272179,-0.268781,-4.273604,0.020206,-0.077956,0.000000,-0.006461,-0.089867,0.000000
1.340000,-2.057723,-0.810151,-1.448428,0.693643,1.066887,-0.115188,0.775502,0.198312,-0.005057,0.737957,-0.102221,1.722851,-1.361145,-0.541056,-4.663470,0.020139,-0.078848,0.000000,-0.006985,-0.088485,-0.000000
1.350000,-2.050748,-0.799472,-1.449580,0.701434,1.068865,-0.115153,0.782812,0.197258,0.011932,0.723908,-0.109008,1.674373,-1.448221,-0.817054,-5.027656,0.020066,-0.079725,0.000000,-0.007797,-0.086963,-0.000000
1.360000,-2.043694,-0.788774,-1.450730,0.709298,1.070832,-0.114951,0.789978,0.196123,0.028416,0.709003,-0.118497,1.622180,-1.533507,-1.098220,-5.359990,0.019983,-0.080587,0.000000,-0.008895,-0.085303,-0.000000
1.370000,-2.036562,-0.778056,-1.451878,0.717233,1.072787,-0.114587,0.796990,0.194879,0.044365,0.693250,-0.130896,1.567030,-1.616842,-1.381953,-5.665370,0.019887,-0.081431,0.000000,-0.010299,-0.083512,0.000000
1.380000,-2.029349,-0.767318,-1.453021,0.725238,1.074729,-0.114066,0.803840,0.193496,0.059747,0.676673,-0.146143,1.508963,-1.698188,-1.667559,-5.943480,0.019776,-0.082257,0.000000,-0.012005,-0.081589,0.000000
1.390000,-2.022057,-0.756561,-1.454159,0.733310,1.076656,-0.113394,0.810520,0.191946,0.074535,0.659293,-0.164251,1.448253,-1.777509,-1.954346,-6.194004,0.019646,-0.083063,0.000000,-0.014015,-0.079539,0.000000
1.400000,-2.014683,-0.745785,-1.455289,0.741448,1.078567,-0.112577,0.817023,0.190201,0.088704,0.641130,-0.185231,1.385176,-1.854766,-2.241619,-6.416624,0.019494,-0.083848,0.000000,-0.016330,-0.077365,0.000000
1.410000,-2.007228,-0.734990,-1.456410,0.749650,1.080460,-0.111622,0.823340,0.188233,0.102230,0.622204,-0.209047,1.319820,-1.929914,-2.529595,-6.606127,0.019318,-0.084610,0.000000,-0.018946,-0.075070,-0.000000
1.420000,-1.999690,-0.724176,-1.457521,0.757914,1.082331,-0.110535,0.829465,0.186011,0.115095,0.602538,-0.235779,1.252928,-2.002923,-2.816559,-6.767692,0.019114,-0.085349,0.000000,-0.021872,-0.072662,0.000000
1.430000,-1.992069,-0.713343,-1.458620,0.766238,1.084179,-0.109322,0.835389,0.183507,0.127283,0.582153,-0.265372,1.184559,-2.073757,-3.101702,-6.901603,0.018880,-0.086063,0.000000,-0.025101,-0.070143,-0.000000
1.440000,-1.984365,-0.702493,-1.459707,0.774621,1.086000,-0.107991,0.841105,0.180694,0.138782,0.561071,-0.297804,1.114987,-2.142377,-3.384221,-7.008141,0.018611,-0.086752,0.000000,-0.028631,-0.067519,-0.000000
1.450000,-1.976576,-0.691624,-1.460780,0.783060,1.087792,-0.106549,0.846608,0.177542,0.149580,0.539313,-0.333045,1.044486,-2.208747,-3.663309,-7.087590,0.018306,-0.087413,0.000000,-0.032457,-0.064794,-0.000000
1.460000,-1.968703,-0.680737,-1.461838,0.791552,1.089550,-0.105002,0.851889,0.174024,0.159668,0.516899,-0.371062,0.973163,-2.272725,-3.938026,-7.136136,0.017961,-0.088047,0.000000,-0.036577,-0.061972,0.000000
1.470000,-1.960745,-0.669833,-1.462879,0.800097,1.091271,-0.103358,0.856944,0.170112,0.169042,0.493862,-0.411795,0.901667,-2.334393,-4.207718,-7.158660,0.017574,-0.088653,0.000000,-0.040981,-0.059063,0.000000
1.480000,-1.952701,-0.658912,-1.463904,0.808690,1.092951,-0.101623,0.861765,0.165779,0.177701,0.470219,-0.455197,0.830074,-2.393724,-4.471595,-7.155946,0.017141,-0.089229,0.000000,-0.045665,-0.056070,-0.000000
1.490000,-1.944571,-0.647974,-1.464912,0.817331,1.094585,-0.099806,0.866346,0.160999,0.185644,0.445995,-0.501205,0.758630,-2.450695,-4.728867,-7.128777,0.016659,-0.089774,0.000000,-0.050619,-0.052999,0.000000
1.500000,-1.936355,-0.637020,-1.465900,0.826016,1.096169,-0.097913,0.870683,0.155746,0.192875,0.421213,-0.549749,0.687577,-2.505281,-4.978747,-7.077939,0.016127,-0.090288,0.000000,-0.055836,-0.049856,-0.000000
1.510000,-1.928051,-0.626051,-1.466870,0.834744,1.097698,-0.095951,0.874769,0.149995,0.199396,0.395892,-0.600792,0.617031,-2.557322,-5.219451,-7.001277,0.015542,-0.090771,0.000000,-0.061309,-0.046645,0.000000
1.520000,-1.919660,-0.615066,-1.467819,0.843511,1.099167,-0.093927,0.878599,0.143723,0.205218,0.370069,-0.654153,0.547493,-2.606946,-5.451305,-6.902874,0.014900,-0.091221,0.000000,-0.067019,-0.043376,0.000000
1.530000,-1.911180,-0.604067,-1.468748,0.852315,1.100571,-0.091849,0.882168,0.136905,0.210350,0.343761,-0.709786,0.479042,-2.654146,-5.673641,-6.783873,0.014201,-0.091639,0.000000,-0.072957,-0.040053,-0.000000
1.540000,-1.902613,-0.593055,-1.469656,0.861153,1.101903,-0.089723,0.885473,0.129520,0.214803,0.316994,-0.767592,0.411880,-2.698914,-5.885791,-6.645418,0.013440,-0.092022,0.000000,-0.079113,-0.036682,-0.000000
1.550000,-1.893957,-0.582030,-1.470542,0.870024,1.103159,-0.087555,0.888507,0.121546,0.218592,0.289791,-0.827466,0.346195,-2.741241,-6.087088,-6.488654,0.012618,-0.092372,0.000000,-0.085474,-0.033269,0.000000
1.560000,-1.885213,-0.570992,-1.471407,0.878923,1.104332,-0.085353,0.891267,0.112963,0.221732,0.262173,-0.889355,0.282102,-2.781023,-6.275347,-6.313141,0.011730,-0.092688,0.000000,-0.092031,-0.029818,-0.000000
1.570000,-1.876379,-0.559943,-1.472249,0.887848,1.105416,-0.083122,0.893749,0.103753,0.224240,0.234174,-0.953000,0.219914,-2.818362,-6.451602,-6.121801,0.010776,-0.092968,0.000000,-0.098757,-0.026338,-0.000000
1.580000,-1.867456,-0.548884,-1.473069,0.896797,1.106405,-0.080870,0.895949,0.093898,0.226137,0.205814,-1.018346,0.159714,-2.853262,-6.615373,-5.915970,0.009755,-0.093214,0.000000,-0.105643,-0.022832,0.000000
1.590000,-1.858443,-0.537816,-1.473867,0.905766,1.107292,-0.078602,0.897864,0.083381,0.227442,0.177117,-1.085264,0.101639,-2.885728,-6.766176,-5.696986,0.008663,-0.093425,0.000000,-0.112676,-0.019307,-0.000000
1.600000,-1.849340,-0.526739,-1.474641,0.914753,1.108071,-0.076323,0.899491,0.072187,0.228177,0.148108,-1.153624,0.045814,-2.915765,-6.903530,-5.466187,0.007501,-0.093600,0.000000,-0.119839,-0.015767,-0.000000
1.610000,-1.840148,-0.515655,-1.475393,0.923755,1.108734,-0.074040,0.900825,0.060303,0.228366,0.118809,-1.223355,-0.007658,-2.943360,-7.025284,-5.224714,0.006266,-0.093740,0.000000,-0.127124,-0.012216,-0.000000
1.620000,-1.830865,-0.504564,-1.476122,0.932769,1.109274,-0.071758,0.901866,0.047716,0.228032,0.089248,-1.294157,-0.058659,-2.968537,-7.132830,-4.974125,0.004958,-0.093845,0.000000,-0.134499,-0.008661,0.000000
1.630000,-1.821492,-0.493469,-1.476828,0.941791,1.109686,-0.069481,0.902610,0.034417,0.227201,0.059447,-1.365963,-0.107114,-2.991302,-7.225890,-4.715783,0.003576,-0.093914,0.000000,-0.141955,-0.005105,0.000000
1.640000,-1.812029,-0.482371,-1.477512,0.950820,1.109960,-0.067215,0.903054,0.020394,0.225899,0.029430,-1.438626,-0.152953,-3.011660,-7.304186,-4.451048,0.002119,-0.093947,0.000000,-0.149477,-0.001553,0.000000
1.650000,-1.802476,-0.471271,-1.478173,0.959851,1.110091,-0.064965,0.903197,0.005642,0.224151,-0.000779,-1.511997,-0.196119,-3.029619,-7.367442,-4.181284,0.000586,-0.093945,0.000000,-0.157048,0.001991,-0.000000
1.660000,-1.792832,-0.460170,-1.478811,0.968883,1.110071,-0.062733,0.903038,-0.009848,0.221986,-0.031150,-1.585983,-0.236525,-3.045301,-7.413875,-3.908915,-0.001023,-0.093907,0.000000,-0.164659,0.005523,-0.000000
1.670000,-1.783098,-0.449070,-1.479427,0.977911,1.109892,-0.060526,0.902574,-0.026079,0.219430,-0.061671,-1.660290,-0.274241,-3.058582,-7.444897,-3.634109,-0.002707,-0.093834,0.000000,-0.172279,0.009041,0.000000
1.680000,-1.773274,-0.437973,-1.480022,0.986933,1.109547,-0.058346,0.901804,-0.043055,0.216510,-0.092314,-1.734829,-0.309203,-3.069453,-7.460414,-3.358098,-0.004468,-0.093726,0.000000,-0.179898,0.012541,-0.000000
1.690000,-1.763360,-0.426880,-1.480594,0.995946,1.109028,-0.056197,0.900727,-0.060776,0.213255,-0.123052,-1.809446,-0.341403,-3.077907,-7.460332,-3.082113,-0.006305,-0.093583,0.000000,-0.187501,0.016020,0.000000
1.700000,-1.753355,-0.415793,-1.481146,1.004947,1.108329,-0.054082,0.899343,-0.079243,0.209691,-0.153864,-1.883984,-0.370849,-3.083936,-7.444558,-2.807386,-0.008218,-0.093406,0.000000,-0.195071,0.019474,-0.000000
1.710000,-1.743261,-0.404714,-1.481676,1.013932,1.107441,-0.052004,0.897650,-0.098455,0.205848,-0.184715,-1.958330,-0.397477,-3.087729,-7.411854,-2.537229,-0.010206,-0.093194,0.000000,-0.202598,0.022900,-0.000000
1.720000,-1.733077,-0.393644,-1.482186,1.022899,1.106357,-0.049966,0.895649,-0.118409,0.201751,-0.215601,-2.032219,-0.421512,-3.089056,-7.363412,-2.270537,-0.012270,-0.092948,0.000000,-0.210055,0.026298,0.000000
1.730000,-1.722803,-0.382587,-1.482676,1.031844,1.105070,-0.047970,0.893338,-0.139098,0.197426,-0.246488,-2.105546,-0.442902,-3.087886,-7.299278,-2.008289,-0.014407,-0.092668,0.000000,-0.217432,0.029665,0.000000
1.740000,-1.712440,-0.371544,-1.483145,1.040764,1.103573,-0.046018,0.890719,-0.160517,0.192901,-0.277350,-2.178153,-0.461696,-3.084187,-7.219498,-1.751459,-0.016618,-0.092355,0.000000,-0.224713,0.032998,0.000000
1.750000,-1.701988,-0.360516,-1.483596,1.049657,1.101857,-0.044112,0.887791,-0.182658,0.188201,-0.308163,-2.249884,-0.477953,-3.077925,-7.124119,-1.501026,-0.018901,-0.092008,0.000000,-0.231884,0.036295,-0.000000
1.760000,-1.691447,-0.349507,-1.484028,1.058519,1.099917,-0.042255,0.884556,-0.205512,0.183352,-0.338891,-2.320613,-0.491632,-3.069305,-7.012447,-1.260735,-0.021255,-0.091629,0.000000,-0.238934,0.039553,-0.000000
1.770000,-1.680817,-0.338519,-1.484441,1.067347,1.097745,-0.040446,0.881014,-0.229066,0.178376,-0.369530,-2.390115,-0.503071,-3.058030,-6.885360,-1.028455,-0.023679,-0.091217,0.000000,-0.245839,0.042774,0.000000
1.780000,-1.670100,-0.327553,-1.484837,1.076138,1.095333,-0.038687,0.877166,-0.253309,0.173298,-0.400042,-2.458269,-0.512230,-3.044038,-6.742996,-0.804822,-0.026172,-0.090773,0.000000,-0.252589,0.045954,0.000000
1.790000,-1.659295,-0.316613,-1.485215,1.084890,1.092676,-0.036980,0.873013,-0.278227,0.168139,-0.430401,-2.524924,-0.519198,-3.027269,-6.585492,-0.590475,-0.028731,-0.090298,0.000000,-0.259170,0.049092,0.000000
1.800000,-1.648402,-0.305701,-1.485577,1.093598,1.089767,-0.035325,0.868558,-0.303802,0.162921,-0.460578,-2.589929,-0.524072,-3.007661,-6.412986,-0.386050,-0.031355,-0.089791,0.000000,-0.265568,0.052185,-0.000000
1.810000,-1.637423,-0.294819,-1.485922,1.102260,1.086598,-0.033722,0.863803,-0.330019,0.157665,-0.490535,-2.653151,-0.526832,-2.985401,-6.225185,-0.195267,-0.034041,-0.089254,0.000000,-0.271772,0.055230,0.000000
1.820000,-1.626357,-0.283969,-1.486251,1.110873,1.083164,-0.032172,0.858748,-0.356859,0.152390,-0.520265,-2.714403,-0.527876,-2.960149,-6.022710,-0.015304,-0.036789,-0.088686,0.000000,-0.277762,0.058231,-0.000000
1.830000,-1.615206,-0.273156,-1.486566,1.119434,1.079459,-0.030674,0.853398,-0.384301,0.147114,-0.549728,-2.773557,-0.527175,-2.931815,-5.805750,0.153577,-0.039596,-0.088089,0.000000,-0.283527,0.061183,0.000000
1.840000,-1.603969,-0.262381,-1.486865,1.127940,1.075476,-0.029229,0.847755,-0.412323,0.141852,-0.578891,-2.830470,-0.524842,-2.900308,-5.574496,0.311116,-0.042459,-0.087462,0.000000,-0.289054,0.064085,0.000000
1.850000,-1.592647,-0.251648,-1.487150,1.136388,1.071211,-0.027837,0.841821,-0.440902,0.136622,-0.607723,-2.885000,-0.520992,-2.865535,-5.329136,0.457053,-0.045376,-0.086806,0.000000,-0.294331,0.066935,-0.000000
1.860000,-1.581241,-0.240958,-1.487422,1.144775,1.066656,-0.026497,0.835602,-0.470014,0.131438,-0.636185,-2.937019,-0.515622,-2.827545,-5.069552,0.588132,-0.048345,-0.086122,0.000000,-0.299345,0.069729,0.000000
1.870000,-1.569752,-0.230315,-1.487680,1.153099,1.061809,-0.025208,0.829099,-0.499633,0.126314,-0.664256,-2.986359,-0.509135,-2.786090,-4.796281,0.707454,-0.051362,-0.085410,0.000000,-0.304080,0.072469,0.000000
1.880000,-1.558179,-0.219723,-1.487926,1.161356,1.056662,-0.023970,0.822318,-0.529732,0.121260,-0.691895,-3.032900,-0.501512,-2.741063,-4.509551,0.815127,-0.054425,-0.084671,0.000000,-0.308524,0.075152,-0.000000
1.890000,-1.546525,-0.209183,-1.488160,1.169544,1.051213,-0.022783,0.815263,-0.560282,0.116287,-0.719065,-3.076506,-0.492871,-2.692355,-4.209591,0.911256,-0.057532,-0.083905,0.000000,-0.312667,0.077775,0.000000
1.900000,-1.534789,-0.198700,-1.488382,1.177661,1.045455,-0.021644,0.807938,-0.591252,0.111405,-0.745730,-3.117048,-0.483325,-2.639858,-3.896628,0.995947,-0.060678,-0.083113,0.000000,-0.316494,0.080335,0.000000
1.910000,-1.522972,-0.188275,-1.488593,1.185702,1.039386,-0.020554,0.800349,-0.622610,0.106624,-0.771973,-3.154246,-0.472891,-2.580346,-3.574694,1.066815,-0.063860,-0.082295,0.000000,-0.319980,0.082843,0.000000
1.920000,-1.511075,-0.177913,-1.488793,1.193667,1.033002,-0.019511,0.792501,-0.654326,0.101949,-0.797464,-3.188329,-0.461914,-2.517210,-3.239748,1.126763,-0.067076,-0.081453,0.000000,-0.323146,0.085267,-0.000000
1.930000,-1.499099,-0.167616,-1.488983,1.201551,1.026299,-0.018515,0.784402,-0.686366,0.097388,-0.822306,-3.218996,-0.450390,-2.450724,-2.891552,1.176204,-0.070322,-0.080586,0.000000,-0.325965,0.087619,-0.000000
1.940000,-1.487044,-0.157388,-1.489164,1.209354,1.019273,-0.017563,0.776057,-0.718694,0.092943,-0.846468,-3.246115,-0.438423,-2.381162,-2.529869,1.215549,-0.073594,-0.079696,0.000000,-0.328422,0.089896,0.000000
1.950000,-1.474912,-0.147232,-1.489335,1.217072,1.011924,-0.016656,0.767475,-0.751276,0.088620,-0.869920,-3.269548,-0.426112,-2.308798,-2.154461,1.245210,-0.076889,-0.078784,0.000000,-0.330506,0.092097,0.000000
1.960000,-1.462703,-0.137151,-1.489497,1.224703,1.004247,-0.015790,0.758667,-0.784080,0.084423,-0.892119,-3.289887,-0.413476,-2.246945,-1.746656,1.263714,-0.080204,-0.077850,0.000000,-0.332276,0.094167,-0.000000
1.970000,-1.450418,-0.127148,-1.489651,1.232244,0.996242,-0.014967,0.749634,-0.817060,0.080351,-0.914264,-3.305264,-0.400782,-2.181240,-1.326909,1.273588,-0.083533,-0.076894,0.000000,-0.333542,0.096230,0.000000
1.980000,-1.438058,-0.117227,-1.489797,1.239694,0.987906,-0.014183,0.740384,-0.850171,0.076407,-0.935727,-3.316392,-0.388030,-2.110360,-0.897238,1.275473,-0.086873,-0.075919,0.000000,-0.334380,0.098224,0.000000
1.990000,-1.425625,-0.107391,-1.489935,1.247051,0.979238,-0.013438,0.730922,-0.883373,0.072591,-0.956449,-3.323183,-0.375297,-2.032980,-0.459663,1.270014,-0.090219,-0.074923,0.000000,-0.334779,0.100142,0.000000
2.000000,-1.413118,-0.097643,-1.490065,1.254312,0.970238,-0.012731,0.721257,-0.916620,0.068901,-0.976360,-3.325566,-0.362653,-1.947777,-0.016203,1.257850,-0.093567,-0.073908,0.000000,-0.334734,0.101978,-0.000000
2.010000,-1.400539,-0.087987,-1.490189,1.261476,0.960905,-0.012060,0.711388,-0.949857,0.065337,-0.996293,-3.322331,-0.350146,-1.830222,0.401742,1.239260,-0.096911,-0.072874,0.000000,-0.334123,0.103818,-0.000000
2.020000,-1.387889,-0.078426,-1.490307,1.268540,0.951241,-0.011424,0.701336,-0.983053,0.061897,-1.013975,-3.316202,-0.337869,-1.705040,0.825131,1.215295,-0.100248,-0.071822,0.000000,-0.333222,0.105431,0.000000
2.030000,-1.375168,-0.068964,-1.490418,1.275502,0.941245,-0.010821,0.691113,-1.016167,0.058579,-1.030373,-3.305805,-0.325856,-1.573748,1.255539,1.186645,-0.103574,-0.070755,0.000000,-0.331892,0.106916,0.000000
2.040000,-1.362379,-0.059602,-1.490523,1.282361,0.930918,-0.010252,0.680733,-1.049155,0.055379,-1.045435,-3.291062,-0.314149,-1.437865,1.694545,1.153995,-0.106885,-0.069673,0.000000,-0.330126,0.108269,-0.000000
2.050000,-1.349521,-0.050346,-1.490623,1.289116,0.920262,-0.009713,0.670209,-1.081973,0.052295,-1.059121,-3.271880,-0.302787,-1.298909,2.143727,1.118032,-0.110175,-0.068577,0.000000,-0.327916,0.109486,0.000000
2.060000,-1.336597,-0.041198,-1.490718,1.295765,0.909279,-0.009205,0.659560,-1.114584,0.049322,-1.070974,-3.248832,-0.291811,-1.169344,2.621921,1.079781,-0.113442,-0.067471,0.000000,-0.325319,0.110521,0.000000
2.070000,-1.323606,-0.032162,-1.490807,1.302307,0.897972,-0.008727,0.648794,-1.146934,0.046457,-1.082014,-3.220175,-0.281213,-1.038403,3.111333,1.039551,-0.116680,-0.066353,0.000000,-0.322163,0.111477,-0.000000
2.080000,-1.310551,-0.023240,-1.490892,1.308741,0.886342,-0.008276,0.637924,-1.178971,0.043696,-1.091738,-3.186569,-0.271024,-0.906264,3.611426,0.997988,-0.119884,-0.065226,0.000000,-0.318513,0.112304,0.000000
2.090000,-1.297432,-0.014436,-1.490973,1.315065,0.874393,-0.007852,0.626963,-1.210648,0.041035,-1.100136,-3.147912,-0.261255,-0.773104,4.121667,0.955739,-0.123049,-0.064091,0.000000,-0.314363,0.113002,-0.000000
2.100000,-1.284250,-0.005753,-1.491049,1.321280,0.862130,-0.007455,0.615925,-1.241912,0.038470,-1.107198,-3.104104,-0.251909,-0.639100,4.641517,0.913450,-0.126169,-0.062949,0.000000,-0.309701,0.113569,0.000000
2.110000,-1.271007,0.002806,-1.491122,1.327383,0.849557,-0.007083,0.604828,-1.272720,0.035995,-1.112497,-3.055771,-0.243040,-0.515021,5.188601,0.873176,-0.129242,-0.061803,0.000000,-0.304593,0.113962,-0.000000
2.120000,-1.257703,0.011237,-1.491191,1.333376,0.836678,-0.006735,0.593680,-1.303010,0.033608,-1.117019,-3.001122,-0.234505,-0.389158,5.742000,0.833981,-0.132260,-0.060651,0.000000,-0.298863,0.114281,-0.000000
2.130000,-1.244340,0.019538,-1.491257,1.339257,0.823499,-0.006410,0.582492,-1.332724,0.031304,-1.120270,-2.940919,-0.226355,-0.260393,6.298957,0.796339,-0.135217,-0.059497,0.000000,-0.292587,0.114477,0.000000
2.140000,-1.230918,0.027706,-1.491319,1.345026,0.810025,-0.006108,0.571279,-1.361809,0.029079,-1.122214,-2.875140,-0.218572,-0.127607,6.856712,0.760724,-0.138109,-0.058341,0.000000,-0.285766,0.114545,-0.000000
2.150000,-1.217440,0.035738,-1.491379,1.350682,0.796265,-0.005828,0.560052,-1.390209,0.026931,-1.122805,-2.803791,-0.211132,0.010318,7.412506,0.727609,-0.140931,-0.057185,0.000000,-0.278402,0.114480,-0.000000
2.160000,-1.203905,0.043630,-1.491436,1.356227,0.782223,-0.005569,0.548817,-1.417855,0.024855,-1.122950,-2.725816,-0.204113,0.178831,7.936060,0.700089,-0.143675,-0.056028,0.000000,-0.270390,0.114376,0.000000
2.170000,-1.190315,0.051381,-1.491491,1.361659,0.767910,-0.005331,0.537599,-1.444708,0.022848,-1.120300,-2.643855,-0.197237,0.351741,8.455505,0.675695,-0.146337,-0.054874,0.000000,-0.262000,0.113994,0.000000
2.180000,-1.176672,0.058988,-1.491543,1.366979,0.753332,-0.005112,0.526417,-1.470715,0.020909,-1.115907,-2.556717,-0.190589,0.527189,8.971452,0.654580,-0.148913,-0.053724,0.000000,-0.253111,0.113441,-0.000000
2.190000,-1.162976,0.066447,-1.491593,1.372188,0.738498,-0.004913,0.515287,-1.495825,0.019036,-1.109754,-2.464435,-0.184134,0.703314,9.484513,0.636897,-0.151397,-0.052580,0.000000,-0.243730,0.112714,-0.000000
2.200000,-1.149229,0.073757,-1.491641,1.377285,0.723419,-0.004731,0.504227,-1.519986,0.017226,-1.101844,-2.367035,-0.177839,0.878256,9.995298,0.622799,-0.153786,-0.051444,0.000000,-0.233861,0.111816,0.000000
2.210000,-1.135431,0.080915,-1.491687,1.382272,0.708102,-0.004568,0.493261,-1.543157,0.015477,-1.091739,-2.265313,-0.171757,1.038526,10.524065,0.614748,-0.156074,-0.050318,0.000000,-0.223584,0.110701,0.000000
2.220000,-1.121584,0.087918,-1.491732,1.387150,0.692559,-0.004422,0.482398,-1.565275,0.013790,-1.080566,-2.157442,-0.165635,1.195315,11.049372,0.610304,-0.158256,-0.049204,0.000000,-0.212721,0.109483,-0.000000
2.230000,-1.107688,0.094765,-1.491776,1.391921,0.676800,-0.004292,0.471655,-1.586288,0.012165,-1.067845,-2.044343,-0.159539,1.348188,11.569425,0.609338,-0.160327,-0.048102,0.000000,-0.201365,0.108113,0.000000
2.240000,-1.093746,0.101453,-1.491818,1.396584,0.660837,-0.004178,0.461046,-1.606145,0.010600,-1.053617,-1.926077,-0.153437,1.496707,12.082429,0.611720,-0.162281,-0.047014,0.000000,-0.189522,0.106597,-0.000000
2.250000,-1.079757,0.107981,-1.491860,1.401142,0.644682,-0.004080,0.450587,-1.624793,0.009096,-1.037927,-1.802724,-0.147294,1.640436,12.586588,0.617320,-0.164116,-0.045942,0.000000,-0.177202,0.104938,-0.000000
2.260000,-1.065723,0.114346,-1.491900,1.405596,0.628346,-0.003996,0.440291,-1.642181,0.007653,-1.020946,-1.674278,-0.141155,1.781988,13.077525,0.627902,-0.165824,-0.044887,0.000000,-0.164403,0.103154,0.000000
2.270000,-1.051645,0.120548,-1.491940,1.409948,0.611842,-0.003926,0.430173,-1.658262,0.006273,-1.002444,-1.541098,-0.134812,1.917503,13.556344,0.641211,-0.167402,-0.043850,0.000000,-0.151165,0.101222,0.000000
2.280000,-1.037524,0.126583,-1.491979,1.414200,0.595185,-0.003870,0.420246,-1.672988,0.004958,-0.982619,-1.403197,-0.128323,2.046172,14.021567,0.656883,-0.168846,-0.042834,0.000000,-0.137487,0.099161,0.000000
2.290000,-1.023362,0.132451,-1.492017,1.418354,0.578387,-0.003827,0.410525,-1.686311,0.003707,-0.961546,-1.260717,-0.121667,2.167184,14.471717,0.674557,-0.170150,-0.041839,0.000000,-0.123383,0.096980,0.000000
2.300000,-1.009158,0.138150,-1.492055,1.422412,0.561464,-0.003796,0.401019,-1.698187,0.002525,-0.939304,-1.113818,-0.114826,2.279731,14.905314,0.693871,-0.171312,-0.040866,0.000000,-0.108869,0.094686,0.000000
2.310000,-0.994914,0.143680,-1.492093,1.426375,0.544428,-0.003776,0.391742,-1.708571,0.001411,-0.915966,-0.962481,-0.107814,2.382587,15.316067,0.715174,-0.172326,-0.039917,0.000000,-0.093940,0.092286,0.000000
2.320000,-0.980630,0.149038,-1.492131,1.430247,0.527297,-0.003767,0.382703,-1.717423,0.000369,-0.891667,-0.807345,-0.100552,2.475409,15.707901,0.737305,-0.173190,-0.038993,0.000000,-0.078660,0.089795,0.000000
2.330000,-0.966309,0.154225,-1.492168,1.434030,0.510085,-0.003769,0.373912,-1.724705,-0.000599,-0.866493,-0.648389,-0.093067,2.557436,16.079926,0.759816,-0.173898,-0.038095,0.000000,-0.063024,0.087219,0.000000
2.340000,-0.951950,0.159240,-1.492206,1.437726,0.492808,-0.003779,0.365376,-1.730379,-0.001491,-0.840557,-0.485815,-0.085356,2.627909,16.431252,0.782256,-0.174449,-0.037222,0.000000,-0.047050,0.084572,0.000000
2.350000,-0.937555,0.164081,-1.492244,1.441338,0.475483,-0.003798,0.357103,-1.734410,-0.002305,-0.813976,-0.319835,-0.077423,2.686070,16.760993,0.804176,-0.174838,-0.036377,0.000000,-0.030755,0.081864,0.000000
2.360000,-0.923124,0.168749,-1.492282,1.444869,0.458126,-0.003825,0.349100,-1.736767,-0.003039,-0.786668,-0.150849,-0.069244,2.725819,17.072764,0.824333,-0.175063,-0.035560,0.000000,-0.014176,0.079087,-0.000000
2.370000,-0.908658,0.173244,-1.492320,1.448321,0.440753,-0.003859,0.341371,-1.737417,-0.003690,-0.759265,0.021339,-0.060905,2.752391,17.360619,0.843168,-0.175121,-0.034771,0.000000,0.002709,0.076305,0.000000
2.380000,-0.894157,0.177565,-1.492359,1.451698,0.423383,-0.003898,0.333916,-1.736331,-0.004256,-0.731664,0.196279,-0.052386,2.765680,17.623117,0.860331,-0.175008,-0.034010,0.000000,0.019862,0.073506,0.000000
2.390000,-0.879624,0.181712,-1.492398,1.455001,0.406033,-0.003944,0.326738,-1.733483,-0.004737,-0.703997,0.373712,-0.043706,2.765581,17.858815,0.875470,-0.174723,-0.033278,0.000000,0.037259,0.070704,-0.000000
2.400000,-0.865058,0.185685,-1.492438,1.458233,0.388720,-0.003993,0.319836,-1.728850,-0.005130,-0.676397,0.553361,-0.034885,2.751987,18.066275,0.888231,-0.174262,-0.032574,0.000000,0.054878,0.067912,-0.000000
2.410000,-0.850459,0.189486,-1.492478,1.461398,0.371462,-0.004046,0.313210,-1.722406,-0.005433,-0.648909,0.735229,-0.025876,2.722436,18.236709,0.896388,-0.173624,-0.031899,0.000000,0.072723,0.065134,0.000000
2.420000,-0.835830,0.193115,-1.492519,1.464498,0.354277,-0.004101,0.306856,-1.714140,-0.005647,-0.621888,0.918323,-0.016883,2.679468,18.376921,0.901693,-0.172807,-0.031252,0.000000,0.090702,0.062405,0.000000
2.430000,-0.821170,0.196572,-1.492560,1.467536,0.337185,-0.004158,0.300771,-1.704036,-0.005771,-0.595363,1.102665,-0.007852,2.623268,18.486369,0.904027,-0.171810,-0.030632,0.000000,0.108823,0.059729,-0.000000
2.440000,-0.806479,0.199859,-1.492602,1.470515,0.320203,-0.004216,0.294947,-1.692083,-0.005804,-0.569466,1.287946,0.001187,2.554019,18.564512,0.903265,-0.170630,-0.030039,0.000000,0.127059,0.057118,-0.000000
2.450000,-0.791760,0.202976,-1.492645,1.473436,0.303350,-0.004274,0.289379,-1.678275,-0.005747,-0.544326,1.473849,0.010203,2.471904,18.610809,0.899287,-0.169268,-0.029473,0.000000,0.145383,0.054584,-0.000000
2.460000,-0.777011,0.205926,-1.492688,1.476303,0.286643,-0.004331,0.284058,-1.662602,-0.005599,-0.520013,1.660327,0.019251,2.375655,18.617829,0.889717,-0.167722,-0.028931,0.000000,0.163794,0.052135,-0.000000
2.470000,-0.762234,0.208710,-1.492731,1.479118,0.270104,-0.004386,0.278975,-1.645069,-0.005363,-0.496789,1.846406,0.028087,2.267085,18.592764,0.876961,-0.165992,-0.028415,0.000000,0.182204,0.049797,-0.000000
2.480000,-0.747429,0.211329,-1.492775,1.481883,0.253748,-0.004438,0.274118,-1.625676,-0.005038,-0.474711,2.032076,0.036780,2.146554,18.535913,0.861175,-0.164078,-0.027921,0.000000,0.200614,0.047576,0.000000
2.490000,-0.732596,0.213786,-1.492820,1.484601,0.237596,-0.004486,0.269477,-1.604430,-0.004628,-0.453897,2.217020,0.045301,2.014424,18.447580,0.842511,-0.161980,-0.027450,0.000000,0.218995,0.045482,-0.000000
2.500000,-0.717737,0.216082,-1.492865,1.487273,0.221666,-0.004530,0.265036,-1.581339,-0.004133,-0.434460,2.400924,0.053621,1.871057,18.328066,0.821125,-0.159698,-0.026999,0.000000,0.237321,0.043528,-0.000000
2.510000,-0.702851,0.218220,-1.492911,1.489902,0.205976,-0.004569,0.260784,-1.556418,-0.003555,-0.416321,2.583215,0.061798,1.711995,18.184321,0.795085,-0.157234,-0.026568,0.000000,0.255537,0.041705,-0.000000
2.520000,-0.687939,0.220202,-1.492957,1.492490,0.190544,-0.004601,0.256704,-1.529680,-0.002898,-0.400038,2.764209,0.069609,1.543008,18.009184,0.766885,-0.154588,-0.026154,0.000000,0.273678,0.040070,0.000000
2.530000,-0.673001,0.222031,-1.493003,1.495037,0.175388,-0.004627,0.252778,-1.501141,-0.002164,-0.385491,2.943292,0.077129,1.365046,17.802144,0.736934,-0.151761,-0.025756,0.000000,0.291686,0.038610,0.000000
2.540000,-0.658038,0.223711,-1.493049,1.497546,0.160527,-0.004644,0.248988,-1.470821,-0.001356,-0.372764,3.120144,0.084343,1.179059,17.562688,0.705640,-0.148755,-0.025372,0.000000,0.309528,0.037334,-0.000000
2.550000,-0.643050,0.225243,-1.493096,1.500017,0.145977,-0.004653,0.245316,-1.438746,-0.000478,-0.361933,3.294436,0.091239,0.985998,17.290303,0.673414,-0.145571,-0.025000,0.000000,0.327173,0.036250,0.000000
2.560000,-0.628038,0.226631,-1.493142,1.502452,0.131758,-0.004654,0.241743,-1.404941,0.000468,-0.353058,3.465985,0.097857,0.786644,16.980777,0.639460,-0.142212,-0.024639,0.000000,0.344602,0.035363,0.000000
2.570000,-0.613002,0.227879,-1.493189,1.504852,0.117884,-0.004644,0.238248,-1.369437,0.001478,-0.346210,3.634105,0.104082,0.582139,16.637752,0.605538,-0.138680,-0.024285,0.000000,0.361748,0.034682,-0.000000
2.580000,-0.597941,0.228990,-1.493235,1.507217,0.104374,-0.004624,0.234812,-1.332271,0.002549,-0.341429,3.798628,0.109970,0.373454,16.261168,0.572205,-0.134978,-0.023938,0.000000,0.378592,0.034211,0.000000
2.590000,-0.582857,0.229968,-1.493281,1.509549,0.091244,-0.004593,0.231413,-1.293478,0.003676,-0.338752,3.959217,0.115530,0.161562,15.850967,0.540018,-0.131109,-0.023594,0.000000,0.395098,0.033953,0.000000
2.600000,-0.567750,0.230817,-1.493327,1.511846,0.078510,-0.004550,0.228030,-1.253101,0.004858,-0.338205,4.115535,0.120776,-0.052567,15.407089,0.509532,-0.127077,-0.023252,0.000000,0.411231,0.033912,-0.000000
2.610000,-0.552621,0.231540,-1.493372,1.514109,0.066187,-0.004495,0.224643,-1.211177,0.006091,-0.339686,4.267772,0.125736,-0.271013,14.916181,0.481101,-0.122885,-0.022910,0.000000,0.427004,0.034077,-0.000000
2.620000,-0.537468,0.232142,-1.493417,1.516338,0.054291,-0.004428,0.221229,-1.167762,0.007372,-0.343489,4.414345,0.130417,-0.489378,14.393107,0.455509,-0.118539,-0.022564,0.000000,0.442257,0.034479,0.000000
2.630000,-0.522294,0.232627,-1.493460,1.518533,0.042837,-0.004348,0.217766,-1.122908,0.008699,-0.349469,4.555532,0.134858,-0.706317,13.839435,0.433338,-0.114042,-0.022214,0.000000,0.457012,0.035103,-0.000000
2.640000,-0.507098,0.233000,-1.493503,1.520694,0.031838,-0.004254,0.214232,-1.076670,0.010068,-0.357606,4.691037,0.139097,-0.920482,13.256734,0.415169,-0.109400,-0.021857,0.000000,0.471235,0.035947,-0.000000
2.650000,-0.491880,0.233265,-1.493545,1.522818,0.021308,-0.004146,0.210607,-1.029107,0.011480,-0.367865,4.820576,0.143177,-1.130530,12.646574,0.401584,-0.104619,-0.021490,0.000000,0.484892,0.037008,-0.000000
2.660000,-0.476641,0.233428,-1.493586,1.524905,0.011260,-0.004024,0.206867,-0.980280,0.012931,-0.380315,4.943880,0.147061,-1.332173,12.010573,0.395302,-0.099704,-0.021112,0.000000,0.497950,0.038294,-0.000000
2.670000,-0.461382,0.233492,-1.493626,1.526955,0.001706,-0.003888,0.202994,-0.930251,0.014421,-0.394618,5.060704,0.151005,-1.527367,11.350244,0.394505,-0.094662,-0.020720,0.000000,0.510377,0.039770,-0.000000
2.680000,-0.446102,0.233464,-1.493664,1.528965,-0.007341,-0.003736,0.198968,-0.879088,0.015951,-0.410837,5.170809,0.154970,-1.715126,10.667149,0.399512,-0.089499,-0.020312,0.000000,0.522145,0.041442,-0.000000
2.690000,-0.430803,0.233347,-1.493701,1.530934,-0.015872,-0.003568,0.194771,-0.826858,0.017521,-0.428893,5.273976,0.159016,-1.894464,9.962852,0.410643,-0.084222,-0.019887,0.000000,0.533224,0.043304,-0.000000
2.700000,-0.415484,0.233148,-1.493735,1.532859,-0.023875,-0.003385,0.190384,-0.773632,0.019132,-0.448695,5.370001,0.163205,-2.064395,9.238915,0.428217,-0.078837,-0.019443,0.000000,0.543587,0.045345,0.000000
2.710000,-0.400146,0.232871,-1.493768,1.534741,-0.031342,-0.003186,0.185790,-0.719483,0.020784,-0.470311,5.458610,0.167463,-2.219761,8.499021,0.456094,-0.073352,-0.018977,0.000000,0.553203,0.047574,-0.000000
2.720000,-0.384789,0.232523,-1.493799,1.536575,-0.038262,-0.002969,0.180973,-0.664485,0.022482,-0.493240,5.539830,0.172191,-2.364261,7.742353,0.490619,-0.067775,-0.018488,0.000000,0.562066,0.049938,0.000000
2.730000,-0.369415,0.232108,-1.493828,1.538359,-0.044629,-0.002736,0.175920,-0.608712,0.024229,-0.517558,5.613406,0.177297,-2.497418,6.970214,0.531680,-0.062114,-0.017975,0.000000,0.570146,0.052445,-0.000000
2.740000,-0.354022,0.231632,-1.493854,1.540092,-0.050434,-0.002485,0.170618,-0.552243,0.026029,-0.543149,5.679188,0.182846,-2.618760,6.183908,0.579161,-0.056375,-0.017437,0.000000,0.577422,0.055084,-0.000000
2.750000,-0.338613,0.231101,-1.493877,1.541771,-0.055671,-0.002215,0.165053,-0.495155,0.027888,-0.569893,5.737041,0.188901,-2.727810,5.384739,0.632949,-0.050568,-0.016871,0.000000,0.583877,0.057842,-0.000000
2.760000,-0.323187,0.230521,-1.493898,1.543392,-0.060335,-0.001926,0.159216,-0.437526,0.029808,-0.597719,5.787089,0.195382,-2.822693,4.567819,0.696550,-0.044700,-0.016278,0.000000,0.589520,0.060713,-0.000000
2.770000,-0.307745,0.229896,-1.493916,1.544954,-0.064421,-0.001619,0.153096,-0.379441,0.031798,-0.626366,5.828642,0.202689,-2.904507,3.741399,0.765786,-0.038781,-0.015656,0.000000,0.594275,0.063669,-0.000000
2.780000,-0.292288,0.229234,-1.493930,1.546453,-0.067923,-0.001290,0.146686,-0.320981,0.033864,-0.655764,5.861892,0.210715,-2.972949,2.907542,0.840101,-0.032818,-0.015003,0.000000,0.598160,0.066704,0.000000
2.790000,-0.276816,0.228540,-1.493941,1.547887,-0.070839,-0.000941,0.139979,-0.262231,0.036014,-0.685779,5.886775,0.219506,-3.027716,2.068308,0.918938,-0.026820,-0.014321,0.000000,0.601166,0.069803,-0.000000
2.800000,-0.261331,0.227819,-1.493949,1.549252,-0.073167,-0.000570,0.132969,-0.203274,0.038257,-0.716272,5.903247,0.229107,-3.068505,1.225760,1.001739,-0.020797,-0.013607,0.000000,0.603289,0.072952,0.000000
2.810000,-0.245832,0.227078,-1.493953,1.550545,-0.074904,-0.000175,0.125651,-0.144196,0.040598,-0.747242,5.911089,0.239412,-3.091474,0.386943,1.091509,-0.014758,-0.012861,0.000000,0.604504,0.076152,-0.000000
2.820000,-0.230320,0.226323,-1.493952,1.551764,-0.076051,0.000243,0.118023,-0.085080,0.043048,-0.778212,5.910764,0.250786,-3.100293,-0.451677,1.183694,-0.008710,-0.012083,0.000000,0.604858,0.079353,-0.000000
2.830000,-0.214797,0.225559,-1.493948,1.552905,-0.076606,0.000686,0.110086,-0.026009,0.045617,-0.809201,5.902061,0.263090,-3.095090,-1.288648,1.277298,-0.002663,-0.011274,0.000000,0.604331,0.082558,-0.000000
2.840000,-0.199262,0.224793,-1.493939,1.553965,-0.076571,0.001155,0.101840,0.032934,0.048313,-0.840068,5.885001,0.276333,-3.075997,-2.122520,1.371330,0.003374,-0.010432,0.000000,0.602926,0.085752,-0.000000
