time,x,y,z,vx,vy,vz,ax,ay,az,jx,jy,jz,sx,sy,sz,roll,pitch,yaw,p,q,r
0.000000,-2.763760,-2.166243,-1.477213,0.004278,0.022623,0.000641,-0.308401,-0.883190,-0.027955,3.643486,17.694649,0.149157,18.160143,-191.673440,-14.865068,-0.089490,0.031338,0.000000,1.780988,-0.368033,-0.000000
0.010000,-2.763732,-2.166058,-1.477208,0.001379,0.014645,0.000367,-0.271136,-0.715378,-0.027183,3.802067,15.911278,0.007562,13.636043,-165.454393,-13.457601,-0.072567,0.027555,0.000000,1.607524,-0.385169,-0.000000
0.020000,-2.763731,-2.165945,-1.477206,-0.001141,0.008260,0.000093,-0.232503,-0.564135,-0.027757,3.917768,14.376708,-0.120070,9.580056,-141.891095,-12.072809,-0.057265,0.023629,0.000000,1.456347,-0.397651,0.000000
0.030000,-2.763753,-2.165888,-1.477207,-0.003268,0.003315,-0.000192,-0.192908,-0.427101,-0.029539,3.995146,13.065045,-0.233977,5.967397,-120.851068,-10.712997,-0.043371,0.019603,0.000000,1.325745,-0.405958,0.000000
0.040000,-2.763795,-2.165874,-1.477210,-0.004997,-0.000322,-0.000501,-0.152713,-0.302173,-0.032392,4.038511,11.951718,-0.334421,2.773281,-102.201838,-9.380474,-0.030688,0.015515,0.000000,1.213868,-0.410553,0.000000
0.050000,-2.763852,-2.165891,-1.477217,-0.006322,-0.002763,-0.000843,-0.112237,-0.187484,-0.036183,4.051924,11.013481,-0.421686,-0.027077,-85.810927,-8.077544,-0.019038,0.011399,0.000000,1.118801,-0.411882,-0.000000
0.060000,-2.763920,-2.165926,-1.477227,-0.007241,-0.004100,-0.001227,-0.071762,-0.081393,-0.040782,4.039199,10.228413,-0.496078,-2.458461,-71.545860,-6.806516,-0.008262,0.007285,0.000000,1.038628,-0.410369,-0.000000
0.070000,-2.763996,-2.165969,-1.477241,-0.007758,-0.004414,-0.001661,-0.031529,0.017526,-0.046063,4.003902,9.575919,-0.557930,-4.545655,-59.274161,-5.569695,0.001778,0.003199,0.000000,0.971470,-0.406414,0.000000
0.080000,-2.764074,-2.166011,-1.477260,-0.007874,-0.003770,-0.002151,0.008252,0.110503,-0.051900,3.949351,9.036727,-0.607594,-6.313445,-48.863353,-4.369388,0.011205,-0.000837,0.000000,0.915518,-0.400389,-0.000000
0.090000,-2.764152,-2.166042,-1.477285,-0.007595,-0.002221,-0.002701,0.047404,0.198579,-0.058175,3.878615,8.592890,-0.645447,-7.786615,-40.180960,-3.207902,0.020120,-0.004804,0.000000,0.869052,-0.392640,0.000000
0.100000,-2.764225,-2.166052,-1.477315,-0.006928,0.000188,-0.003315,0.085780,0.282623,-0.064771,3.794518,8.227788,-0.671889,-8.989950,-33.094506,-2.087544,0.028612,-0.008687,0.000000,0.830459,-0.383487,-0.000000
0.110000,-2.764289,-2.166035,-1.477351,-0.005882,0.003421,-0.003997,0.123259,0.363346,-0.071576,3.699633,7.926122,-0.687343,-9.948234,-27.471515,-1.010619,0.036751,-0.012473,0.000000,0.798241,-0.373219,-0.000000
0.120000,-2.764341,-2.165981,-1.477395,-0.004466,0.007446,-0.004747,0.159745,0.441310,-0.078483,3.596287,7.673921,-0.692254,-10.686251,-23.179511,0.020564,0.044593,-0.016153,0.000000,0.771025,-0.362099,-0.000000
0.130000,-2.764377,-2.165884,-1.477446,-0.002691,0.012239,-0.005566,0.195163,0.516947,-0.085388,3.486560,7.458537,-0.687092,-11.228787,-20.086017,1.003700,0.052184,-0.019720,0.000000,0.747565,-0.350358,0.000000
0.140000,-2.764394,-2.165734,-1.477506,-0.000567,0.017778,-0.006454,0.229461,0.590566,-0.092193,3.372281,7.268647,-0.672348,-11.600626,-18.058558,1.936483,0.059553,-0.023169,0.000000,0.726747,-0.338203,-0.000000
0.150000,-2.764387,-2.165526,-1.477576,0.001895,0.024045,-0.007410,0.262599,0.662371,-0.098805,3.255033,7.094254,-0.648537,-11.826553,-16.964657,2.816604,0.066724,-0.026495,0.000000,0.707592,-0.325809,-0.000000
0.160000,-2.764355,-2.165251,-1.477655,0.004681,0.031020,-0.008430,0.294556,0.732473,-0.105135,3.136153,6.926684,-0.616199,-11.931352,-16.671838,3.641758,0.073708,-0.029699,0.000000,0.689252,-0.313323,0.000000
0.170000,-2.764293,-2.164903,-1.477744,0.007782,0.038688,-0.009511,0.325320,0.800903,-0.111102,3.016727,6.758588,-0.575893,-11.939808,-17.047626,4.409638,0.080509,-0.032779,0.000000,0.671017,-0.300866,0.000000
0.180000,-2.764198,-2.164475,-1.477845,0.011184,0.047033,-0.010650,0.354891,0.867623,-0.116628,2.897596,6.583944,-0.528205,-11.876705,-17.959542,5.117938,0.087127,-0.035736,0.000000,0.652308,-0.288530,-0.000000
0.190000,-2.764068,-2.163960,-1.477958,0.014876,0.056035,-0.011842,0.383275,0.932544,-0.121644,2.779349,6.398052,-0.473741,-11.766828,-19.275113,5.764351,0.093553,-0.038572,0.000000,0.632679,-0.276380,-0.000000
0.200000,-2.763900,-2.163352,-1.478082,0.018845,0.065677,-0.013081,0.410483,0.995535,-0.126083,2.662332,6.197538,-0.413132,-11.634963,-20.861861,6.346569,0.099776,-0.041289,0.000000,0.611816,-0.264453,0.000000
0.210000,-2.763690,-2.162644,-1.478219,0.023079,0.075947,-0.014362,0.436623,1.056118,-0.129885,2.555564,5.950726,-0.346794,-11.731270,-21.839005,6.856299,0.105752,-0.043898,0.000000,0.586593,-0.253652,-0.000000
0.220000,-2.763437,-2.161831,-1.478370,0.027571,0.086802,-0.015677,0.461591,1.114516,-0.133003,2.437769,5.727025,-0.275965,-11.827560,-22.914003,7.297955,0.111505,-0.046390,0.000000,0.563923,-0.241850,-0.000000
0.230000,-2.763138,-2.160906,-1.478533,0.032307,0.098230,-0.017019,0.485375,1.170621,-0.135391,2.319022,5.492255,-0.201067,-11.921020,-24.046009,7.669964,0.117028,-0.048765,0.000000,0.540410,-0.230053,0.000000
0.240000,-2.762790,-2.159865,-1.478710,0.037274,0.110207,-0.018382,0.507968,1.224322,-0.137013,2.199367,5.246051,-0.122803,-12.008837,-25.194175,7.970752,0.122311,-0.051023,0.000000,0.516018,-0.218262,0.000000
0.250000,-2.762392,-2.158700,-1.478901,0.042462,0.122708,-0.019757,0.529360,1.275504,-0.137838,2.078874,4.988454,-0.041895,-12.088199,-26.317656,8.198746,0.127345,-0.053163,0.000000,0.490750,-0.206478,-0.000000
0.260000,-2.761940,-2.157409,-1.479105,0.047857,0.135711,-0.021136,0.549544,1.323940,-0.137835,1.957773,4.709349,0.041767,-12.159630,-27.108699,8.331062,0.132112,-0.055187,0.000000,0.463613,-0.194725,-0.000000
0.270000,-2.761434,-2.155985,-1.479323,0.053449,0.149181,-0.022511,0.568513,1.369666,-0.137000,1.835878,4.434611,0.125434,-12.216572,-27.826045,8.390046,0.136616,-0.057092,0.000000,0.437119,-0.182963,0.000000
0.280000,-2.760871,-2.154424,-1.479555,0.059224,0.163095,-0.023873,0.586260,1.412610,-0.135326,1.713500,4.153101,0.209327,-12.255803,-28.461529,8.376736,0.140853,-0.058880,0.000000,0.410162,-0.171219,0.000000
0.290000,-2.760249,-2.152721,-1.479801,0.065170,0.177424,-0.025215,0.602782,1.452708,-0.132815,1.590832,3.865680,0.292731,-12.274103,-29.006985,8.292166,0.144818,-0.060551,0.000000,0.382805,-0.159503,-0.000000
0.300000,-2.759567,-2.150874,-1.480060,0.071275,0.192140,-0.026527,0.618077,1.489907,-0.129475,1.468099,3.573289,0.374937,-12.268249,-29.454249,8.137374,0.148508,-0.062104,0.000000,0.355116,-0.147826,-0.000000
0.310000,-2.758823,-2.148877,-1.480331,0.077528,0.207213,-0.027802,0.632135,1.524125,-0.125312,1.344688,3.273578,0.456179,-12.213036,-29.709989,7.889879,0.151916,-0.063539,0.000000,0.326851,-0.136122,-0.000000
0.320000,-2.758016,-2.146729,-1.480615,0.083914,0.222613,-0.029031,0.644973,1.555372,-0.120361,1.222949,2.975634,0.533566,-12.129919,-29.861636,7.577113,0.155044,-0.064858,0.000000,0.298838,-0.124598,-0.000000
0.330000,-2.757144,-2.144424,-1.480912,0.090423,0.238311,-0.030206,0.656598,1.583634,-0.114653,1.102184,2.676684,0.607516,-12.018369,-29.911455,7.202991,0.157892,-0.066062,0.000000,0.270787,-0.113178,0.000000
0.340000,-2.756207,-2.141961,-1.481219,0.097042,0.254276,-0.031321,0.667021,1.608906,-0.108224,0.982679,2.377737,0.677435,-11.877857,-29.861707,6.771428,0.160460,-0.067151,0.000000,0.242766,-0.101879,-0.000000
0.350000,-2.755203,-2.139338,-1.481538,0.103759,0.270479,-0.032369,0.676256,1.631192,-0.101119,0.864725,2.079775,0.742766,-11.707853,-29.714659,6.286341,0.162748,-0.068126,0.000000,0.214839,-0.090719,0.000000
0.360000,-2.754132,-2.136551,-1.481867,0.110563,0.286890,-0.033342,0.684316,1.650498,-0.093379,0.748092,1.782911,0.803618,-11.494446,-29.451114,5.735947,0.164757,-0.068990,0.000000,0.186997,-0.079667,-0.000000
0.370000,-2.752992,-2.133599,-1.482204,0.117442,0.303480,-0.034235,0.691226,1.666860,-0.085066,0.634335,1.490095,0.858040,-11.252127,-29.097423,5.141780,0.166489,-0.069742,0.000000,0.159472,-0.068857,-0.000000
0.380000,-2.751782,-2.130481,-1.482551,0.124384,0.320218,-0.035042,0.697011,1.680313,-0.076239,0.523142,1.201246,0.906327,-10.982006,-28.658478,4.509679,0.167947,-0.070387,0.000000,0.132242,-0.058255,-0.000000
0.390000,-2.750504,-2.127195,-1.482905,0.131379,0.337076,-0.035758,0.701698,1.690901,-0.066961,0.414784,0.917193,0.948127,-10.685193,-28.139169,3.845481,0.169135,-0.070925,0.000000,0.105359,-0.047877,-0.000000
0.400000,-2.749155,-2.123739,-1.483266,0.138415,0.354026,-0.036379,0.705317,1.698676,-0.057299,0.309523,0.638714,0.983149,-10.362797,-27.544389,3.155024,0.170055,-0.071359,0.000000,0.078879,-0.037743,-0.000000
0.410000,-2.747735,-2.120114,-1.483632,0.145482,0.371041,-0.036903,0.707897,1.703696,-0.047320,0.207400,0.366458,1.011289,-10.010640,-26.876951,2.440858,0.170714,-0.071691,0.000000,0.052846,-0.027851,-0.000000
0.420000,-2.746245,-2.116318,-1.484003,0.152569,0.388091,-0.037325,0.709477,1.706028,-0.037097,0.109150,0.101301,1.032065,-9.635767,-26.144078,1.712509,0.171114,-0.071925,0.000000,0.027325,-0.018269,0.000000
0.430000,-2.744684,-2.112352,-1.484378,0.159668,0.405152,-0.037644,0.710093,1.705747,-0.026703,0.014755,-0.156222,1.045513,-9.239934,-25.350917,0.976219,0.171262,-0.072063,0.000000,0.002358,-0.008992,-0.000000
0.440000,-2.743052,-2.108215,-1.484756,0.166768,0.422198,-0.037859,0.709786,1.702931,-0.016211,-0.075584,-0.405534,1.051584,-8.824899,-24.502614,0.238227,0.171163,-0.072109,0.000000,-0.022008,-0.000037,-0.000000
0.450000,-2.741349,-2.103908,-1.485135,0.173861,0.439203,-0.037968,0.708596,1.697666,-0.005696,-0.161685,-0.646108,1.050293,-8.392418,-23.604315,-0.495228,0.170824,-0.072065,0.000000,-0.045726,0.008576,-0.000000
0.460000,-2.739575,-2.099431,-1.485515,0.180937,0.456143,-0.037973,0.706566,1.690041,0.004766,-0.243427,-0.877368,1.041369,-7.943084,-22.663750,-1.209148,0.170251,-0.071936,0.000000,-0.068746,0.016837,0.000000
0.470000,-2.737730,-2.094786,-1.485894,0.187989,0.472996,-0.037873,0.703742,1.680150,0.015108,-0.320553,-1.099134,1.025772,-7.479961,-21.683163,-1.907123,0.169452,-0.071725,0.000000,-0.091036,0.024714,-0.000000
0.480000,-2.735815,-2.089972,-1.486272,0.195010,0.489739,-0.037671,0.700171,1.668092,0.025259,-0.392986,-1.310914,1.003297,-7.004949,-20.667385,-2.583984,0.168433,-0.071436,0.000000,-0.112546,0.032197,-0.000000
0.490000,-2.733830,-2.084991,-1.486647,0.201991,0.506351,-0.037369,0.695899,1.653966,0.035152,-0.460618,-1.512381,0.974180,-6.519946,-19.621245,-3.234564,0.167203,-0.071073,0.000000,-0.133236,0.039270,-0.000000
0.500000,-2.731775,-2.079845,-1.487019,0.208925,0.522812,-0.036969,0.690975,1.637879,0.044721,-0.523358,-1.703254,0.938710,-6.026853,-18.549571,-3.853695,0.165771,-0.070641,0.000000,-0.153066,0.045921,0.000000
0.510000,-2.729651,-2.074536,-1.487387,0.215808,0.539102,-0.036476,0.685448,1.619939,0.053899,-0.581101,-1.883146,0.896552,-5.528414,-17.461149,-4.419126,0.164145,-0.070143,0.000000,-0.171993,0.052135,-0.000000
0.520000,-2.727459,-2.069064,-1.487748,0.222633,0.555205,-0.035893,0.679369,1.600253,0.062634,-0.633874,-2.052246,0.849697,-5.025581,-16.356369,-4.944864,0.162334,-0.069585,0.000000,-0.189992,0.057898,-0.000000
0.530000,-2.725199,-2.063432,-1.488104,0.229394,0.571102,-0.035225,0.672788,1.578931,0.070876,-0.681604,-2.210234,0.797797,-4.520148,-15.239575,-5.427833,0.160348,-0.068971,0.000000,-0.207024,0.063200,-0.000000
0.540000,-2.722872,-2.057643,-1.488453,0.236087,0.586778,-0.034477,0.665754,1.556086,0.078575,-0.724274,-2.357012,0.741294,-4.013911,-14.115111,-5.864959,0.158197,-0.068306,0.000000,-0.223060,0.068032,0.000000
0.550000,-2.720478,-2.051697,-1.488793,0.242707,0.602219,-0.033655,0.658319,1.531829,0.085688,-0.761886,-2.492525,0.680661,-3.508668,-12.987324,-6.253165,0.155891,-0.067595,0.000000,-0.238072,0.072386,0.000000
0.560000,-2.718018,-2.045599,-1.489126,0.249252,0.617411,-0.032765,0.650534,1.506275,0.092167,-0.794370,-2.616540,0.615603,-3.008414,-11.866158,-6.569164,0.153439,-0.066843,0.000000,-0.252026,0.076251,-0.000000
0.570000,-2.715493,-2.039350,-1.489448,0.255717,0.632341,-0.031814,0.642448,1.479535,0.097990,-0.821970,-2.729614,0.548551,-2.512476,-10.749672,-6.832566,0.150854,-0.066054,0.000000,-0.264925,0.079631,0.000000
0.580000,-2.712904,-2.032953,-1.489762,0.262100,0.646998,-0.030807,0.634111,1.451720,0.103130,-0.844639,-2.831561,0.479129,-2.022378,-9.641525,-7.042771,0.148144,-0.065233,0.000000,-0.276743,0.082520,-0.000000
0.590000,-2.710251,-2.026411,-1.490064,0.268399,0.661372,-0.029753,0.625572,1.422941,0.107567,-0.862442,-2.922484,0.407875,-1.539648,-8.545376,-7.199178,0.145323,-0.064387,0.000000,-0.287468,0.084917,-0.000000
0.600000,-2.707536,-2.019727,-1.490357,0.274611,0.675454,-0.028659,0.616878,1.393307,0.111283,-0.875461,-3.002521,0.335327,-1.065811,-7.464885,-7.301184,0.142399,-0.063519,0.000000,-0.297092,0.086824,0.000000
0.610000,-2.704759,-2.012903,-1.490638,0.280736,0.689235,-0.027530,0.608080,1.362929,0.114263,-0.883662,-3.071542,0.261309,-0.605701,-6.411394,-7.329875,0.139385,-0.062634,0.000000,-0.305592,0.088234,0.000000
0.620000,-2.701921,-2.005943,-1.490907,0.286772,0.702710,-0.026375,0.599220,1.331911,0.116510,-0.887466,-3.130479,0.188090,-0.157131,-5.379939,-7.305207,0.136291,-0.061738,0.000000,-0.313020,0.089175,-0.000000
0.630000,-2.699024,-1.998850,-1.491165,0.292720,0.715872,-0.025202,0.590345,1.300354,0.118026,-0.886847,-3.179223,0.115377,0.278776,-4.373236,-7.228822,0.133128,-0.060836,0.000000,-0.319360,0.089642,-0.000000
0.640000,-2.696067,-1.991627,-1.491411,0.298579,0.728716,-0.024017,0.581498,1.268359,0.118821,-0.881937,-3.218035,0.043680,0.700899,-3.394004,-7.102363,0.129907,-0.059931,0.000000,-0.324624,0.089646,0.000000
0.650000,-2.693053,-1.984277,-1.491645,0.304350,0.741238,-0.022828,0.572720,1.236025,0.118905,-0.872879,-3.247204,-0.026509,1.108115,-2.444960,-6.927469,0.126639,-0.059029,0.000000,-0.328829,0.089198,0.000000
0.660000,-2.689981,-1.976803,-1.491868,0.310034,0.753435,-0.021641,0.564055,1.203450,0.118291,-0.859670,-3.266678,-0.095219,1.495318,-1.538066,-6.693002,0.123334,-0.058134,0.000000,-0.331964,0.088296,0.000000
0.670000,-2.686852,-1.969209,-1.492078,0.315632,0.765306,-0.020464,0.555539,1.170721,0.117009,-0.842850,-3.277667,-0.160794,1.865860,-0.665665,-6.414951,0.120003,-0.057251,0.000000,-0.334131,0.086987,-0.000000
0.680000,-2.683668,-1.961498,-1.492277,0.321145,0.776849,-0.019303,0.547210,1.137925,0.115086,-0.822410,-3.280112,-0.223384,2.219108,0.170656,-6.096521,0.116655,-0.056383,0.000000,-0.335323,0.085273,-0.000000
0.690000,-2.680430,-1.953673,-1.492464,0.326577,0.788065,-0.018165,0.539103,1.105146,0.112553,-0.798527,-3.274380,-0.282600,2.554429,0.969311,-5.740922,0.113300,-0.055535,0.000000,-0.335575,0.083169,0.000000
0.700000,-2.677137,-1.945738,-1.492640,0.331928,0.798953,-0.017054,0.531250,1.072464,0.109446,-0.771384,-3.260856,-0.338089,2.871191,1.728714,-5.351360,0.109946,-0.054710,0.000000,-0.334924,0.080695,0.000000
0.710000,-2.673791,-1.937695,-1.492805,0.337203,0.809514,-0.015977,0.523687,1.039958,0.105802,-0.741008,-3.239569,-0.389746,3.164740,2.437860,-4.925455,0.106604,-0.053913,0.000000,-0.333375,0.077854,0.000000
0.720000,-2.670393,-1.929549,-1.492960,0.342403,0.819752,-0.014940,0.516440,1.007695,0.101666,-0.707974,-3.211816,-0.436758,3.438955,3.105735,-4.472685,0.103282,-0.053145,0.000000,-0.331056,0.074705,0.000000
0.730000,-2.666943,-1.921301,-1.493104,0.347533,0.829669,-0.013946,0.509536,0.975743,0.097082,-0.672294,-3.177593,-0.479123,3.693694,3.731905,-3.996942,0.099986,-0.052412,0.000000,-0.327973,0.071250,-0.000000
0.740000,-2.663443,-1.912956,-1.493239,0.352595,0.839269,-0.012999,0.503002,0.944164,0.092099,-0.634165,-3.137319,-0.516633,3.928817,4.315937,-3.502114,0.096724,-0.051714,0.000000,-0.324173,0.067510,0.000000
0.750000,-2.659892,-1.904517,-1.493365,0.357594,0.848554,-0.012105,0.496860,0.913015,0.086766,-0.593784,-3.091416,-0.549115,4.144183,4.857398,-2.992095,0.093505,-0.051056,0.000000,-0.319706,0.063509,0.000000
0.760000,-2.656291,-1.895986,-1.493481,0.362534,0.857530,-0.011265,0.491135,0.882356,0.081135,-0.551215,-3.039997,-0.576384,4.336279,5.347851,-2.472119,0.090333,-0.050439,0.000000,-0.314588,0.059254,0.000000
0.770000,-2.652641,-1.887367,-1.493590,0.367418,0.866203,-0.010483,0.485842,0.852231,0.075256,-0.506973,-2.984244,-0.598472,4.508749,5.795847,-1.944568,0.087215,-0.049867,0.000000,-0.308948,0.054801,0.000000
0.780000,-2.648943,-1.878663,-1.493691,0.372252,0.874577,-0.009761,0.481001,0.822685,0.069183,-0.461104,-2.924220,-0.615263,4.661864,6.201932,-1.413169,0.084156,-0.049340,0.000000,-0.302801,0.050155,0.000000
0.790000,-2.645196,-1.869877,-1.493786,0.377040,0.882659,-0.009100,0.476625,0.793759,0.062969,-0.413799,-2.860343,-0.626735,4.795895,6.566655,-0.881647,0.081160,-0.048861,0.000000,-0.296197,0.045340,-0.000000
0.800000,-2.641402,-1.861011,-1.493873,0.381786,0.890454,-0.008502,0.472729,0.765490,0.056666,-0.365249,-2.793023,-0.632907,4.911115,6.890562,-0.353729,0.078233,-0.048431,0.000000,-0.289186,0.040375,-0.000000
0.810000,-2.637561,-1.852069,-1.493956,0.386496,0.897971,-0.007967,0.469324,0.737912,0.050331,-0.315550,-2.722450,-0.633573,5.005552,7.168750,0.160259,0.075378,-0.048051,0.000000,-0.281794,0.035272,0.000000
0.820000,-2.633672,-1.843052,-1.494033,0.391174,0.905215,-0.007495,0.466421,0.711050,0.044012,-0.265098,-2.649535,-0.629442,5.081995,7.407884,0.663998,0.072598,-0.047723,0.000000,-0.274126,0.030075,-0.000000
0.830000,-2.629737,-1.833965,-1.494106,0.395826,0.912194,-0.007086,0.464025,0.684928,0.037759,-0.213968,-2.574418,-0.620337,5.140992,7.609178,1.154571,0.069896,-0.047448,0.000000,-0.266202,0.024793,0.000000
0.840000,-2.625756,-1.824809,-1.494175,0.400456,0.918916,-0.006739,0.462143,0.659567,0.031621,-0.162334,-2.497473,-0.606404,5.183088,7.773846,1.629059,0.067275,-0.047227,0.000000,-0.258068,0.019445,-0.000000
0.850000,-2.621728,-1.815588,-1.494241,0.405071,0.925388,-0.006453,0.460779,0.634984,0.025646,-0.110361,-2.419060,-0.587819,5.208831,7.903103,2.084543,0.064735,-0.047059,0.000000,-0.249766,0.014048,0.000000
0.860000,-2.617655,-1.806302,-1.494304,0.409674,0.931618,-0.006226,0.459937,0.611191,0.019884,-0.058171,-2.339424,-0.564410,5.217785,7.995614,2.508599,0.062280,-0.046945,0.000000,-0.241326,0.008614,0.000000
0.870000,-2.613535,-1.796956,-1.494366,0.414271,0.937614,-0.006055,0.459616,0.588198,0.014372,-0.006012,-2.259142,-0.537301,5.211598,8.055455,2.908980,0.059909,-0.046886,0.000000,-0.232818,0.003175,0.000000
0.880000,-2.609369,-1.787551,-1.494425,0.418868,0.943385,-0.005938,0.459816,0.566010,0.009150,0.046012,-2.178419,-0.506315,5.190938,8.084151,3.283931,0.057624,-0.046882,0.000000,-0.224264,-0.002262,0.000000
0.890000,-2.605158,-1.778089,-1.494484,0.423469,0.948937,-0.005871,0.460535,0.544630,0.004257,0.097761,-2.097558,-0.471713,5.156471,8.083230,3.631698,0.055424,-0.046931,0.000000,-0.215701,-0.007682,-0.000000
0.900000,-2.600900,-1.768573,-1.494543,0.428080,0.954280,-0.005851,0.461770,0.524058,-0.000273,0.149098,-2.016848,-0.433777,5.108865,8.054217,3.950528,0.053310,-0.047035,0.000000,-0.207160,-0.013069,0.000000
0.910000,-2.596596,-1.759004,-1.494602,0.432706,0.959421,-0.005875,0.463515,0.504291,-0.004404,0.199893,-1.936560,-0.392406,5.048881,7.998571,4.228578,0.051281,-0.047193,0.000000,-0.198672,-0.018414,0.000000
0.920000,-2.592246,-1.749385,-1.494661,0.437352,0.964369,-0.005938,0.465766,0.485324,-0.008112,0.250032,-1.856957,-0.348860,4.977079,7.917895,4.475418,0.049336,-0.047404,0.000000,-0.190270,-0.023699,-0.000000
0.930000,-2.587849,-1.739717,-1.494721,0.442023,0.969130,-0.006036,0.468513,0.467149,-0.011373,0.299397,-1.778280,-0.303003,4.894116,7.813724,4.690529,0.047475,-0.047667,0.000000,-0.181977,-0.028914,-0.000000
0.940000,-2.583405,-1.730003,-1.494781,0.446724,0.973714,-0.006164,0.471751,0.449755,-0.014166,0.347879,-1.700756,-0.255157,4.800646,7.687591,4.873391,0.045696,-0.047983,0.000000,-0.173819,-0.034049,-0.000000
0.950000,-2.578914,-1.720244,-1.494844,0.451460,0.978128,-0.006317,0.475468,0.433129,-0.016471,0.395377,-1.624596,-0.205645,4.697326,7.541033,5.023487,0.043998,-0.048349,0.000000,-0.165819,-0.039094,0.000000
0.960000,-2.574376,-1.710441,-1.494908,0.456235,0.982379,-0.006492,0.479654,0.417257,-0.018270,0.441764,-1.550058,-0.154448,4.585598,7.377101,5.131466,0.042379,-0.048765,0.000000,-0.158000,-0.044037,-0.000000
0.970000,-2.569789,-1.700597,-1.494974,0.461054,0.986476,-0.006681,0.484299,0.402123,-0.019557,0.487025,-1.477181,-0.102730,4.465233,7.195627,5.206722,0.040837,-0.049230,0.000000,-0.150372,-0.048873,0.000000
0.980000,-2.565154,-1.690712,-1.495042,0.465923,0.990424,-0.006881,0.489390,0.387707,-0.020323,0.531042,-1.406200,-0.050421,4.336791,6.997959,5.249818,0.039371,-0.049743,0.000000,-0.142956,-0.053591,0.000000
0.990000,-2.560471,-1.680789,-1.495111,0.470844,0.994232,-0.007086,0.494916,0.373992,-0.020564,0.573736,-1.337271,0.002161,4.200831,6.785446,5.261316,0.037977,-0.050302,0.000000,-0.135767,-0.058184,-0.000000
1.000000,-2.555737,-1.670828,-1.495183,0.475822,0.997906,-0.007291,0.500861,0.360955,-0.020280,0.615035,-1.270536,0.054702,4.057912,6.559437,5.241778,0.036655,-0.050907,0.000000,-0.128820,-0.062644,-0.000000
1.010000,-2.550954,-1.660831,-1.495257,0.480862,1.001453,-0.007490,0.507211,0.348572,-0.019469,0.654831,-1.206206,0.107150,3.909644,6.323396,5.185335,0.035400,-0.051555,0.000000,-0.122133,-0.066961,0.000000
1.020000,-2.546120,-1.650799,-1.495333,0.485968,1.004880,-0.007678,0.513952,0.336822,-0.018139,0.693161,-1.144199,0.158599,3.755407,6.076298,5.099770,0.034211,-0.052246,0.000000,-0.115701,-0.071136,-0.000000
1.030000,-2.541234,-1.640734,-1.495411,0.491143,1.008192,-0.007851,0.521069,0.325680,-0.016300,0.729921,-1.084714,0.209052,3.595632,5.819230,4.986433,0.033085,-0.052978,0.000000,-0.109542,-0.075158,0.000000
1.040000,-2.536297,-1.630636,-1.495490,0.496390,1.011395,-0.008003,0.528545,0.315119,-0.013962,0.765057,-1.027844,0.258239,3.430748,5.553284,4.846673,0.032019,-0.053750,0.000000,-0.103663,-0.079022,-0.000000
1.050000,-2.531306,-1.620506,-1.495571,0.501715,1.014496,-0.008129,0.536364,0.305114,-0.011140,0.798520,-0.973674,0.305902,3.261186,5.279548,4.681841,0.031011,-0.054559,0.000000,-0.098073,-0.082721,-0.000000
1.060000,-2.526262,-1.610346,-1.495652,0.507119,1.017499,-0.008224,0.544509,0.295636,-0.007849,0.830228,-0.922353,0.351939,3.088345,5.001059,4.489710,0.030057,-0.055404,0.000000,-0.092785,-0.086247,-0.000000
1.070000,-2.521164,-1.600156,-1.495735,0.512606,1.020411,-0.008284,0.552963,0.286658,-0.004108,0.860231,-0.873759,0.395783,2.911568,4.716720,4.275645,0.029154,-0.056284,0.000000,-0.087787,-0.089602,0.000000
1.080000,-2.516010,-1.589938,-1.495818,0.518179,1.023234,-0.008305,0.561708,0.278151,0.000060,0.888448,-0.828035,0.437385,2.731169,4.427384,4.041435,0.028300,-0.057197,0.000000,-0.083091,-0.092778,-0.000000
1.090000,-2.510800,-1.579692,-1.495901,0.523841,1.025975,-0.008282,0.570726,0.270087,0.004631,0.914843,-0.785225,0.476551,2.547459,4.133902,3.788868,0.027491,-0.058140,0.000000,-0.078703,-0.095768,0.000000
1.100000,-2.505533,-1.569419,-1.495984,0.529594,1.028637,-0.008211,0.579999,0.262437,0.009582,0.939387,-0.745368,0.513107,2.360751,3.837125,3.519732,0.026725,-0.059112,0.000000,-0.074625,-0.098570,0.000000
1.110000,-2.500208,-1.559120,-1.496065,0.535442,1.031225,-0.008089,0.589507,0.255169,0.014885,0.962023,-0.708545,0.546928,2.172036,3.539279,3.234996,0.025998,-0.060111,0.000000,-0.070864,-0.101174,0.000000
1.120000,-2.494824,-1.548795,-1.496145,0.541385,1.033742,-0.007912,0.599233,0.248256,0.020511,0.982789,-0.674649,0.577800,1.980863,3.239671,2.937368,0.025307,-0.061136,0.000000,-0.067410,-0.103584,-0.000000
1.130000,-2.489380,-1.538445,-1.496223,0.547427,1.036191,-0.007678,0.609157,0.241666,0.026431,1.001632,-0.643756,0.605639,1.787461,2.938986,2.628737,0.024649,-0.062183,0.000000,-0.064270,-0.105791,0.000000
1.140000,-2.483875,-1.528071,-1.496298,0.553569,1.038576,-0.007383,0.619259,0.235371,0.032613,1.018532,-0.615871,0.630345,1.592060,2.637905,2.310992,0.024020,-0.063251,0.000000,-0.061443,-0.107792,0.000000
1.150000,-2.478308,-1.517674,-1.496371,0.559813,1.040900,-0.007025,0.629521,0.229339,0.039027,1.033468,-0.590997,0.651835,1.394888,2.337111,1.986020,0.023419,-0.064339,0.000000,-0.058930,-0.109582,-0.000000
1.160000,-2.472678,-1.507253,-1.496439,0.566160,1.043164,-0.006601,0.639922,0.223540,0.045638,1.046411,-0.569156,0.669989,1.196511,2.038057,1.657177,0.022841,-0.065443,0.000000,-0.056734,-0.111157,0.000000
1.170000,-2.466984,-1.496811,-1.496502,0.572612,1.045371,-0.006111,0.650442,0.217946,0.052415,1.057378,-0.550265,0.684901,0.996780,1.740561,1.324706,0.022283,-0.066562,0.000000,-0.054844,-0.112516,0.000000
1.180000,-2.461226,-1.486346,-1.496561,0.579169,1.047523,-0.005553,0.661063,0.212525,0.059325,1.066343,-0.534338,0.696477,0.795882,1.445213,0.990316,0.021743,-0.067693,0.000000,-0.053264,-0.113654,0.000000
1.190000,-2.455401,-1.475860,-1.496613,0.585833,1.049622,-0.004924,0.671762,0.207249,0.066334,1.073293,-0.521351,0.704706,0.594006,1.152601,0.655717,0.021217,-0.068835,0.000000,-0.051989,-0.114569,-0.000000
1.200000,-2.449509,-1.465354,-1.496659,0.592604,1.051669,-0.004226,0.682522,0.202089,0.073408,1.078220,-0.511275,0.709596,0.391338,0.863314,0.322617,0.020702,-0.069984,0.000000,-0.051019,-0.115257,0.000000
1.210000,-2.443548,-1.454827,-1.496697,0.599484,1.053664,-0.003456,0.693320,0.197014,0.080513,1.081115,-0.504087,0.711048,0.188119,0.578329,-0.004205,0.020195,-0.071139,0.000000,-0.050349,-0.115714,0.000000
1.220000,-2.437518,-1.444281,-1.496728,0.606471,1.055609,-0.002615,0.704137,0.191997,0.087618,1.081979,-0.499711,0.709390,-0.015523,0.297799,-0.326484,0.019694,-0.072298,0.000000,-0.049973,-0.115941,0.000000
1.230000,-2.431418,-1.433715,-1.496750,0.613566,1.057504,-0.001704,0.714953,0.187011,0.094691,1.080804,-0.498115,0.704538,-0.219405,0.022264,-0.642887,0.019195,-0.073458,0.000000,-0.049886,-0.115935,0.000000
1.240000,-2.425247,-1.423131,-1.496762,0.620770,1.059349,-0.000722,0.725746,0.182026,0.101699,1.077590,-0.499247,0.696557,-0.423345,-0.247735,-0.952079,0.018695,-0.074616,0.000000,-0.050084,-0.115694,-0.000000
1.250000,-2.419003,-1.412528,-1.496764,0.628081,1.061145,0.000330,0.736498,0.177017,0.108612,1.072338,-0.503049,0.685525,-0.627163,-0.511656,-1.252727,0.018192,-0.075771,0.000000,-0.050561,-0.115216,-0.000000
1.260000,-2.412685,-1.401908,-1.496755,0.635500,1.062890,0.001450,0.747187,0.171956,0.115398,1.065053,-0.509471,0.671380,-0.830800,-0.768631,-1.539577,0.017683,-0.076920,0.000000,-0.051312,-0.114500,0.000000
1.270000,-2.406292,-1.391271,-1.496734,0.643025,1.064583,0.002637,0.757792,0.166819,0.122030,1.055729,-0.518413,0.654594,-1.033936,-1.018487,-1.815696,0.017165,-0.078061,0.000000,-0.052325,-0.113547,-0.000000
1.280000,-2.399824,-1.380616,-1.496702,0.650655,1.066226,0.003890,0.768294,0.161580,0.128480,1.044377,-0.529815,0.635104,-1.236374,-1.260723,-2.080230,0.016636,-0.079191,0.000000,-0.053595,-0.112356,0.000000
1.290000,-2.393279,-1.369946,-1.496656,0.658390,1.067815,0.005206,0.778673,0.156215,0.134723,1.031004,-0.543600,0.613031,-1.437920,-1.494837,-2.332326,0.016092,-0.080308,0.000000,-0.055113,-0.110927,0.000000
1.300000,-2.386656,-1.359260,-1.496598,0.666228,1.069349,0.006584,0.788908,0.150700,0.140733,1.015622,-0.559683,0.588502,-1.638376,-1.720329,-2.571130,0.015533,-0.081409,0.000000,-0.056870,-0.109261,-0.000000
1.310000,-2.379954,-1.348559,-1.496525,0.674168,1.070828,0.008020,0.798979,0.145013,0.146484,0.998248,-0.577998,0.561495,-1.837723,-1.936150,-2.791722,0.014954,-0.082492,0.000000,-0.058860,-0.107359,-0.000000
1.320000,-2.373172,-1.337844,-1.496437,0.682207,1.072249,0.009513,0.808866,0.139133,0.151956,0.978880,-0.598399,0.532535,-2.035565,-2.142414,-2.997814,0.014355,-0.083556,0.000000,-0.061065,-0.105223,-0.000000
1.330000,-2.366309,-1.327115,-1.496334,0.690344,1.073610,0.011058,0.818550,0.133039,0.157128,0.957543,-0.620813,0.501588,-2.231685,-2.338687,-3.189048,0.013732,-0.084596,0.000000,-0.063478,-0.102855,-0.000000
1.340000,-2.359365,-1.316372,-1.496216,0.698577,1.074909,0.012654,0.828010,0.126710,0.161981,0.934253,-0.645138,0.468804,-2.425865,-2.524535,-3.365070,0.013084,-0.085612,0.000000,-0.066088,-0.100257,-0.000000
1.350000,-2.352338,-1.305617,-1.496081,0.706904,1.076143,0.014297,0.837228,0.120130,0.166498,0.909032,-0.671267,0.434338,-2.617885,-2.699525,-3.525522,0.012410,-0.086601,0.000000,-0.068883,-0.097432,-0.000000
1.360000,-2.345227,-1.294849,-1.495930,0.715321,1.077311,0.015983,0.846185,0.113279,0.170661,0.881909,-0.699127,0.398204,-2.807669,-2.862301,-3.666428,0.011706,-0.087560,0.000000,-0.071854,-0.094383,-0.000000
1.370000,-2.338031,-1.284071,-1.495761,0.723826,1.078408,0.017709,0.854860,0.106142,0.174458,0.852894,-0.728516,0.360901,-2.994841,-3.013463,-3.791497,0.010972,-0.088488,0.000000,-0.074980,-0.091116,0.000000
1.380000,-2.330750,-1.273281,-1.495575,0.732417,1.079433,0.019471,0.863236,0.098704,0.177875,0.822022,-0.759356,0.322426,-3.179165,-3.152690,-3.900817,0.010206,-0.089382,0.000000,-0.078251,-0.087633,0.000000
1.390000,-2.323382,-1.262482,-1.495372,0.741090,1.080381,0.021265,0.871295,0.090951,0.180903,0.789321,-0.791529,0.282937,-3.360406,-3.279660,-3.994476,0.009407,-0.090240,0.000000,-0.081655,-0.083940,-0.000000
1.400000,-2.315928,-1.251674,-1.495150,0.749842,1.081250,0.023087,0.879017,0.082869,0.183531,0.754824,-0.824908,0.242589,-3.538330,-3.394053,-4.072562,0.008573,-0.091060,0.000000,-0.085177,-0.080042,-0.000000
1.410000,-2.308385,-1.240858,-1.494910,0.758669,1.082037,0.024934,0.886385,0.074448,0.185751,0.718568,-0.859418,0.201428,-3.712753,-3.494254,-4.132397,0.007703,-0.091840,0.000000,-0.088808,-0.075943,0.000000
1.420000,-2.300754,-1.230034,-1.494651,0.767568,1.082738,0.026801,0.893382,0.065678,0.187558,0.680584,-0.894807,0.159867,-3.883380,-3.581392,-4.177174,0.006796,-0.092578,0.000000,-0.092521,-0.071652,0.000000
1.430000,-2.293034,-1.219203,-1.494374,0.776536,1.083350,0.028684,0.899991,0.056549,0.188947,0.640914,-0.931002,0.117933,-4.049972,-3.655306,-4.207319,0.005852,-0.093273,0.000000,-0.096308,-0.067173,0.000000
1.440000,-2.285223,-1.208367,-1.494077,0.785567,1.083868,0.030579,0.906195,0.047056,0.189916,0.599599,-0.967869,0.075768,-4.212285,-3.715832,-4.223258,0.004870,-0.093921,0.000000,-0.100154,-0.062514,0.000000
1.450000,-2.277322,-1.197526,-1.493762,0.794658,1.084290,0.032481,0.911978,0.037190,0.190462,0.556683,-1.005273,0.033514,-4.370079,-3.762808,-4.225419,0.003849,-0.094522,0.000000,-0.104043,-0.057682,-0.000000
1.460000,-2.269330,-1.186681,-1.493428,0.803805,1.084611,0.034387,0.917324,0.026948,0.190586,0.512211,-1.043140,-0.008762,-4.523062,-3.794524,-4.212539,0.002789,-0.095074,0.000000,-0.107967,-0.052682,0.000000
1.470000,-2.261246,-1.175834,-1.493074,0.813003,1.084827,0.036291,0.922217,0.016327,0.190288,0.466237,-1.081187,-0.050770,-4.671047,-3.812554,-4.186940,0.001689,-0.095575,0.000000,-0.111896,-0.047524,0.000000
1.480000,-2.253070,-1.164985,-1.492702,0.822248,1.084936,0.038191,0.926644,0.005324,0.189571,0.418808,-1.119346,-0.092461,-4.813801,-3.816922,-4.149256,0.000551,-0.096024,0.000000,-0.115822,-0.042216,-0.000000
1.490000,-2.244801,-1.154136,-1.492311,0.831534,1.084932,0.040081,0.930589,-0.006060,0.188440,0.369979,-1.157480,-0.133717,-4.951088,-3.807655,-4.100121,-0.000627,-0.096419,0.000000,-0.119731,-0.036765,-0.000000
1.500000,-2.236439,-1.143287,-1.491900,0.840858,1.084813,0.041958,0.934039,-0.017825,0.186899,0.319805,-1.195453,-0.174427,-5.082672,-3.784779,-4.040166,-0.001844,-0.096759,0.000000,-0.123607,-0.031180,-0.000000
1.510000,-2.227983,-1.132440,-1.491471,0.850213,1.084575,0.043818,0.936980,-0.029969,0.184953,0.268340,-1.233194,-0.214509,-5.208174,-3.746717,-3.969449,-0.003099,-0.097042,0.000000,-0.127443,-0.025468,-0.000000
1.520000,-2.219434,-1.121596,-1.491024,0.859596,1.084213,0.045656,0.939401,-0.042487,0.182611,0.215656,-1.270415,-0.253810,-5.327521,-3.695296,-3.889251,-0.004392,-0.097268,0.000000,-0.131208,-0.019641,-0.000000
1.530000,-2.210791,-1.110756,-1.490558,0.869000,1.083724,0.047469,0.941290,-0.055375,0.179880,0.161810,-1.307056,-0.292265,-5.440494,-3.630737,-3.800276,-0.005723,-0.097435,0.000000,-0.134896,-0.013705,-0.000000
1.540000,-2.202054,-1.099922,-1.490075,0.878420,1.083104,0.049252,0.942634,-0.068626,0.176769,0.106868,-1.342987,-0.329789,-5.546875,-3.553263,-3.703228,-0.007090,-0.097542,0.000000,-0.138494,-0.007670,-0.000000
1.550000,-2.193223,-1.089095,-1.489574,0.887851,1.082350,0.051003,0.943424,-0.082232,0.173288,0.050896,-1.378079,-0.366305,-5.646448,-3.463098,-3.598811,-0.008492,-0.097588,0.000000,-0.141988,-0.001545,0.000000
1.560000,-2.184297,-1.078275,-1.489055,0.897286,1.081458,0.052717,0.943649,-0.096185,0.169447,-0.006046,-1.412265,-0.401727,-5.738775,-3.359000,-3.488137,-0.009929,-0.097572,0.000000,-0.145372,0.004661,-0.000000
1.570000,-2.175277,-1.067466,-1.488519,0.906722,1.080425,0.054391,0.943300,-0.110474,0.165257,-0.063866,-1.445284,-0.436030,-5.823884,-3.242835,-3.371453,-0.011399,-0.097494,0.000000,-0.148618,0.010938,-0.000000
1.580000,-2.166163,-1.056667,-1.487967,0.916150,1.079248,0.056021,0.942369,-0.125087,0.160730,-0.122499,-1.477083,-0.469138,-5.901584,-3.115004,-3.249412,-0.012901,-0.097353,0.000000,-0.151722,0.017277,-0.000000
1.590000,-2.156954,-1.045881,-1.487399,0.925567,1.077922,0.057604,0.940847,-0.140011,0.155878,-0.181872,-1.507546,-0.501002,-5.971684,-2.975909,-3.122669,-0.014433,-0.097149,0.000000,-0.154671,0.023669,-0.000000
1.600000,-2.147652,-1.035109,-1.486815,0.934965,1.076446,0.059138,0.938729,-0.155233,0.150714,-0.241907,-1.536565,-0.531578,-6.033992,-2.825953,-2.991877,-0.015994,-0.096880,0.000000,-0.157457,0.030104,-0.000000
1.610000,-2.138255,-1.024353,-1.486216,0.944340,1.074817,0.060618,0.936007,-0.170738,0.145252,-0.302536,-1.564077,-0.560783,-6.088035,-2.664374,-2.858843,-0.017582,-0.096546,0.000000,-0.160072,0.036574,0.000000
1.620000,-2.128765,-1.013614,-1.485603,0.953684,1.073031,0.062042,0.932677,-0.186509,0.139503,-0.363653,-1.589871,-0.588694,-6.133938,-2.492879,-2.722928,-0.019195,-0.096148,0.000000,-0.162496,0.043067,0.000000
1.630000,-2.119182,-1.002893,-1.484976,0.962991,1.071086,0.063407,0.928733,-0.202529,0.133482,-0.425188,-1.613903,-0.615233,-6.171547,-2.312012,-2.584644,-0.020831,-0.095685,0.000000,-0.164726,0.049575,0.000000
1.640000,-2.109505,-0.992192,-1.484335,0.972256,1.068979,0.064710,0.924172,-0.218781,0.127203,-0.487056,-1.636082,-0.640380,-6.200704,-2.122319,-2.444504,-0.022489,-0.095156,0.000000,-0.166752,0.056088,-0.000000
1.650000,-2.099737,-0.981514,-1.483682,0.981472,1.066710,0.065950,0.918991,-0.235244,0.120679,-0.549173,-1.656322,-0.664119,-6.221254,-1.924342,-2.303020,-0.024166,-0.094563,0.000000,-0.168568,0.062597,0.000000
1.660000,-2.089876,-0.970859,-1.483016,0.990634,1.064274,0.067123,0.913188,-0.251901,0.113926,-0.611464,-1.674573,-0.686375,-6.232725,-1.717859,-2.162294,-0.025859,-0.093904,0.000000,-0.170169,0.069094,-0.000000
1.670000,-2.079924,-0.960229,-1.482340,0.999734,1.061671,0.068228,0.906761,-0.268729,0.106957,-0.673812,-1.690690,-0.707292,-6.235314,-1.504276,-2.021055,-0.027568,-0.093181,0.000000,-0.171542,0.075566,-0.000000
1.680000,-2.069882,-0.949626,-1.481652,1.008767,1.058899,0.069262,0.899711,-0.285707,0.099785,-0.736141,-1.704637,-0.726796,-6.228904,-1.284231,-1.879622,-0.029290,-0.092392,0.000000,-0.172684,0.082007,0.000000
1.690000,-2.059749,-0.939052,-1.480955,1.017726,1.055956,0.070223,0.892039,-0.302814,0.092425,-0.798360,-1.716355,-0.744885,-6.213377,-1.058363,-1.738314,-0.031021,-0.091540,0.000000,-0.173590,0.088405,0.000000
1.700000,-2.049527,-0.928507,-1.480248,1.026606,1.052842,0.071110,0.883745,-0.320027,0.084892,-0.860377,-1.725787,-0.761563,-6.188615,-0.827309,-1.597449,-0.032761,-0.090624,0.000000,-0.174257,0.094752,-0.000000
1.710000,-2.039217,-0.917995,-1.479533,1.035399,1.049556,0.071920,0.874832,-0.337322,0.077200,-0.922116,-1.732900,-0.776770,-6.154116,-0.591356,-1.459032,-0.034505,-0.089644,0.000000,-0.174683,0.101040,-0.000000
1.720000,-2.028820,-0.907517,-1.478810,1.044100,1.046096,0.072653,0.865304,-0.354677,0.069361,-0.983445,-1.737617,-0.790672,-6.110194,-0.351538,-1.321488,-0.036253,-0.088602,0.000000,-0.174860,0.107257,0.000000
1.730000,-2.018335,-0.897074,-1.478080,1.052703,1.042462,0.073307,0.855165,-0.372067,0.061391,-1.044288,-1.739920,-0.803203,-6.056779,-0.108536,-1.184930,-0.038002,-0.087498,0.000000,-0.174789,0.113394,0.000000
1.740000,-2.007766,-0.886668,-1.477344,1.061202,1.038654,0.073880,0.844420,-0.389467,0.053302,-1.104549,-1.739780,-0.814374,-5.993800,0.136969,-1.049468,-0.039748,-0.086333,0.000000,-0.174468,0.119443,-0.000000
1.750000,-1.997112,-0.876301,-1.476603,1.069590,1.034673,0.074373,0.833076,-0.406854,0.045108,-1.164132,-1.737174,-0.824196,-5.921187,0.384296,-0.915216,-0.041490,-0.085107,0.000000,-0.173897,0.125395,-0.000000
1.760000,-1.986374,-0.865975,-1.475857,1.077861,1.030517,0.074782,0.821140,-0.424202,0.036823,-1.222959,-1.732089,-0.832625,-5.838415,0.632737,-0.783747,-0.043225,-0.083823,0.000000,-0.173075,0.131242,0.000000
1.770000,-1.975555,-0.855692,-1.475107,1.086010,1.026189,0.075109,0.808620,-0.441488,0.028460,-1.280888,-1.724517,-0.839810,-5.745924,0.881639,-0.653532,-0.044951,-0.082480,0.000000,-0.172004,0.136972,0.000000
1.780000,-1.964655,-0.845452,-1.474355,1.094032,1.021688,0.075351,0.795525,-0.458684,0.020031,-1.337845,-1.714457,-0.845699,-5.643699,1.130325,-0.524503,-0.046665,-0.081081,0.000000,-0.170684,0.142576,0.000000
1.790000,-1.953675,-0.835258,-1.473600,1.101919,1.017015,0.075509,0.781866,-0.475768,0.011550,-1.393730,-1.701914,-0.850304,-5.531725,1.378117,-0.396592,-0.048364,-0.079626,0.000000,-0.169118,0.148047,-0.000000
1.800000,-1.942617,-0.825112,-1.472845,1.109667,1.012173,0.075582,0.767655,-0.492715,0.003029,-1.448447,-1.686900,-0.853635,-5.409988,1.624336,-0.269734,-0.050046,-0.078117,0.000000,-0.167308,0.153376,-0.000000
1.810000,-1.931482,-0.815016,-1.472089,1.117270,1.007162,0.075570,0.752901,-0.509498,-0.005518,-1.501916,-1.669421,-0.855664,-5.277995,1.867971,-0.144820,-0.051709,-0.076555,0.000000,-0.165257,0.158555,0.000000
1.820000,-1.920272,-0.804970,-1.471334,1.124723,1.001984,0.075472,0.737621,-0.526095,-0.014080,-1.553995,-1.649535,-0.856491,-5.136267,2.108717,-0.020705,-0.053351,-0.074942,0.000000,-0.162972,0.163572,0.000000
1.830000,-1.908988,-0.794976,-1.470580,1.132021,0.996641,0.075288,0.721826,-0.542481,-0.022644,-1.604609,-1.627259,-0.856080,-4.984850,2.345938,0.102794,-0.054968,-0.073280,0.000000,-0.160456,0.168420,0.000000
1.840000,-1.897632,-0.785037,-1.469828,1.139158,0.991135,0.075019,0.705534,-0.558632,-0.031197,-1.653660,-1.602630,-0.854436,-4.823786,2.578995,0.225864,-0.056559,-0.071569,0.000000,-0.157715,0.173091,-0.000000
1.850000,-1.886205,-0.775154,-1.469080,1.146130,0.985469,0.074664,0.688759,-0.574526,-0.039728,-1.701053,-1.575695,-0.851564,-4.653119,2.807252,0.348688,-0.058121,-0.069813,0.000000,-0.154753,0.177576,-0.000000
1.860000,-1.874710,-0.765329,-1.468335,1.152932,0.979645,0.074224,0.671518,-0.590138,-0.048225,-1.746711,-1.546481,-0.847453,-4.472370,3.029517,0.471202,-0.059653,-0.068013,0.000000,-0.151576,0.181869,0.000000
1.870000,-1.863147,-0.755562,-1.467596,1.159559,0.973667,0.073700,0.653831,-0.605448,-0.056673,-1.790492,-1.515100,-0.842128,-4.282171,3.245774,0.593870,-0.061152,-0.066170,0.000000,-0.148196,0.185958,-0.000000
1.880000,-1.851519,-0.745856,-1.466862,1.166007,0.967537,0.073091,0.635715,-0.620433,-0.065063,-1.832324,-1.481588,-0.835574,-4.082629,3.455454,0.716909,-0.062617,-0.064287,0.000000,-0.144617,0.189837,-0.000000
1.890000,-1.839828,-0.736212,-1.466134,1.172272,0.961259,0.072399,0.617191,-0.635073,-0.073381,-1.872114,-1.446014,-0.827788,-3.873853,3.657987,0.840535,-0.064044,-0.062366,0.000000,-0.140849,0.193497,0.000000
1.900000,-1.828075,-0.726631,-1.465414,1.178350,0.954837,0.071624,0.598280,-0.649347,-0.081615,-1.909770,-1.408454,-0.818761,-3.655950,3.852803,0.964962,-0.065433,-0.060410,0.000000,-0.136899,0.196932,-0.000000
1.910000,-1.816261,-0.717115,-1.464702,1.184236,0.948274,0.070767,0.579002,-0.663234,-0.089752,-1.945346,-1.368791,-0.808509,-3.425419,4.034407,1.091006,-0.066781,-0.058420,0.000000,-0.132758,0.200148,0.000000
1.920000,-1.804390,-0.707666,-1.463999,1.189929,0.941574,0.069829,0.559381,-0.676717,-0.097781,-1.978412,-1.327573,-0.796964,-3.186421,4.207757,1.218209,-0.068088,-0.056399,0.000000,-0.128481,0.203103,0.000000
1.930000,-1.792464,-0.698284,-1.463306,1.195423,0.934741,0.068812,0.539441,-0.689779,-0.105687,-2.009048,-1.284663,-0.784140,-2.939503,4.372889,1.346713,-0.069350,-0.054349,0.000000,-0.124055,0.205809,0.000000
1.940000,-1.780483,-0.688972,-1.462623,1.200716,0.927780,0.067716,0.519208,-0.702405,-0.113459,-2.037177,-1.240143,-0.770025,-2.685218,4.529836,1.476661,-0.070568,-0.052274,0.000000,-0.119490,0.208258,0.000000
1.950000,-1.768450,-0.679729,-1.461952,1.205806,0.920694,0.066543,0.498706,-0.714577,-0.121083,-2.062729,-1.194094,-0.754602,-2.424115,4.678631,1.608193,-0.071740,-0.050175,0.000000,-0.114795,0.210445,-0.000000
1.960000,-1.756367,-0.670558,-1.461292,1.210690,0.913490,0.065295,0.477968,-0.726289,-0.128547,-2.085131,-1.147265,-0.737903,-2.169563,4.836189,1.742659,-0.072864,-0.048055,0.000000,-0.110044,0.212316,0.000000
1.970000,-1.744237,-0.661460,-1.460646,1.215365,0.906170,0.063973,0.457012,-0.737517,-0.135837,-2.105524,-1.098157,-0.719797,-1.907722,4.983595,1.878846,-0.073940,-0.045918,0.000000,-0.105090,0.213985,0.000000
1.980000,-1.732061,-0.652435,-1.460013,1.219829,0.898741,0.062579,0.435866,-0.748247,-0.142939,-2.123258,-1.047634,-0.700320,-1.637575,5.118817,2.016748,-0.074966,-0.043765,0.000000,-0.100019,0.215390,-0.000000
1.990000,-1.719841,-0.643485,-1.459395,1.224081,0.891207,0.061115,0.414556,-0.758466,-0.149839,-2.138244,-0.995828,-0.679456,-1.358101,5.239822,2.156361,-0.075940,-0.041599,0.000000,-0.094846,0.216524,0.000000
2.000000,-1.707580,-0.634611,-1.458791,1.228120,0.883573,0.059583,0.393111,-0.768160,-0.156523,-2.150385,-0.942892,-0.657187,-1.068280,5.344576,2.297678,-0.076862,-0.039423,0.000000,-0.089585,0.217379,-0.000000
2.010000,-1.695279,-0.625814,-1.458203,1.231944,0.875845,0.057985,0.371549,-0.777307,-0.162979,-2.160486,-0.887750,-0.633589,-0.744002,5.399535,2.443012,-0.077730,-0.037238,0.000000,-0.084130,0.218037,-0.000000
2.020000,-1.682942,-0.617095,-1.457631,1.235551,0.868029,0.056324,0.349912,-0.785914,-0.169190,-2.166264,-0.833549,-0.608426,-0.410167,5.438035,2.589754,-0.078545,-0.035050,0.000000,-0.078795,0.218272,0.000000
2.030000,-1.670569,-0.608454,-1.457077,1.238942,0.860129,0.054602,0.328235,-0.793977,-0.175142,-2.168664,-0.779038,-0.581790,-0.068580,5.461902,2.737617,-0.079306,-0.032860,0.000000,-0.073455,0.218180,-0.000000
2.040000,-1.658163,-0.599892,-1.456540,1.242116,0.852151,0.052822,0.306550,-0.801494,-0.180821,-2.167616,-0.724354,-0.553671,0.278949,5.472962,2.886310,-0.080014,-0.030674,0.000000,-0.068124,0.217757,-0.000000
2.050000,-1.645727,-0.591411,-1.456021,1.245073,0.844101,0.050987,0.284894,-0.808464,-0.186211,-2.163071,-0.669615,-0.524062,0.630613,5.473039,3.035544,-0.080669,-0.028492,0.000000,-0.062812,0.216998,0.000000
2.060000,-1.633263,-0.583011,-1.455520,1.247814,0.835984,0.049099,0.263306,-0.814892,-0.191298,-2.154543,-0.615495,-0.493046,0.973151,5.478398,3.187238,-0.081271,-0.026321,0.000000,-0.057587,0.215859,-0.000000
2.070000,-1.620772,-0.574692,-1.455039,1.250339,0.827805,0.047162,0.241815,-0.820774,-0.196067,-2.143090,-0.560722,-0.460417,1.317611,5.474657,3.338623,-0.081821,-0.024162,0.000000,-0.052323,0.214446,0.000000
2.080000,-1.608257,-0.566455,-1.454577,1.252650,0.819570,0.045179,0.220455,-0.826107,-0.200501,-2.128185,-0.506032,-0.426277,1.663587,5.461875,3.489140,-0.082318,-0.022019,0.000000,-0.047092,0.212707,-0.000000
2.090000,-1.595720,-0.558300,-1.454135,1.254749,0.811285,0.043153,0.199262,-0.830895,-0.204587,-2.109815,-0.451515,-0.390639,2.010675,5.440107,3.638229,-0.082763,-0.019895,0.000000,-0.041902,0.210643,-0.000000
2.100000,-1.583162,-0.550229,-1.453714,1.256636,0.802954,0.041088,0.178271,-0.835138,-0.208309,-2.087970,-0.397260,-0.353519,2.358469,5.409413,3.785329,-0.083156,-0.017793,0.000000,-0.036761,0.208255,0.000000
2.110000,-1.570587,-0.542241,-1.453314,1.258315,0.794584,0.038988,0.157520,-0.838847,-0.211654,-2.062190,-0.343934,-0.315024,2.695096,5.384433,3.932002,-0.083499,-0.015717,0.000000,-0.031733,0.205498,-0.000000
2.120000,-1.557997,-0.534338,-1.452934,1.259787,0.786179,0.036856,0.137038,-0.842018,-0.214605,-2.033551,-0.290258,-0.274985,3.033022,5.348854,4.075308,-0.083791,-0.013669,0.000000,-0.026693,0.202480,0.000000
2.130000,-1.545392,-0.526518,-1.452577,1.261057,0.777745,0.034697,0.116860,-0.844654,-0.217149,-2.001522,-0.236998,-0.233532,3.373247,5.300950,4.214427,-0.084033,-0.011654,0.000000,-0.021714,0.199149,0.000000
2.140000,-1.532776,-0.518783,-1.452241,1.262126,0.769288,0.032515,0.097019,-0.846760,-0.219271,-1.966075,-0.184285,-0.190713,3.716770,5.238991,4.348540,-0.084225,-0.009673,0.000000,-0.016809,0.195504,0.000000
2.150000,-1.520151,-0.511132,-1.451926,1.262998,0.760812,0.030313,0.077550,-0.848342,-0.220958,-1.927173,-0.132270,-0.146581,4.064590,5.161249,4.476827,-0.084369,-0.007731,0.000000,-0.011990,0.191540,0.000000
2.160000,-1.507517,-0.503567,-1.451634,1.263678,0.752322,0.028097,0.058477,-0.849394,-0.222199,-1.885683,-0.079863,-0.101275,4.440863,5.034270,4.600407,-0.084464,-0.005829,0.000000,-0.007147,0.187345,-0.000000
2.170000,-1.494878,-0.496086,-1.451365,1.264169,0.743825,0.025871,0.039849,-0.849944,-0.222980,-1.839378,-0.030220,-0.054685,4.820595,4.891936,4.716285,-0.084513,-0.003972,0.000000,-0.002593,0.182697,0.000000
2.180000,-1.482234,-0.488690,-1.451117,1.264477,0.735325,0.023639,0.021702,-0.850004,-0.223289,-1.789265,0.017932,-0.006979,5.201950,4.736405,4.823404,-0.084516,-0.002163,0.000000,0.001801,0.177697,-0.000000
2.190000,-1.469589,-0.481379,-1.450892,1.264605,0.726827,0.021407,0.004076,-0.849590,-0.223116,-1.735339,0.064472,0.041750,5.583090,4.569833,4.920708,-0.084477,-0.000406,0.000000,0.006024,0.172343,-0.000000
2.200000,-1.456943,-0.474153,-1.450689,1.264560,0.718335,0.019178,-0.012992,-0.848720,-0.222451,-1.677610,0.109299,0.091399,5.962180,4.394377,5.007139,-0.084396,0.001295,0.000000,0.010070,0.166635,-0.000000
2.210000,-1.444298,-0.467013,-1.450508,1.264347,0.709854,0.016959,-0.029458,-0.847417,-0.221285,-1.615624,0.151714,0.141848,6.325137,4.227917,5.081775,-0.084277,0.002937,0.000000,0.013870,0.160527,-0.000000
2.220000,-1.431656,-0.459956,-1.450350,1.263973,0.701388,0.014754,-0.045292,-0.845692,-0.219612,-1.550575,0.193134,0.192985,6.683870,4.054961,5.143410,-0.084120,0.004516,0.000000,0.017568,0.154137,-0.000000
2.230000,-1.419019,-0.452985,-1.450213,1.263444,0.692941,0.012569,-0.060458,-0.843560,-0.217424,-1.481962,0.232792,0.244670,7.038040,3.875739,5.190969,-0.083926,0.006029,0.000000,0.021088,0.147412,0.000000
2.240000,-1.406388,-0.446097,-1.450098,1.262766,0.684518,0.010408,-0.074920,-0.841042,-0.214717,-1.409831,0.270628,0.296754,7.387311,3.690482,5.223381,-0.083698,0.007473,0.000000,0.024428,0.140356,-0.000000
2.250000,-1.393764,-0.439294,-1.450005,1.261948,0.676122,0.008276,-0.088643,-0.838154,-0.211488,-1.334233,0.306583,0.349083,7.731345,3.499422,5.239572,-0.083438,0.008845,0.000000,0.027584,0.132971,0.000000
2.260000,-1.381149,-0.432575,-1.449932,1.260996,0.667756,0.006180,-0.101595,-0.834914,-0.207734,-1.255391,0.340787,0.401556,8.074054,3.298027,5.236761,-0.083147,0.010141,0.000000,0.030570,0.125276,-0.000000
2.270000,-1.368545,-0.425939,-1.449881,1.259919,0.659425,0.004123,-0.113739,-0.831345,-0.203457,-1.172963,0.372740,0.453834,8.410331,3.091874,5.215793,-0.082828,0.011358,0.000000,0.033340,0.117235,-0.000000
2.280000,-1.355951,-0.419386,-1.449850,1.258724,0.651130,0.002112,-0.125043,-0.827467,-0.198659,-1.087208,0.402611,0.505808,8.739319,2.881777,5.175803,-0.082481,0.012493,0.000000,0.035913,0.108870,0.000000
2.290000,-1.343371,-0.412916,-1.449839,1.257421,0.642876,0.000152,-0.135473,-0.823300,-0.193343,-0.998204,0.430365,0.557284,9.060161,2.668551,5.115928,-0.082110,0.013542,0.000000,0.038286,0.100184,-0.000000
2.300000,-1.330803,-0.406529,-1.449847,1.256018,0.634665,-0.001753,-0.144996,-0.818866,-0.187515,-0.906035,0.455975,0.608058,9.371999,2.453010,5.035304,-0.081716,0.014502,0.000000,0.040460,0.091184,0.000000
2.310000,-1.318251,-0.400223,-1.449873,1.254524,0.626500,-0.003597,-0.153584,-0.814186,-0.181183,-0.810899,0.479598,0.658076,9.676552,2.231469,4.929076,-0.081301,0.015371,0.000000,0.042451,0.081883,0.000000
2.320000,-1.305713,-0.393998,-1.449918,1.252949,0.618382,-0.005375,-0.161204,-0.809282,-0.174358,-0.712656,0.500804,0.706744,9.970070,2.009792,4.800859,-0.080868,0.016144,0.000000,0.044220,0.072264,-0.000000
2.330000,-1.293192,-0.387855,-1.449981,1.251303,0.610315,-0.007083,-0.167828,-0.804177,-0.167053,-0.611538,0.519798,0.754019,10.251381,1.789345,4.650280,-0.080417,0.016820,0.000000,0.045789,0.062346,0.000000
2.340000,-1.280687,-0.381792,-1.450060,1.249596,0.602299,-0.008715,-0.173426,-0.798893,-0.159283,-0.507673,0.536600,0.799674,10.519311,1.571493,4.476962,-0.079953,0.017394,0.000000,0.047160,0.052136,-0.000000
2.350000,-1.268200,-0.375809,-1.450155,1.247838,0.594337,-0.010267,-0.177973,-0.793452,-0.151065,-0.401200,0.551241,0.843481,10.772687,1.357600,4.280531,-0.079475,0.017865,0.000000,0.048340,0.041645,0.000000
2.360000,-1.255731,-0.369905,-1.450265,1.246040,0.586431,-0.011735,-0.181441,-0.787879,-0.142418,-0.292205,0.563475,0.885444,11.008668,1.156471,4.054592,-0.078987,0.018229,0.000000,0.049301,0.030875,-0.000000
2.370000,-1.243279,-0.364080,-1.450389,1.244213,0.578580,-0.013114,-0.183809,-0.782189,-0.133364,-0.181008,0.574058,0.924764,11.227953,0.961121,3.805526,-0.078489,0.018483,0.000000,0.050127,0.019855,0.000000
2.380000,-1.230846,-0.358333,-1.450527,1.242368,0.570787,-0.014401,-0.185054,-0.776404,-0.123931,-0.067705,0.582718,0.961479,11.429574,0.772005,3.533695,-0.077985,0.018626,0.000000,0.050788,0.008589,-0.000000
2.390000,-1.218432,-0.352664,-1.450677,1.240516,0.563052,-0.015591,-0.185157,-0.770541,-0.114144,0.047521,0.589520,0.995363,11.612562,0.589578,3.239462,-0.077474,0.018655,0.000000,0.051293,-0.002907,-0.000000
2.400000,-1.206036,-0.347072,-1.450838,1.238668,0.555377,-0.016682,-0.184098,-0.764619,-0.104034,0.164481,0.594534,1.026195,11.775948,0.414294,2.923188,-0.076959,0.018567,0.000000,0.051649,-0.014620,0.000000
2.410000,-1.193659,-0.341556,-1.451010,1.236838,0.547760,-0.017671,-0.181862,-0.758655,-0.093628,0.282938,0.597921,1.054029,11.919617,0.244348,2.578310,-0.076442,0.018361,0.000000,0.051871,-0.026528,-0.000000
2.420000,-1.181299,-0.336117,-1.451191,1.235035,0.540203,-0.018554,-0.178435,-0.752667,-0.082965,0.402763,0.599549,1.078002,12.041641,0.082730,2.212964,-0.075922,0.018035,0.000000,0.051951,-0.038622,0.000000
2.430000,-1.168958,-0.330752,-1.451381,1.233273,0.532707,-0.019330,-0.173803,-0.746670,-0.072081,0.523695,0.599606,1.098224,12.140949,-0.069828,1.828358,-0.075403,0.017586,0.000000,0.051907,-0.050879,-0.000000
2.440000,-1.156634,-0.325462,-1.451578,1.231563,0.525270,-0.019995,-0.167958,-0.740679,-0.061014,0.645502,0.598185,1.114509,12.216465,-0.212596,1.425703,-0.074885,0.017014,0.000000,0.051748,-0.063276,0.000000
2.450000,-1.144326,-0.320247,-1.451780,1.229918,0.517893,-0.020549,-0.160891,-0.734710,-0.049804,0.767941,0.595389,1.126682,12.267118,-0.344843,1.006208,-0.074368,0.016316,0.000000,0.051485,-0.075791,-0.000000
2.460000,-1.132035,-0.315104,-1.451988,1.228349,0.510576,-0.020991,-0.152598,-0.728775,-0.038491,0.890723,0.591447,1.134847,12.292717,-0.468893,0.564356,-0.073855,0.015493,0.000000,0.051140,-0.088394,0.000000
2.470000,-1.119759,-0.310035,-1.452200,1.226870,0.503317,-0.021319,-0.143076,-0.722885,-0.027122,1.013666,0.586189,1.138224,12.291197,-0.580587,0.108908,-0.073346,0.014544,0.000000,0.050699,-0.101068,0.000000
2.480000,-1.107497,-0.305038,-1.452414,1.225492,0.496118,-0.021533,-0.132326,-0.717054,-0.015742,1.136453,0.579880,1.136987,12.261377,-0.678818,-0.358103,-0.072841,0.013466,0.000000,0.050188,-0.113779,-0.000000
2.490000,-1.095249,-0.300112,-1.452630,1.224228,0.488976,-0.021634,-0.120349,-0.711291,-0.004398,1.258795,0.572661,1.131030,12.202075,-0.762481,-0.834642,-0.072342,0.012262,0.000000,0.049620,-0.126496,0.000000
2.500000,-1.083012,-0.295258,-1.452846,1.223089,0.481892,-0.021622,-0.107152,-0.705604,0.006862,1.380392,0.564683,1.120269,12.112110,-0.830470,-1.318676,-0.071849,0.010930,0.000000,0.049010,-0.139185,-0.000000
2.510000,-1.070787,-0.290474,-1.453062,1.222088,0.474864,-0.021497,-0.092743,-0.700003,0.017993,1.501104,0.555717,1.104857,11.985928,-0.871829,-1.813688,-0.071363,0.009471,0.000000,0.048334,-0.151829,-0.000000
2.520000,-1.058570,-0.285761,-1.453276,1.221238,0.467892,-0.021262,-0.077135,-0.694490,0.028943,1.620198,0.546862,1.084233,11.827255,-0.896511,-2.311452,-0.070882,0.007886,0.000000,0.047705,-0.164348,-0.000000
2.530000,-1.046361,-0.281116,-1.453487,1.220550,0.460974,-0.020919,-0.060345,-0.689067,0.039661,1.737539,0.537842,1.058628,11.635445,-0.904617,-2.809259,-0.070408,0.006176,0.000000,0.047095,-0.176723,0.000000
2.540000,-1.034159,-0.276541,-1.453694,1.220035,0.454110,-0.020470,-0.042391,-0.683733,0.050099,1.852794,0.528824,1.028056,11.409852,-0.896247,-3.304400,-0.069940,0.004343,0.000000,0.046518,-0.188913,0.000000
2.550000,-1.021960,-0.272034,-1.453896,1.219706,0.447299,-0.019918,-0.023297,-0.678490,0.060206,1.965621,0.519972,0.992558,11.149830,-0.871505,-3.794166,-0.069478,0.002389,0.000000,0.045991,-0.200876,0.000000
2.560000,-1.009764,-0.267595,-1.454092,1.219573,0.440540,-0.019267,-0.003086,-0.673335,0.069935,2.075805,0.511262,0.952287,10.851423,-0.825784,-4.278053,-0.069021,0.000317,0.000000,0.045510,-0.212582,0.000000
2.570000,-0.997568,-0.263223,-1.454281,1.219648,0.433832,-0.018521,0.018209,-0.668263,0.079236,2.182680,0.503298,0.907132,10.517699,-0.764468,-4.750877,-0.068567,-0.001871,0.000000,0.045136,-0.223953,0.000000
2.580000,-0.985370,-0.258918,-1.454462,1.219940,0.427174,-0.017684,0.040555,-0.663267,0.088062,2.286040,0.496023,0.857316,10.148419,-0.688235,-5.209658,-0.068118,-0.004172,0.000000,0.044863,-0.234960,-0.000000
2.590000,-0.973168,-0.254679,-1.454635,1.220462,0.420566,-0.016762,0.063917,-0.658339,0.096367,2.385529,0.489581,0.802996,9.743341,-0.597762,-5.651418,-0.067670,-0.006580,0.000000,0.044702,-0.245556,0.000000
2.600000,-0.960960,-0.250506,-1.454797,1.221222,0.414007,-0.015759,0.088252,-0.653472,0.104107,2.480787,0.484113,0.744355,9.302226,-0.493725,-6.073176,-0.067223,-0.009092,0.000000,0.044667,-0.255693,-0.000000
2.610000,-0.948743,-0.246399,-1.454949,1.222230,0.407497,-0.014681,0.113522,-0.648652,0.111239,2.571881,0.479862,0.681510,8.814017,-0.379634,-6.469462,-0.066776,-0.011704,0.000000,0.044782,-0.265369,0.000000
2.620000,-0.936515,-0.242356,-1.455091,1.223495,0.401034,-0.013536,0.139673,-0.643871,0.117725,2.657433,0.476688,0.614940,8.290613,-0.252988,-6.840093,-0.066327,-0.014410,0.000000,0.045027,-0.274433,0.000000
2.630000,-0.924272,-0.238378,-1.455220,1.225026,0.394619,-0.012329,0.166652,-0.639114,0.123526,2.737579,0.474843,0.544803,7.733097,-0.114118,-7.182397,-0.065875,-0.017203,0.000000,0.045428,-0.282888,-0.000000
2.640000,-0.912013,-0.234464,-1.455337,1.226831,0.388252,-0.011068,0.194405,-0.634369,0.128610,2.811984,0.474445,0.471395,7.142552,0.036645,-7.493699,-0.065418,-0.020078,0.000000,0.045992,-0.290690,0.000000
2.650000,-0.899735,-0.230613,-1.455441,1.228917,0.381932,-0.009760,0.222872,-0.629620,0.132944,2.880324,0.475614,0.395041,6.520062,0.198970,-7.771324,-0.064954,-0.023027,0.000000,0.046730,-0.297797,0.000000
2.660000,-0.887434,-0.226825,-1.455532,1.231290,0.375660,-0.008412,0.251994,-0.624854,0.136498,2.942622,0.478209,0.315748,5.858152,0.378916,-8.003956,-0.064483,-0.026044,0.000000,0.047625,-0.304204,-0.000000
2.670000,-0.875108,-0.223100,-1.455609,1.233958,0.369435,-0.007032,0.281702,-0.620050,0.139252,2.997773,0.482941,0.234702,5.167512,0.568980,-8.198622,-0.064001,-0.029121,0.000000,0.048741,-0.309792,-0.000000
2.680000,-0.862754,-0.219436,-1.455673,1.236926,0.363259,-0.005629,0.311926,-0.615188,0.141187,3.045883,0.489619,0.151907,4.450274,0.768049,-8.353708,-0.063507,-0.032250,0.000000,0.050058,-0.314565,-0.000000
2.690000,-0.850368,-0.215834,-1.455722,1.240198,0.357132,-0.004211,0.342595,-0.610250,0.142286,3.086697,0.498328,0.067766,3.708568,0.975008,-8.467597,-0.062999,-0.035422,0.000000,0.051579,-0.318493,-0.000000
2.700000,-0.837949,-0.212293,-1.455757,1.243779,0.351054,-0.002786,0.373635,-0.605215,0.142539,3.119980,0.509142,-0.017302,2.944526,1.188746,-8.538674,-0.062475,-0.038629,0.000000,0.053308,-0.321551,0.000000
2.710000,-0.825492,-0.208813,-1.455778,1.247672,0.345028,-0.001363,0.404971,-0.600062,0.141933,3.145754,0.521944,-0.103360,2.154382,1.412634,-8.552682,-0.061933,-0.041863,0.000000,0.055232,-0.323737,0.000000
2.720000,-0.812994,-0.205393,-1.455784,1.251879,0.339053,0.000050,0.436523,-0.594768,0.140472,3.163273,0.537207,-0.188772,1.346888,1.640524,-8.522195,-0.061370,-0.045114,0.000000,0.057386,-0.324981,-0.000000
2.730000,-0.800453,-0.202032,-1.455777,1.256403,0.333133,0.001443,0.468210,-0.589311,0.138159,3.172643,0.554763,-0.273656,0.524897,1.870753,-8.447146,-0.060784,-0.048372,0.000000,0.059752,-0.325294,0.000000
2.740000,-0.787865,-0.198730,-1.455755,1.261244,0.327268,0.002810,0.499949,-0.583665,0.135002,3.173732,0.574625,-0.357566,-0.308737,2.101658,-8.327466,-0.060174,-0.051628,0.000000,0.062327,-0.324667,0.000000
2.750000,-0.775227,-0.195486,-1.455721,1.266402,0.321460,0.004141,0.531656,-0.577810,0.131012,3.166439,0.596792,-0.440056,-1.151160,2.331577,-8.163088,-0.059537,-0.054874,0.000000,0.065104,-0.323098,0.000000
2.760000,-0.762536,-0.192300,-1.455673,1.271876,0.315712,0.005428,0.563250,-0.571719,0.126201,3.150785,0.621522,-0.521193,-2.001926,2.551900,-7.940957,-0.058871,-0.058099,0.000000,0.068110,-0.320593,-0.000000
2.770000,-0.749789,-0.189172,-1.455612,1.277666,0.310027,0.006662,0.594644,-0.565373,0.120597,3.126499,0.648129,-0.599311,-2.855478,2.768762,-7.675584,-0.058174,-0.061294,0.000000,0.071261,-0.317142,-0.000000
2.780000,-0.736982,-0.186100,-1.455540,1.283768,0.304406,0.007837,0.625752,-0.558749,0.114225,3.093676,0.676883,-0.674565,-3.708668,2.981350,-7.368490,-0.057445,-0.064449,0.000000,0.074584,-0.312763,-0.000000
2.790000,-0.724112,-0.183083,-1.455456,1.290180,0.298853,0.008944,0.656489,-0.551828,0.107116,3.052337,0.707739,-0.746547,-4.558348,3.188852,-7.021200,-0.056682,-0.067556,0.000000,0.078072,-0.307470,-0.000000
2.800000,-0.711177,-0.180122,-1.455361,1.296897,0.293370,0.009977,0.686770,-0.544588,0.099306,3.002532,0.740641,-0.814860,-5.401370,3.390456,-6.635235,-0.055883,-0.070606,0.000000,0.081713,-0.301283,0.000000
2.810000,-0.698173,-0.177216,-1.455256,1.303914,0.287962,0.010928,0.716509,-0.537009,0.090828,2.944120,0.775466,-0.879565,-6.228956,3.586849,-6.201074,-0.055047,-0.073588,0.000000,0.085495,-0.294199,-0.000000
2.820000,-0.685098,-0.174363,-1.455143,1.311225,0.282631,0.011792,0.745625,-0.529072,0.081730,2.877742,0.812285,-0.939261,-7.044275,3.775536,-5.732638,-0.054173,-0.076496,0.000000,0.089417,-0.286307,0.000000
2.830000,-0.671948,-0.171563,-1.455021,1.318824,0.277382,0.012561,0.774037,-0.520757,0.072059,2.803283,0.850948,-0.994113,-7.844869,3.955521,-5.232800,-0.053259,-0.079320,0.000000,0.093465,-0.277607,0.000000
