time,x,y,z,vx,vy,vz,ax,ay,az,jx,jy,jz,sx,sy,sz,roll,pitch,yaw,p,q,r
0.000000,-2.212625,-2.175978,-1.474803,0.016615,-0.009933,-0.002124,-0.730556,0.411328,-0.024806,18.686556,-13.661095,0.122127,-349.730248,386.236381,-2.056837,0.041685,0.074147,0.000000,-1.376475,-1.887058,-0.000000
0.010000,-2.212492,-2.176058,-1.474825,0.010187,-0.006441,-0.002367,-0.560311,0.293074,-0.023686,15.447074,-10.082715,0.102067,-299.018201,330.387533,-1.953018,0.029746,0.056917,0.000000,-1.019798,-1.564467,0.000000
0.020000,-2.212416,-2.176110,-1.474850,0.005309,-0.003961,-0.002599,-0.420008,0.207906,-0.022761,12.689565,-7.034863,0.083110,-253.294108,280.083056,-1.836204,0.021122,0.042689,0.000000,-0.713141,-1.287541,-0.000000
0.030000,-2.212382,-2.176140,-1.474877,0.001703,-0.002189,-0.002822,-0.305075,0.150789,-0.022020,10.365394,-4.463524,0.065382,-212.309336,235.037474,-1.707485,0.015328,0.031019,0.000000,-0.453051,-1.052905,-0.000000
0.040000,-2.212378,-2.176155,-1.474906,-0.000864,-0.000867,-0.003040,-0.211410,0.117218,-0.021449,8.428410,-2.317536,0.048997,-175.815253,194.965313,-1.567951,0.011919,0.021500,0.000000,-0.235360,-0.856726,0.000000
0.050000,-2.212396,-2.176158,-1.474938,-0.002584,0.000220,-0.003252,-0.135362,0.103182,-0.021035,6.834949,-0.548591,0.034056,-143.563224,159.581095,-1.418692,0.010494,0.013768,0.000000,-0.055654,-0.695024,-0.000000
0.060000,-2.212428,-2.176151,-1.474971,-0.003619,0.001250,-0.003461,-0.073704,0.105141,-0.020763,5.543834,0.888761,0.020652,-115.304618,128.599345,-1.260798,0.010694,0.007497,0.000000,0.090461,-0.563847,0.000000
0.070000,-2.212467,-2.176133,-1.475007,-0.004097,0.002366,-0.003668,-0.023607,0.119994,-0.020617,4.516374,2.037119,0.008865,-90.790802,101.734587,-1.095358,0.012206,0.002401,0.000000,0.207215,-0.459380,-0.000000
0.080000,-2.212508,-2.176103,-1.475045,-0.004121,0.003684,-0.003874,0.017382,0.145053,-0.020580,3.716364,2.936225,-0.001234,-69.773142,78.701345,-0.923464,0.014754,-0.001768,0.000000,0.298606,-0.377999,-0.000000
0.090000,-2.212548,-2.176058,-1.475085,-0.003772,0.005293,-0.004080,0.051366,0.178011,-0.020636,3.110086,3.622966,-0.009587,-52.003006,59.214145,-0.746205,0.018106,-0.005225,0.000000,0.368365,-0.316301,-0.000000
0.100000,-2.212583,-2.175996,-1.475126,-0.003111,0.007264,-0.004287,0.080125,0.216918,-0.020766,2.666307,4.131376,-0.016144,-37.231761,42.987508,-0.564671,0.022061,-0.008150,0.000000,0.419946,-0.271123,-0.000000
0.110000,-2.212609,-2.175912,-1.475170,-0.002182,0.009646,-0.004495,0.105138,0.260148,-0.020952,2.356283,4.492633,-0.020869,-25.210774,29.735961,-0.379953,0.026454,-0.010694,0.000000,0.456519,-0.239546,-0.000000
0.120000,-2.212626,-2.175801,-1.475216,-0.001017,0.012477,-0.004706,0.127609,0.306375,-0.021177,2.153753,4.735061,-0.023736,-15.691413,19.174027,-0.193139,0.031151,-0.012979,0.000000,0.480966,-0.218899,-0.000000
0.130000,-2.212629,-2.175660,-1.475264,0.000365,0.015780,-0.004919,0.148492,0.354539,-0.021421,2.034945,4.884128,-0.024729,-8.425044,11.016230,-0.005320,0.036042,-0.015103,0.000000,0.495883,-0.206764,-0.000000
0.140000,-2.212618,-2.175484,-1.475315,0.001950,0.019571,-0.005134,0.168515,0.403822,-0.021665,1.978571,4.962448,-0.023843,-3.163034,4.977095,0.182413,0.041045,-0.017138,0.000000,0.503577,-0.200975,-0.000000
0.150000,-2.212589,-2.175267,-1.475367,0.003734,0.023858,-0.005352,0.188208,0.453618,-0.021891,1.965832,4.989780,-0.021084,0.343249,0.771145,0.368971,0.046096,-0.019140,0.000000,0.506064,-0.199618,0.000000
0.160000,-2.212542,-2.175005,-1.475422,0.005714,0.028644,-0.005572,0.207923,0.503504,-0.022081,1.980412,4.983029,-0.016471,2.342438,-1.887096,0.553264,0.051154,-0.021144,0.000000,0.505072,-0.201035,-0.000000
0.170000,-2.212474,-2.174693,-1.475479,0.007893,0.033928,-0.005793,0.227861,0.553212,-0.022215,2.008486,4.956246,-0.010030,3.083166,-3.283102,0.734202,0.056191,-0.023171,0.000000,0.502035,-0.203821,0.000000
0.180000,-2.212384,-2.174325,-1.475538,0.010272,0.039707,-0.006016,0.248099,0.602600,-0.022275,2.038710,4.920623,-0.001802,2.814066,-3.702350,0.910695,0.061192,-0.025228,0.000000,0.498096,-0.206824,0.000000
0.190000,-2.212268,-2.173897,-1.475599,0.012856,0.045978,-0.006239,0.268613,0.651623,-0.022245,2.062230,4.884503,0.008165,1.783770,-3.430316,1.081652,0.066153,-0.027313,0.000000,0.494106,-0.209149,0.000000
0.200000,-2.212126,-2.173404,-1.475662,0.015645,0.052738,-0.006460,0.289300,0.700307,-0.022107,2.072677,4.853370,0.019809,0.240913,-2.752475,1.245984,0.071076,-0.029416,0.000000,0.490626,-0.210152,-0.000000
0.210000,-2.211954,-2.172841,-1.475728,0.018661,0.059958,-0.006680,0.309314,0.749676,-0.021844,2.002048,4.918319,0.032997,0.053663,-4.188731,1.404173,0.076065,-0.031450,0.000000,0.496878,-0.202945,-0.000000
0.220000,-2.211752,-2.172203,-1.475796,0.021854,0.067700,-0.006897,0.329331,0.798627,-0.021441,2.000737,4.869708,0.047793,-0.347194,-5.516528,1.553365,0.081009,-0.033485,0.000000,0.491643,-0.202771,0.000000
0.230000,-2.211517,-2.171485,-1.475866,0.025247,0.075929,-0.007109,0.349312,0.847028,-0.020884,1.994559,4.808311,0.064030,-0.911336,-6.747740,1.692276,0.085894,-0.035517,0.000000,0.485137,-0.202115,-0.000000
0.240000,-2.211246,-2.170683,-1.475938,0.028840,0.084638,-0.007314,0.369201,0.894754,-0.020156,1.982134,4.735035,0.081600,-1.588442,-7.894239,1.819623,0.090708,-0.037540,0.000000,0.477461,-0.200836,0.000000
0.250000,-2.210939,-2.169791,-1.476012,0.032631,0.093821,-0.007511,0.388931,0.941691,-0.019248,1.962582,4.650669,0.100379,-2.328188,-8.967897,1.934125,0.095439,-0.039548,0.000000,0.468702,-0.198850,0.000000
0.260000,-2.210593,-2.168805,-1.476088,0.036622,0.103468,-0.007698,0.408280,0.987781,-0.018144,1.921854,4.560337,0.120358,-2.734856,-10.093142,2.031383,0.100083,-0.041518,0.000000,0.459389,-0.194738,-0.000000
0.270000,-2.210206,-2.167720,-1.476166,0.040800,0.113572,-0.007873,0.427355,1.032862,-0.016837,1.892451,4.454040,0.141096,-3.145814,-11.155509,2.113612,0.104624,-0.043461,0.000000,0.448506,-0.191785,0.000000
0.280000,-2.209776,-2.166532,-1.476246,0.045168,0.124121,-0.008034,0.446115,1.076827,-0.015320,1.858950,4.337443,0.162577,-3.553033,-12.153090,2.179909,0.109050,-0.045373,0.000000,0.436637,-0.188434,0.000000
0.290000,-2.209302,-2.165236,-1.476327,0.049721,0.135104,-0.008179,0.464520,1.119578,-0.013584,1.821429,4.211201,0.184638,-3.948486,-13.083973,2.229375,0.113353,-0.047251,0.000000,0.423850,-0.184694,-0.000000
0.300000,-2.208781,-2.163829,-1.476409,0.054457,0.146508,-0.008305,0.482531,1.161022,-0.011625,1.780046,4.075992,0.207106,-4.324144,-13.946251,2.261108,0.117524,-0.049090,0.000000,0.410218,-0.180580,-0.000000
0.310000,-2.208212,-2.162305,-1.476493,0.059371,0.158320,-0.008411,0.500080,1.201060,-0.009438,1.732413,3.931504,0.230048,-4.605632,-14.712568,2.267887,0.121554,-0.050884,0.000000,0.395716,-0.175853,0.000000
0.320000,-2.207593,-2.160661,-1.476577,0.064458,0.170525,-0.008493,0.517170,1.239627,-0.007025,1.685064,3.780836,0.252683,-4.859393,-15.409575,2.255905,0.125436,-0.052632,0.000000,0.380644,-0.171169,0.000000
0.330000,-2.206923,-2.158893,-1.476663,0.069713,0.183108,-0.008551,0.533774,1.276654,-0.004385,1.635317,3.623539,0.275104,-5.085519,-16.038479,2.225034,0.129165,-0.054333,0.000000,0.364961,-0.166256,0.000000
0.340000,-2.206199,-2.156997,-1.476748,0.075131,0.196053,-0.008580,0.549869,1.312078,-0.001524,1.583446,3.460289,0.297120,-5.284108,-16.600485,2.175148,0.132734,-0.055985,0.000000,0.348733,-0.161143,0.000000
0.350000,-2.205420,-2.154971,-1.476834,0.080708,0.209344,-0.008580,0.565437,1.345843,0.001555,1.529726,3.291748,0.318543,-5.455255,-17.096799,2.106118,0.136138,-0.057584,0.000000,0.332023,-0.155854,0.000000
0.360000,-2.204584,-2.152810,-1.476920,0.086438,0.222964,-0.008549,0.580454,1.377894,0.004847,1.474036,3.118232,0.339457,-5.589048,-17.520140,2.010790,0.139372,-0.059130,0.000000,0.314863,-0.150378,-0.000000
0.370000,-2.203690,-2.150510,-1.477005,0.092316,0.236896,-0.008483,0.594913,1.408194,0.008341,1.417585,2.941174,0.359011,-5.696815,-17.881241,1.896925,0.142434,-0.060621,0.000000,0.297381,-0.144830,-0.000000
0.380000,-2.202737,-2.148071,-1.477089,0.098335,0.251122,-0.008381,0.608803,1.436706,0.012024,1.360182,2.760807,0.377336,-5.779876,-18.182347,1.765256,0.145319,-0.062056,0.000000,0.279599,-0.139190,-0.000000
0.390000,-2.201723,-2.145487,-1.477172,0.104490,0.265624,-0.008242,0.622114,1.463401,0.015883,1.302066,2.577720,0.394259,-5.839551,-18.425703,1.616516,0.148025,-0.063434,0.000000,0.261569,-0.133480,-0.000000
0.400000,-2.200647,-2.142757,-1.477254,0.110775,0.280384,-0.008063,0.634842,1.488254,0.019904,1.243464,2.392478,0.409612,-5.877161,-18.613555,1.451440,0.150550,-0.064755,0.000000,0.243342,-0.127721,0.000000
0.410000,-2.199507,-2.139879,-1.477334,0.117185,0.295383,-0.007843,0.646983,1.511245,0.024072,1.184589,2.205639,0.423459,-5.893968,-18.748477,1.265117,0.152891,-0.066018,0.000000,0.224967,-0.121933,-0.000000
0.420000,-2.198303,-2.136849,-1.477411,0.123713,0.310602,-0.007581,0.658534,1.532363,0.028366,1.125647,2.017693,0.435119,-5.891359,-18.832344,1.064614,0.155049,-0.067222,0.000000,0.206479,-0.116130,-0.000000
0.430000,-2.197033,-2.133666,-1.477485,0.130353,0.326024,-0.007276,0.669496,1.551597,0.032767,1.066822,1.829155,0.444709,-5.870660,-18.867363,0.851356,0.157021,-0.068368,0.000000,0.187926,-0.110329,-0.000000
0.440000,-2.195695,-2.130328,-1.477556,0.137101,0.341628,-0.006926,0.679871,1.568946,0.037253,1.008290,1.640502,0.452108,-5.833200,-18.855737,0.626767,0.158807,-0.069456,0.000000,0.169346,-0.104547,0.000000
0.450000,-2.194290,-2.126833,-1.477623,0.143949,0.357396,-0.006530,0.689663,1.584409,0.041802,0.950210,1.452189,0.457211,-5.780305,-18.799672,0.392271,0.160408,-0.070486,0.000000,0.150778,-0.098797,0.000000
0.460000,-2.192816,-2.123179,-1.477687,0.150892,0.373310,-0.006089,0.698878,1.597993,0.046391,0.892785,1.264718,0.460043,-5.714666,-18.703117,0.146328,0.161823,-0.071458,0.000000,0.132268,-0.093097,-0.000000
0.470000,-2.191272,-2.119366,-1.477745,0.157925,0.389350,-0.005602,0.707522,1.609707,0.050994,0.836020,1.078338,0.460248,-5.636081,-18.566319,-0.106310,0.163053,-0.072373,0.000000,0.113828,-0.087444,0.000000
0.480000,-2.189657,-2.115392,-1.477798,0.165041,0.405498,-0.005070,0.715601,1.619565,0.055587,0.780102,0.893519,0.457900,-5.545713,-18.391269,-0.363857,0.164100,-0.073231,0.000000,0.095503,-0.081857,-0.000000
0.490000,-2.187971,-2.111256,-1.477846,0.172235,0.421735,-0.004491,0.723127,1.627584,0.060144,0.725142,0.710634,0.452960,-5.444721,-18.179959,-0.624525,0.164964,-0.074032,0.000000,0.077323,-0.076344,0.000000
0.500000,-2.186212,-2.106957,-1.477888,0.179501,0.438044,-0.003867,0.730108,1.633785,0.064638,0.671239,0.530034,0.445405,-5.334267,-17.934380,-0.886527,0.165647,-0.074779,0.000000,0.059319,-0.070914,0.000000
0.510000,-2.184381,-2.102495,-1.477923,0.186835,0.454405,-0.003198,0.736556,1.638194,0.069043,0.618546,0.352104,0.435225,-5.217077,-17.657801,-1.147935,0.166151,-0.075471,0.000000,0.041526,-0.065582,0.000000
0.520000,-2.182476,-2.097869,-1.477952,0.194231,0.470802,-0.002486,0.742483,1.640837,0.073333,0.566992,0.177037,0.422448,-5.092555,-17.350780,-1.407121,0.166478,-0.076109,0.000000,0.023960,-0.060340,-0.000000
0.530000,-2.180496,-2.093079,-1.477973,0.201683,0.487216,-0.001732,0.747900,1.641745,0.077483,0.516716,0.005184,0.407096,-4.961671,-17.015151,-1.662313,0.166631,-0.076695,0.000000,0.006655,-0.055200,-0.000000
0.540000,-2.178442,-2.088125,-1.477986,0.209187,0.503631,-0.000937,0.752822,1.640952,0.081467,0.467777,-0.163177,0.389221,-4.825395,-16.652749,-1.911742,0.166612,-0.077229,0.000000,-0.010364,-0.050170,0.000000
0.550000,-2.176312,-2.083006,-1.477992,0.216738,0.520029,-0.000103,0.757260,1.638494,0.085259,0.420223,-0.327788,0.368887,-4.684695,-16.265408,-2.153639,0.166425,-0.077713,0.000000,-0.027069,-0.045253,0.000000
0.560000,-2.174107,-2.077724,-1.477988,0.224331,0.536395,0.000767,0.761231,1.634410,0.088835,0.374162,-0.488374,0.346063,-4.542247,-15.855820,-2.383306,0.166072,-0.078147,0.000000,-0.043436,-0.040461,0.000000
0.570000,-2.171825,-2.072278,-1.477976,0.231961,0.552712,0.001672,0.764748,1.628741,0.092173,0.329463,-0.644795,0.321126,-4.397106,-15.424858,-2.602259,0.165557,-0.078534,0.000000,-0.059443,-0.035783,0.000000
0.580000,-2.169467,-2.066670,-1.477955,0.239624,0.568965,0.002610,0.767826,1.621529,0.095251,0.286226,-0.796806,0.294058,-4.250033,-14.974252,-2.809085,0.164885,-0.078873,0.000000,-0.075067,-0.031228,0.000000
0.590000,-2.167033,-2.060899,-1.477924,0.247316,0.585138,0.003577,0.770478,1.612820,0.098048,0.244466,-0.944220,0.264989,-4.101787,-14.505733,-3.002374,0.164057,-0.079167,0.000000,-0.090284,-0.026801,-0.000000
0.600000,-2.164521,-2.054968,-1.477883,0.255032,0.601216,0.004570,0.772720,1.602660,0.100544,0.204192,-1.086867,0.234060,-3.953129,-14.021030,-3.180714,0.163080,-0.079417,0.000000,-0.105074,-0.022502,-0.000000
0.610000,-2.161932,-2.048875,-1.477832,0.262769,0.617186,0.005586,0.774567,1.591099,0.102721,0.165476,-1.224556,0.201236,-3.806676,-13.522788,-3.337819,0.161957,-0.079624,0.000000,-0.119416,-0.018339,0.000000
0.620000,-2.159266,-2.042624,-1.477771,0.270522,0.633034,0.006623,0.776034,1.578186,0.104564,0.128138,-1.357239,0.167144,-3.661105,-13.011711,-3.477748,0.160694,-0.079789,0.000000,-0.133292,-0.014300,0.000000
0.630000,-2.156522,-2.036215,-1.477700,0.278289,0.648746,0.007677,0.777135,1.563972,0.106060,0.092249,-1.484753,0.131741,-3.516950,-12.489416,-3.599687,0.159293,-0.079914,0.000000,-0.146685,-0.010393,-0.000000
0.640000,-2.153700,-2.029650,-1.477618,0.286064,0.664309,0.008743,0.777884,1.548509,0.107195,0.057793,-1.606995,0.095213,-3.374743,-11.957521,-3.702820,0.157761,-0.080000,0.000000,-0.159578,-0.006617,-0.000000
0.650000,-2.150800,-2.022930,-1.477525,0.293845,0.679712,0.009819,0.778296,1.531850,0.107961,0.024746,-1.723877,0.057750,-3.235018,-11.417644,-3.786335,0.156103,-0.080048,0.000000,-0.171955,-0.002972,-0.000000
0.660000,-2.147823,-2.016056,-1.477421,0.301629,0.694942,0.010901,0.778384,1.514050,0.108345,-0.006841,-1.835272,0.019327,-3.100251,-10.872796,-3.843690,0.154324,-0.080061,0.000000,-0.183801,0.000535,0.000000
0.670000,-2.144768,-2.009031,-1.477307,0.309412,0.709989,0.011985,0.778163,1.495162,0.108346,-0.037183,-1.941254,-0.019311,-2.968795,-10.323033,-3.880498,0.152429,-0.080038,0.000000,-0.195107,0.003921,-0.000000
0.680000,-2.141635,-2.001857,-1.477182,0.317191,0.724842,0.013067,0.777645,1.475243,0.107958,-0.066229,-2.041721,-0.058214,-2.840944,-9.769799,-3.896644,0.150424,-0.079982,0.000000,-0.205862,0.007179,0.000000
0.690000,-2.138424,-1.994535,-1.477046,0.324964,0.739491,0.014143,0.776843,1.454347,0.107181,-0.094015,-2.136643,-0.097174,-2.716994,-9.214544,-3.892014,0.148314,-0.079893,0.000000,-0.216055,0.010310,0.000000
0.700000,-2.135135,-1.987068,-1.476899,0.332727,0.753926,0.015209,0.775769,1.432529,0.106015,-0.120583,-2.226010,-0.135984,-2.597240,-8.658714,-3.866494,0.146105,-0.079774,0.000000,-0.225679,0.013317,-0.000000
0.710000,-2.131769,-1.979457,-1.476742,0.340478,0.768139,0.016262,0.774436,1.409846,0.104460,-0.145900,-2.309740,-0.174651,-2.483873,-8.105803,-3.814501,0.143802,-0.079624,0.000000,-0.234723,0.016195,0.000000
0.720000,-2.128326,-1.971706,-1.476574,0.348215,0.782120,0.017297,0.772855,1.386352,0.102524,-0.170191,-2.388041,-0.212450,-2.375062,-7.554961,-3.742060,0.141412,-0.079447,0.000000,-0.243194,0.018962,-0.000000
0.730000,-2.124805,-1.963816,-1.476396,0.355935,0.795863,0.018311,0.771036,1.362103,0.100214,-0.193416,-2.460850,-0.249426,-2.270868,-7.007384,-3.649728,0.138940,-0.079242,0.000000,-0.251085,0.021612,-0.000000
0.740000,-2.121207,-1.955790,-1.476208,0.363635,0.809360,0.019300,0.768990,1.337153,0.097539,-0.215624,-2.528204,-0.285380,-2.171356,-6.464270,-3.538061,0.136392,-0.079011,0.000000,-0.258394,0.024148,0.000000
0.750000,-2.117533,-1.947629,-1.476010,0.371314,0.822604,0.020261,0.766726,1.311557,0.094511,-0.236859,-2.590154,-0.320124,-2.076588,-5.926815,-3.407614,0.133774,-0.078755,0.000000,-0.265122,0.026573,-0.000000
0.760000,-2.113781,-1.939338,-1.475802,0.378969,0.835589,0.021189,0.764256,1.285369,0.091140,-0.257105,-2.646660,-0.353643,-1.988300,-5.398804,-3.254630,0.131092,-0.078475,0.000000,-0.271264,0.028885,0.000000
0.770000,-2.109953,-1.930919,-1.475586,0.386598,0.848310,0.022082,0.761587,1.258641,0.087443,-0.276566,-2.698040,-0.385352,-1.904678,-4.878528,-3.084507,0.128351,-0.078172,0.000000,-0.276843,0.031100,-0.000000
0.780000,-2.106049,-1.922373,-1.475361,0.394200,0.860760,0.022937,0.758728,1.231426,0.083438,-0.295214,-2.744260,-0.415279,-1.825581,-4.366867,-2.898329,0.125557,-0.077848,0.000000,-0.281855,0.033215,0.000000
0.790000,-2.102069,-1.913704,-1.475127,0.401772,0.872937,0.023750,0.755685,1.203773,0.079144,-0.313093,-2.785409,-0.443269,-1.750868,-3.864701,-2.697180,0.122716,-0.077503,0.000000,-0.286309,0.035232,0.000000
0.800000,-2.098014,-1.904915,-1.474886,0.409313,0.884834,0.024519,0.752468,1.175734,0.074580,-0.330245,-2.821588,-0.469177,-1.680397,-3.372908,-2.482145,0.119833,-0.077138,0.000000,-0.290212,0.037155,-0.000000
0.810000,-2.093883,-1.896009,-1.474637,0.416821,0.896450,0.025241,0.749083,1.147359,0.069767,-0.346664,-2.852794,-0.492972,-1.615295,-2.895173,-2.251717,0.116913,-0.076755,0.000000,-0.293566,0.038983,0.000000
0.820000,-2.089678,-1.886987,-1.474381,0.424294,0.907781,0.025914,0.745537,1.118694,0.064728,-0.362507,-2.879406,-0.514289,-1.553997,-2.429227,-2.009888,0.113963,-0.076354,0.000000,-0.296404,0.040730,0.000000
0.830000,-2.085397,-1.877854,-1.474119,0.431731,0.918823,0.026535,0.741835,1.089786,0.059489,-0.377756,-2.901420,-0.533136,-1.496206,-1.975608,-1.758060,0.110987,-0.075935,0.000000,-0.298730,0.042393,-0.000000
0.840000,-2.081043,-1.868612,-1.473851,0.439130,0.929576,0.027103,0.737984,1.060680,0.054074,-0.392442,-2.918961,-0.549421,-1.441627,-1.534852,-1.497634,0.107990,-0.075501,0.000000,-0.300557,0.043975,-0.000000
0.850000,-2.076615,-1.859263,-1.473577,0.446490,0.940036,0.027616,0.733988,1.031421,0.048510,-0.406598,-2.932161,-0.563065,-1.389961,-1.107495,-1.230011,0.104977,-0.075051,0.000000,-0.301899,0.045480,-0.000000
0.860000,-2.072113,-1.849812,-1.473299,0.453810,0.950204,0.028073,0.729854,1.002052,0.042822,-0.420222,-2.941054,-0.574029,-1.341636,-0.696676,-0.955917,0.101954,-0.074587,0.000000,-0.302762,0.046907,0.000000
0.870000,-2.067539,-1.840260,-1.473016,0.461087,0.960077,0.028472,0.725585,0.972614,0.037038,-0.433406,-2.946026,-0.582199,-1.295544,-0.300011,-0.677512,0.098924,-0.074108,0.000000,-0.303188,0.048266,0.000000
0.880000,-2.062892,-1.830611,-1.472730,0.468321,0.969656,0.028813,0.721187,0.943145,0.031187,-0.446139,-2.947102,-0.587570,-1.251300,0.082283,-0.396279,0.095892,-0.073617,0.000000,-0.303181,0.049555,-0.000000
0.890000,-2.058173,-1.820868,-1.472440,0.475510,0.978940,0.029096,0.716664,0.913684,0.025296,-0.458437,-2.944429,-0.590120,-1.208518,0.449990,-0.113703,0.092862,-0.073113,0.000000,-0.302761,0.050776,0.000000
0.900000,-2.053382,-1.811034,-1.472148,0.482654,0.987930,0.029319,0.712020,0.884268,0.019394,-0.470313,-2.938152,-0.589844,-1.166815,0.802890,0.168734,0.089838,-0.072597,0.000000,-0.301944,0.051932,0.000000
0.910000,-2.048520,-1.801110,-1.471854,0.489750,0.996626,0.029484,0.707259,0.854933,0.013509,-0.481771,-2.928340,-0.586707,-1.125911,1.138722,0.448452,0.086824,-0.072070,0.000000,-0.300741,0.053024,0.000000
0.920000,-2.043587,-1.791102,-1.471558,0.496798,1.005029,0.029589,0.702386,0.825712,0.007669,-0.492827,-2.915336,-0.580836,-1.085302,1.459563,0.725197,0.083824,-0.071533,0.000000,-0.299192,0.054053,0.000000
0.930000,-2.038584,-1.781011,-1.471262,0.503797,1.013140,0.029637,0.697404,0.796637,0.001902,-0.503477,-2.899199,-0.572218,-1.044589,1.765447,0.997618,0.080841,-0.070985,0.000000,-0.297305,0.055022,0.000000
0.940000,-2.033511,-1.770840,-1.470966,0.510746,1.020962,0.029628,0.692318,0.767738,-0.003766,-0.513717,-2.880077,-0.560903,-1.003376,2.056405,1.264364,0.077879,-0.070429,0.000000,-0.295100,0.055929,-0.000000
0.950000,-2.028369,-1.760593,-1.470670,0.517644,1.028496,0.029562,0.687131,0.739045,-0.009308,-0.523541,-2.858120,-0.546954,-0.961264,2.332471,1.524087,0.074940,-0.069864,0.000000,-0.292595,0.056777,-0.000000
0.960000,-2.023158,-1.750271,-1.470375,0.524488,1.035744,0.029442,0.681848,0.710585,-0.014696,-0.532958,-2.833426,-0.530351,-0.917364,2.592390,1.772964,0.072028,-0.069290,0.000000,-0.289803,0.057565,0.000000
0.970000,-2.017880,-1.739879,-1.470081,0.531280,1.042708,0.029269,0.676473,0.682385,-0.019906,-0.541905,-2.806264,-0.511416,-0.871829,2.837639,2.012419,0.069145,-0.068710,0.000000,-0.286758,0.058292,-0.000000
0.980000,-2.012533,-1.729418,-1.469790,0.538018,1.049392,0.029045,0.671011,0.654468,-0.024916,-0.550388,-2.776721,-0.490137,-0.824321,3.068411,2.241407,0.066294,-0.068122,0.000000,-0.283470,0.058958,-0.000000
0.990000,-2.007119,-1.718892,-1.469500,0.544700,1.055799,0.028771,0.665467,0.626858,-0.029702,-0.558384,-2.744943,-0.466626,-0.774501,3.284894,2.458879,0.063476,-0.067528,0.000000,-0.279957,0.059562,-0.000000
1.000000,-2.001639,-1.708303,-1.469214,0.551327,1.061931,0.028452,0.659845,0.599576,-0.034242,-0.565869,-2.711071,-0.441002,-0.722033,3.487279,2.663789,0.060695,-0.066928,0.000000,-0.276237,0.060104,0.000000
1.010000,-1.996093,-1.697654,-1.468932,0.557897,1.067791,0.028087,0.654151,0.572643,-0.038514,-0.572853,-2.675223,-0.413264,-0.665595,3.675221,2.851756,0.057952,-0.066324,0.000000,-0.272324,0.060584,0.000000
1.020000,-1.990481,-1.686948,-1.468653,0.564410,1.073385,0.027682,0.648390,0.546078,-0.042501,-0.579214,-2.637588,-0.383865,-0.605951,3.849513,3.025474,0.055249,-0.065715,0.000000,-0.268242,0.060995,0.000000
1.030000,-1.984805,-1.676187,-1.468378,0.570864,1.078714,0.027238,0.642569,0.519897,-0.046186,-0.584961,-2.598277,-0.352804,-0.542885,4.010410,3.184305,0.052588,-0.065102,0.000000,-0.264002,0.061337,-0.000000
1.040000,-1.979064,-1.665375,-1.468108,0.577261,1.083784,0.026759,0.636693,0.494117,-0.049552,-0.590059,-2.557423,-0.320231,-0.476178,4.158168,3.327609,0.049970,-0.064487,0.000000,-0.259622,0.061610,0.000000
1.050000,-1.973260,-1.654512,-1.467843,0.583598,1.088598,0.026249,0.630770,0.468753,-0.052586,-0.594472,-2.515157,-0.286305,-0.405612,4.293045,3.454747,0.047396,-0.063869,0.000000,-0.255115,0.061809,-0.000000
1.060000,-1.967393,-1.643603,-1.467583,0.589876,1.093161,0.025709,0.624806,0.443819,-0.055272,-0.598210,-2.471606,-0.251047,-0.329666,4.415324,3.561425,0.044868,-0.063249,0.000000,-0.250496,0.061939,0.000000
1.070000,-1.961463,-1.632650,-1.467329,0.596094,1.097476,0.025144,0.618808,0.419325,-0.057603,-0.601109,-2.426893,-0.214970,-0.249585,4.525230,3.651107,0.042386,-0.062629,0.000000,-0.245780,0.061984,0.000000
1.080000,-1.955471,-1.621655,-1.467080,0.602252,1.101549,0.024558,0.612786,0.395284,-0.059569,-0.603187,-2.381141,-0.178083,-0.165312,4.623016,3.723602,0.039953,-0.062009,0.000000,-0.240980,0.061948,0.000000
1.090000,-1.949418,-1.610620,-1.466838,0.608350,1.105383,0.023954,0.606748,0.371705,-0.061163,-0.604401,-2.334472,-0.140556,-0.076787,4.708935,3.778717,0.037567,-0.061389,0.000000,-0.236107,0.061827,0.000000
1.100000,-1.943304,-1.599548,-1.466601,0.614387,1.108984,0.023336,0.600701,0.348597,-0.062379,-0.604709,-2.287001,-0.102567,0.016046,4.783240,3.816262,0.035231,-0.060772,0.000000,-0.231176,0.061618,0.000000
1.110000,-1.937130,-1.588441,-1.466371,0.620364,1.112357,0.022708,0.594656,0.325968,-0.063212,-0.604121,-2.238859,-0.064152,0.114648,4.846541,3.832549,0.032944,-0.060157,0.000000,-0.226197,0.061323,-0.000000
1.120000,-1.930897,-1.577301,-1.466147,0.626280,1.115505,0.022073,0.588622,0.303822,-0.063662,-0.602464,-2.190124,-0.025818,0.217503,4.898689,3.831311,0.030707,-0.059545,0.000000,-0.221182,0.060928,-0.000000
1.130000,-1.924605,-1.566132,-1.465930,0.632136,1.118435,0.021436,0.582610,0.282167,-0.063728,-0.599757,-2.140922,0.012417,0.324499,4.939894,3.812784,0.028520,-0.058938,0.000000,-0.216140,0.060433,-0.000000
1.140000,-1.918255,-1.554933,-1.465718,0.637933,1.121150,0.020800,0.576631,0.261005,-0.063414,-0.595961,-2.091362,0.050381,0.435523,4.970364,3.777204,0.026384,-0.058336,0.000000,-0.211083,0.059837,-0.000000
1.150000,-1.911846,-1.543709,-1.465514,0.643669,1.123656,0.020169,0.570695,0.240340,-0.062722,-0.591034,-2.041550,0.087905,0.550460,4.990309,3.724808,0.024299,-0.057741,0.000000,-0.206021,0.059136,-0.000000
1.160000,-1.905381,-1.532461,-1.465315,0.649347,1.125959,0.019547,0.564813,0.220174,-0.061657,-0.584992,-1.991597,0.124938,0.670543,5.000108,3.652886,0.022264,-0.057153,0.000000,-0.200964,0.058330,-0.000000
1.170000,-1.898860,-1.521191,-1.465123,0.654966,1.128062,0.018937,0.558999,0.200508,-0.060226,-0.577671,-1.941589,0.161041,0.794149,4.999778,3.564981,0.020279,-0.056574,0.000000,-0.195920,0.057407,-0.000000
1.180000,-1.892282,-1.509900,-1.464936,0.660527,1.129970,0.018343,0.553264,0.181342,-0.058439,-0.569098,-1.891634,0.196187,0.920999,4.989507,3.461692,0.018345,-0.056005,0.000000,-0.190898,0.056367,-0.000000
1.190000,-1.885649,-1.498592,-1.464756,0.666031,1.131690,0.017769,0.547621,0.162675,-0.056306,-0.559242,-1.841831,0.230225,1.050815,4.969483,3.343614,0.016461,-0.055447,0.000000,-0.185907,0.055209,-0.000000
1.200000,-1.878962,-1.487267,-1.464581,0.671480,1.133226,0.017218,0.542084,0.144505,-0.053839,-0.548073,-1.792276,0.263012,1.183319,4.939894,3.211346,0.014627,-0.054901,0.000000,-0.180956,0.053930,0.000000
1.210000,-1.872220,-1.475928,-1.464411,0.676873,1.134582,0.016693,0.536664,0.126829,-0.051050,-0.535607,-1.743067,0.294492,1.319243,4.900993,3.063341,0.012842,-0.054369,0.000000,-0.176052,0.052530,0.000000
1.220000,-1.865425,-1.464576,-1.464247,0.682213,1.135764,0.016198,0.531376,0.109642,-0.047954,-0.521727,-1.694290,0.324332,1.457175,4.852895,2.902602,0.011106,-0.053851,0.000000,-0.171204,0.051000,0.000000
1.230000,-1.858576,-1.453213,-1.464087,0.687501,1.136776,0.015735,0.526234,0.092941,-0.044569,-0.506458,-1.646039,0.352504,1.596711,4.795780,2.729989,0.009418,-0.053349,0.000000,-0.166419,0.049340,0.000000
1.240000,-1.851675,-1.441841,-1.463932,0.692739,1.137624,0.015308,0.521251,0.076719,-0.040910,-0.489788,-1.598404,0.378895,1.737451,4.729827,2.546362,0.007777,-0.052865,0.000000,-0.161704,0.047550,0.000000
1.250000,-1.844721,-1.430461,-1.463781,0.697927,1.138312,0.014918,0.516443,0.060971,-0.036997,-0.471707,-1.551472,0.403398,1.878993,4.655217,2.352581,0.006183,-0.052399,0.000000,-0.157067,0.045629,-0.000000
1.260000,-1.837716,-1.419075,-1.463633,0.703068,1.138845,0.014569,0.511822,0.045687,-0.032848,-0.452230,-1.505317,0.425962,2.021517,4.571840,2.148315,0.004635,-0.051953,0.000000,-0.152514,0.043576,-0.000000
1.270000,-1.830660,-1.407685,-1.463489,0.708164,1.139228,0.014262,0.507403,0.030861,-0.028485,-0.431303,-1.460050,0.446389,2.163967,4.480202,1.935761,0.003133,-0.051528,0.000000,-0.148055,0.041388,-0.000000
1.280000,-1.823553,-1.396291,-1.463348,0.713217,1.139464,0.013999,0.503201,0.016483,-0.023928,-0.408953,-1.415739,0.464653,2.305869,4.380516,1.715923,0.001674,-0.051125,0.000000,-0.143694,0.039066,0.000000
1.290000,-1.816396,-1.384896,-1.463209,0.718229,1.139559,0.013784,0.499229,0.002543,-0.019199,-0.385189,-1.372465,0.480687,2.446750,4.272999,1.489807,0.000258,-0.050747,0.000000,-0.139439,0.036610,-0.000000
1.300000,-1.809189,-1.373501,-1.463072,0.723202,1.139516,0.013616,0.495501,-0.010970,-0.014321,-0.360023,-1.330305,0.494432,2.586135,4.157866,1.258418,-0.001115,-0.050393,0.000000,-0.135295,0.034021,0.000000
1.310000,-1.801932,-1.362106,-1.462937,0.728140,1.139341,0.013498,0.492033,-0.024067,-0.009318,-0.333478,-1.289300,0.505849,2.723691,4.034515,1.022567,-0.002448,-0.050067,0.000000,-0.131267,0.031301,-0.000000
1.320000,-1.794626,-1.350714,-1.462802,0.733044,1.139036,0.013430,0.488836,-0.036760,-0.004212,-0.305563,-1.249602,0.514881,2.858788,3.904078,0.783477,-0.003741,-0.049768,0.000000,-0.127368,0.028451,-0.000000
1.330000,-1.787271,-1.339326,-1.462668,0.737917,1.138607,0.013414,0.485926,-0.049063,0.000972,-0.276312,-1.211241,0.521511,2.990935,3.766872,0.542179,-0.004996,-0.049498,0.000000,-0.123600,0.025473,0.000000
1.340000,-1.779868,-1.327943,-1.462534,0.742763,1.138056,0.013450,0.483315,-0.060990,0.006210,-0.245756,-1.174286,0.525721,3.119641,3.623211,0.299702,-0.006213,-0.049259,0.000000,-0.119969,0.022369,-0.000000
1.350000,-1.772416,-1.316565,-1.462399,0.747585,1.137388,0.013538,0.481015,-0.072554,0.011478,-0.213932,-1.138797,0.527504,3.244416,3.473411,0.057075,-0.007396,-0.049051,0.000000,-0.116480,0.019144,0.000000
1.360000,-1.764916,-1.305195,-1.462263,0.752385,1.136606,0.013679,0.479040,-0.083770,0.016751,-0.180866,-1.104802,0.526837,3.364353,3.316921,-0.183955,-0.008543,-0.048876,0.000000,-0.113136,0.015799,0.000000
1.370000,-1.757368,-1.293833,-1.462125,0.757167,1.135714,0.013873,0.477402,-0.094655,0.022007,-0.146643,-1.072438,0.523799,3.479429,3.155030,-0.423164,-0.009659,-0.048736,0.000000,-0.109949,0.012342,-0.000000
1.380000,-1.749773,-1.282481,-1.461985,0.761934,1.134714,0.014119,0.476111,-0.105224,0.027219,-0.111295,-1.041718,0.518383,3.589203,2.988158,-0.659611,-0.010743,-0.048630,0.000000,-0.106921,0.008776,-0.000000
1.390000,-1.742130,-1.271140,-1.461842,0.766690,1.133610,0.014417,0.475179,-0.115495,0.032366,-0.074878,-1.012690,0.510619,3.693237,2.816728,-0.892355,-0.011798,-0.048560,0.000000,-0.104055,0.005108,-0.000000
1.400000,-1.734439,-1.259809,-1.461697,0.771439,1.132405,0.014766,0.474617,-0.125484,0.037424,-0.037451,-0.985398,0.500551,3.791090,2.641162,-1.120454,-0.012825,-0.048528,0.000000,-0.101355,0.001341,-0.000000
1.410000,-1.726701,-1.248492,-1.461547,0.776184,1.131102,0.015165,0.474434,-0.135209,0.042369,0.000958,-0.959845,0.488171,3.881401,2.461019,-1.341493,-0.013825,-0.048534,0.000000,-0.098823,-0.002519,0.000000
1.420000,-1.718915,-1.237188,-1.461393,0.780929,1.129702,0.015613,0.474639,-0.144687,0.047180,0.040195,-0.936149,0.473677,3.964765,2.277689,-1.556186,-0.014802,-0.048579,0.000000,-0.096469,-0.006460,-0.000000
1.430000,-1.711082,-1.225898,-1.461235,0.785678,1.128209,0.016108,0.475240,-0.153938,0.051836,0.080229,-0.914301,0.457071,4.040855,2.091698,-1.763771,-0.015755,-0.048663,0.000000,-0.094292,-0.010477,0.000000
1.440000,-1.703202,-1.214624,-1.461071,0.790435,1.126624,0.016649,0.476246,-0.162979,0.056315,0.120987,-0.894323,0.438427,4.109344,1.903573,-1.963488,-0.016688,-0.048789,0.000000,-0.092294,-0.014562,-0.000000
1.450000,-1.695274,-1.203366,-1.460901,0.795204,1.124950,0.017234,0.477662,-0.171831,0.060598,0.162390,-0.876234,0.417830,4.169906,1.713841,-2.154576,-0.017602,-0.048955,0.000000,-0.090478,-0.018708,0.000000
1.460000,-1.687298,-1.192125,-1.460726,0.799989,1.123188,0.017861,0.479496,-0.180510,0.064664,0.204393,-0.860026,0.395287,4.221310,1.522425,-2.334260,-0.018498,-0.049163,0.000000,-0.088842,-0.022910,-0.000000
1.470000,-1.679274,-1.180902,-1.460544,0.804795,1.121340,0.018527,0.481752,-0.189037,0.068498,0.246828,-0.845761,0.371088,4.264243,1.330529,-2.504041,-0.019379,-0.049413,0.000000,-0.087394,-0.027150,-0.000000
1.480000,-1.671202,-1.169699,-1.460355,0.809626,1.119407,0.019230,0.484434,-0.197432,0.072081,0.289649,-0.833415,0.345241,4.298489,1.138756,-2.663403,-0.020247,-0.049706,0.000000,-0.086130,-0.031424,0.000000
1.490000,-1.663081,-1.158515,-1.460159,0.814485,1.117392,0.019967,0.487546,-0.205712,0.075397,0.332768,-0.822983,0.317856,4.323831,0.947705,-2.811831,-0.021102,-0.050042,0.000000,-0.085050,-0.035722,-0.000000
1.500000,-1.654912,-1.147351,-1.459956,0.819378,1.115294,0.020737,0.491090,-0.213898,0.078433,0.376095,-0.814456,0.289043,4.340053,0.757979,-2.948813,-0.021948,-0.050421,0.000000,-0.084153,-0.040034,-0.000000
1.510000,-1.646693,-1.136209,-1.459745,0.824309,1.113114,0.021535,0.495068,-0.222007,0.081173,0.419586,-0.807812,0.258830,4.345722,0.570042,-3.071570,-0.022786,-0.050843,0.000000,-0.083437,-0.044356,-0.000000
1.520000,-1.638426,-1.125089,-1.459525,0.829281,1.110854,0.022359,0.499482,-0.230060,0.083606,0.463033,-0.803041,0.227551,4.341987,0.384647,-3.182128,-0.023618,-0.051308,0.000000,-0.082902,-0.048665,0.000000
1.530000,-1.630108,-1.113992,-1.459297,0.834300,1.108513,0.023206,0.504329,-0.238074,0.085721,0.506394,-0.800108,0.195229,4.328780,0.202412,-3.280249,-0.024445,-0.051816,0.000000,-0.082543,-0.052958,0.000000
1.540000,-1.621739,-1.102919,-1.459061,0.839369,1.106092,0.024072,0.509609,-0.246068,0.087507,0.549576,-0.798980,0.161988,4.306035,0.023954,-3.365698,-0.025269,-0.052368,0.000000,-0.082359,-0.057224,-0.000000
1.550000,-1.613320,-1.091871,-1.458816,0.844493,1.103592,0.024955,0.515319,-0.254060,0.088958,0.592483,-0.799615,0.127958,4.273682,-0.150110,-3.438236,-0.026092,-0.052961,0.000000,-0.082343,-0.061453,0.000000
1.560000,-1.604849,-1.080847,-1.458562,0.849677,1.101011,0.025851,0.521458,-0.262067,0.090063,0.635079,-0.801983,0.093179,4.230110,-0.318722,-3.495399,-0.026917,-0.053597,0.000000,-0.082494,-0.065639,0.000000
1.570000,-1.596326,-1.069851,-1.458299,0.854924,1.098350,0.026755,0.528019,-0.270105,0.090820,0.677122,-0.805990,0.057994,4.176986,-0.481758,-3.539449,-0.027743,-0.054274,0.000000,-0.082802,-0.069760,-0.000000
1.580000,-1.587751,-1.058881,-1.458027,0.860239,1.095609,0.027666,0.534998,-0.278192,0.091222,0.718587,-0.811597,0.022434,4.114432,-0.638656,-3.570423,-0.028573,-0.054992,0.000000,-0.083264,-0.073811,0.000000
1.590000,-1.579121,-1.047939,-1.457745,0.865625,1.092786,0.028578,0.542389,-0.286342,0.091267,0.759380,-0.818741,-0.013371,4.042569,-0.788851,-3.588355,-0.029409,-0.055751,0.000000,-0.083872,-0.077783,0.000000
1.600000,-1.570438,-1.037025,-1.457455,0.871088,1.089882,0.029490,0.550184,-0.294571,0.090954,0.799408,-0.827350,-0.049290,3.961519,-0.931780,-3.593282,-0.030251,-0.056548,0.000000,-0.084620,-0.081665,0.000000
1.610000,-1.561699,-1.026141,-1.457156,0.876630,1.086894,0.030396,0.558375,-0.302894,0.090281,0.838615,-0.837386,-0.085271,3.870513,-1.065974,-3.583271,-0.031102,-0.057385,0.000000,-0.085503,-0.085452,0.000000
1.620000,-1.552905,-1.015288,-1.456847,0.882257,1.083823,0.031294,0.566953,-0.311323,0.089249,0.876829,-0.848683,-0.121001,3.770672,-1.191887,-3.560567,-0.031961,-0.058258,0.000000,-0.086505,-0.089127,-0.000000
1.630000,-1.544054,-1.004465,-1.456530,0.887971,1.080667,0.032180,0.575908,-0.319872,0.087862,0.914000,-0.861195,-0.156441,3.662230,-1.309065,-3.525445,-0.032832,-0.059168,0.000000,-0.087622,-0.092684,0.000000
1.640000,-1.535145,-0.993675,-1.456204,0.893776,1.077425,0.033050,0.585229,-0.328551,0.086122,0.950045,-0.874833,-0.191469,3.545415,-1.417055,-3.478181,-0.033714,-0.060112,0.000000,-0.088845,-0.096114,0.000000
1.650000,-1.526178,-0.982917,-1.455869,0.899676,1.074096,0.033901,0.594905,-0.337372,0.084034,0.984881,-0.889504,-0.225965,3.420461,-1.515405,-3.419051,-0.034609,-0.061091,0.000000,-0.090163,-0.099410,0.000000
1.660000,-1.517151,-0.972193,-1.455526,0.905675,1.070678,0.034730,0.604923,-0.346345,0.081604,1.018453,-0.905169,-0.259871,3.286968,-1.602105,-3.346825,-0.035518,-0.062101,0.000000,-0.091573,-0.102566,0.000000
1.670000,-1.508064,-0.961504,-1.455174,0.911776,1.067169,0.035532,0.615269,-0.355478,0.078839,1.050623,-0.921581,-0.292932,3.145874,-1.678450,-3.263470,-0.036441,-0.063143,0.000000,-0.093051,-0.105569,0.000000
1.680000,-1.498916,-0.950850,-1.454815,0.917982,1.063567,0.036306,0.625930,-0.364779,0.075748,1.081346,-0.938703,-0.325105,2.997487,-1.744178,-3.169448,-0.037379,-0.064213,0.000000,-0.094592,-0.108415,-0.000000
1.690000,-1.489704,-0.940233,-1.454448,0.924295,1.059872,0.037046,0.636891,-0.374254,0.072341,1.110550,-0.956428,-0.356287,2.842116,-1.799027,-3.065220,-0.038333,-0.065312,0.000000,-0.096187,-0.111097,-0.000000
1.700000,-1.480429,-0.929653,-1.454074,0.930720,1.056082,0.037751,0.648136,-0.383909,0.068626,1.138166,-0.974646,-0.386377,2.680067,-1.842737,-2.951246,-0.039303,-0.066436,0.000000,-0.097823,-0.113608,0.000000
1.710000,-1.471089,-0.919111,-1.453693,0.937259,1.052194,0.038418,0.659649,-0.393749,0.064617,1.164150,-0.993310,-0.415318,2.511152,-1.873392,-2.827047,-0.040290,-0.067585,0.000000,-0.099497,-0.115946,0.000000
1.720000,-1.461684,-0.908609,-1.453306,0.943914,1.048206,0.039043,0.671413,-0.403776,0.060324,1.188392,-1.012150,-0.442931,2.336238,-1.892586,-2.694140,-0.041293,-0.068757,0.000000,-0.101182,-0.118100,0.000000
1.730000,-1.452211,-0.898148,-1.452913,0.950688,1.044117,0.039623,0.683411,-0.413992,0.055763,1.210856,-1.031124,-0.469174,2.155693,-1.900258,-2.553100,-0.042313,-0.069949,0.000000,-0.102874,-0.120069,0.000000
1.740000,-1.442670,-0.887727,-1.452514,0.957583,1.039926,0.040157,0.695624,-0.424399,0.050946,1.231488,-1.050116,-0.493968,1.969886,-1.896348,-2.404504,-0.043350,-0.071160,0.000000,-0.104563,-0.121847,0.000000
1.750000,-1.433059,-0.877349,-1.452110,0.964601,1.035629,0.040642,0.708034,-0.434994,0.045888,1.250237,-1.069012,-0.517240,1.779187,-1.880797,-2.248927,-0.044404,-0.072387,0.000000,-0.106235,-0.123431,-0.000000
1.760000,-1.423377,-0.867015,-1.451701,0.971744,1.031225,0.041074,0.720622,-0.445779,0.040606,1.267059,-1.087758,-0.538939,1.583910,-1.851917,-2.086576,-0.045475,-0.073630,0.000000,-0.107888,-0.124819,0.000000
1.770000,-1.413623,-0.856725,-1.451288,0.979014,1.026713,0.041453,0.733369,-0.456748,0.035115,1.281904,-1.106084,-0.558969,1.384484,-1.811476,-1.918443,-0.046562,-0.074886,0.000000,-0.109495,-0.126006,0.000000
1.780000,-1.403796,-0.846481,-1.450872,0.986412,1.022090,0.041776,0.746254,-0.467899,0.029432,1.294736,-1.123949,-0.577291,1.181287,-1.759613,-1.745147,-0.047665,-0.076152,0.000000,-0.111053,-0.126990,-0.000000
1.790000,-1.393895,-0.836284,-1.450453,0.993940,1.017354,0.042041,0.759257,-0.479226,0.023575,1.305518,-1.141239,-0.593857,0.974694,-1.696467,-1.567311,-0.048783,-0.077428,0.000000,-0.112550,-0.127771,0.000000
1.800000,-1.383917,-0.826134,-1.450032,1.001598,1.012505,0.042247,0.772357,-0.490722,0.017561,1.314220,-1.157841,-0.608624,0.765080,-1.622180,-1.385555,-0.049916,-0.078710,0.000000,-0.113976,-0.128346,-0.000000
1.810000,-1.373862,-0.816034,-1.449608,1.009387,1.007539,0.042392,0.785534,-0.502380,0.011409,1.320801,-1.173714,-0.621552,0.553072,-1.535156,-1.200633,-0.051062,-0.079997,0.000000,-0.115330,-0.128713,-0.000000
1.820000,-1.363729,-0.805984,-1.449184,1.017309,1.002456,0.042475,0.798766,-0.514193,0.005136,1.325262,-1.188586,-0.632622,0.338764,-1.437481,-1.013018,-0.052222,-0.081287,0.000000,-0.116583,-0.128875,0.000000
1.830000,-1.353516,-0.795985,-1.448759,1.025363,0.997255,0.042494,0.812032,-0.526149,-0.001237,1.327570,-1.202430,-0.641805,0.122502,-1.329508,-0.823314,-0.053394,-0.082577,0.000000,-0.117736,-0.128829,0.000000
1.840000,-1.343221,-0.786039,-1.448334,1.033549,0.991933,0.042450,0.825310,-0.538238,-0.007694,1.327707,-1.215143,-0.649083,-0.095369,-1.211587,-0.632128,-0.054576,-0.083866,0.000000,-0.118778,-0.128577,0.000000
1.850000,-1.332844,-0.776147,-1.447910,1.041869,0.986490,0.042340,0.838579,-0.550448,-0.014213,1.325658,-1.226629,-0.654445,-0.314505,-1.084071,-0.440064,-0.055769,-0.085152,0.000000,-0.119702,-0.128117,0.000000
1.860000,-1.322383,-0.766310,-1.447488,1.050321,0.980924,0.042165,0.851816,-0.562766,-0.020776,1.321396,-1.236845,-0.657863,-0.534117,-0.946024,-0.248241,-0.056970,-0.086432,0.000000,-0.120505,-0.127450,-0.000000
1.870000,-1.311837,-0.756529,-1.447067,1.058905,0.975234,0.041925,0.865000,-0.575180,-0.027364,1.314954,-1.245578,-0.659388,-0.754358,-0.799243,-0.056688,-0.058178,-0.087704,0.000000,-0.121166,-0.126581,0.000000
1.880000,-1.301205,-0.746806,-1.446649,1.067620,0.969420,0.041618,0.878108,-0.587673,-0.033957,1.306308,-1.252802,-0.659000,-0.974936,-0.644238,0.134054,-0.059393,-0.088967,0.000000,-0.121685,-0.125508,0.000000
1.890000,-1.290485,-0.737141,-1.446235,1.076467,0.963480,0.041245,0.891118,-0.600230,-0.040537,1.295455,-1.258437,-0.656711,-1.195560,-0.481519,0.323443,-0.060612,-0.090218,0.000000,-0.122055,-0.124233,0.000000
1.900000,-1.279675,-0.727537,-1.445825,1.085442,0.957415,0.040807,0.904009,-0.612836,-0.047085,1.282398,-1.262409,-0.652537,-1.415939,-0.311595,0.510936,-0.061833,-0.091456,0.000000,-0.122270,-0.122758,0.000000
1.910000,-1.268775,-0.717993,-1.445419,1.094546,0.951224,0.040304,0.916759,-0.625473,-0.053582,1.267118,-1.264681,-0.646471,-1.635255,-0.134127,0.695243,-0.063057,-0.092678,0.000000,-0.122329,-0.121083,-0.000000
1.920000,-1.257784,-0.708512,-1.445019,1.103777,0.944906,0.039736,0.929345,-0.638124,-0.060008,1.249671,-1.265109,-0.638609,-1.853809,0.049422,0.876662,-0.064279,-0.093882,0.000000,-0.122217,-0.119215,-0.000000
1.930000,-1.246699,-0.699096,-1.444625,1.113133,0.938461,0.039104,0.941745,-0.650769,-0.066348,1.230045,-1.263674,-0.628949,-2.071374,0.238439,1.054743,-0.065500,-0.095066,0.000000,-0.121936,-0.117153,0.000000
1.940000,-1.235521,-0.689744,-1.444237,1.122611,0.931890,0.038409,0.953938,-0.663391,-0.072582,1.208248,-1.260324,-0.617526,-2.287723,0.432309,1.229034,-0.066718,-0.096229,0.000000,-0.121480,-0.114900,-0.000000
1.950000,-1.224247,-0.680458,-1.443857,1.132211,0.925193,0.037653,0.965903,-0.675969,-0.078692,1.184295,-1.255014,-0.604382,-2.502630,0.630420,1.399086,-0.067929,-0.097369,0.000000,-0.120846,-0.112457,-0.000000
1.960000,-1.212876,-0.671240,-1.443484,1.141928,0.918371,0.036836,0.977617,-0.688484,-0.084663,1.158182,-1.247712,-0.589527,-2.715389,0.832367,1.563607,-0.069134,-0.098483,0.000000,-0.120034,-0.109827,0.000000
1.970000,-1.201408,-0.662091,-1.443120,1.151762,0.911424,0.035960,0.989059,-0.700917,-0.090478,1.129972,-1.238366,-0.573089,-2.926312,1.037300,1.723090,-0.070329,-0.099570,0.000000,-0.119038,-0.107014,0.000000
1.980000,-1.189841,-0.653012,-1.442765,1.161709,0.904353,0.035027,1.000209,-0.713245,-0.096120,1.099663,-1.226958,-0.555083,-3.135230,1.244582,1.877188,-0.071514,-0.100628,0.000000,-0.117859,-0.104021,0.000000
1.990000,-1.178173,-0.644004,-1.442420,1.171765,0.897160,0.034038,1.011046,-0.725449,-0.101574,1.067275,-1.213468,-0.535565,-3.341975,1.453571,2.025554,-0.072686,-0.101655,0.000000,-0.116494,-0.100849,0.000000
2.000000,-1.166405,-0.635069,-1.442085,1.181929,0.889845,0.032996,1.021548,-0.737507,-0.106826,1.032831,-1.197883,-0.514592,-3.546380,1.663628,2.167839,-0.073843,-0.102650,0.000000,-0.114944,-0.097500,0.000000
2.010000,-1.154534,-0.626208,-1.441760,1.192195,0.882410,0.031902,1.031695,-0.749399,-0.111861,0.996342,-1.180178,-0.492197,-3.747936,1.873709,2.302872,-0.074984,-0.103610,0.000000,-0.113208,-0.093977,-0.000000
2.020000,-1.142561,-0.617422,-1.441447,1.202561,0.874857,0.030760,1.041468,-0.761104,-0.116666,0.957866,-1.160391,-0.468520,-3.946857,2.083630,2.431230,-0.076107,-0.104534,0.000000,-0.111288,-0.090284,-0.000000
2.030000,-1.130483,-0.608711,-1.441145,1.213023,0.867189,0.029570,1.050846,-0.772600,-0.121227,0.917414,-1.138508,-0.443595,-4.143018,2.292799,2.552668,-0.077209,-0.105420,0.000000,-0.109184,-0.086422,0.000000
2.040000,-1.118300,-0.600078,-1.440855,1.223577,0.859406,0.028336,1.059810,-0.783867,-0.125534,0.875015,-1.114540,-0.417491,-4.336292,2.500628,2.666937,-0.078290,-0.106267,0.000000,-0.106898,-0.082394,0.000000
2.050000,-1.106011,-0.591523,-1.440578,1.234218,0.851512,0.027060,1.068340,-0.794884,-0.129573,0.830698,-1.088502,-0.390281,-4.526553,2.706525,2.773791,-0.079347,-0.107072,0.000000,-0.104432,-0.078201,-0.000000
2.060000,-1.093615,-0.583048,-1.440314,1.244942,0.843509,0.025745,1.076417,-0.805630,-0.133336,0.784486,-1.060395,-0.362011,-4.713465,2.909331,2.872239,-0.080378,-0.107835,0.000000,-0.101785,-0.073847,-0.000000
2.070000,-1.081112,-0.574654,-1.440064,1.255745,0.835400,0.024394,1.084023,-0.816085,-0.136811,0.736430,-1.030300,-0.332829,-4.897137,3.109097,2.962871,-0.081382,-0.108554,0.000000,-0.098965,-0.069334,0.000000
2.080000,-1.068500,-0.566341,-1.439827,1.266621,0.827189,0.023010,1.091140,-0.826229,-0.139989,0.686554,-0.998225,-0.302780,-5.077470,3.305301,3.045529,-0.082357,-0.109226,0.000000,-0.095973,-0.064663,0.000000
2.090000,-1.055779,-0.558110,-1.439604,1.277566,0.818877,0.021596,1.097749,-0.836043,-0.142864,0.634892,-0.964208,-0.271946,-5.254362,3.497425,3.120060,-0.083301,-0.109851,0.000000,-0.092812,-0.059838,-0.000000
2.100000,-1.042949,-0.549963,-1.439395,1.288574,0.810469,0.020154,1.103832,-0.845507,-0.145426,0.581479,-0.928292,-0.240407,-5.427714,3.684947,3.186306,-0.084212,-0.110426,0.000000,-0.089486,-0.054859,0.000000
2.110000,-1.030008,-0.541901,-1.439201,1.299641,0.801968,0.018688,1.109373,-0.854603,-0.147669,0.526369,-0.890510,-0.208222,-5.597897,3.866954,3.243458,-0.085090,-0.110951,0.000000,-0.085996,-0.049731,-0.000000
2.120000,-1.016956,-0.533924,-1.439021,1.310760,0.793378,0.017202,1.114354,-0.863312,-0.149589,0.469555,-0.850954,-0.175537,-5.764282,4.043367,3.292095,-0.085932,-0.111424,0.000000,-0.082351,-0.044451,0.000000
2.130000,-1.003792,-0.526034,-1.438857,1.321926,0.784703,0.015698,1.118758,-0.871616,-0.151179,0.411096,-0.809663,-0.142409,-5.926708,4.213717,3.332142,-0.086736,-0.111843,0.000000,-0.078554,-0.039023,-0.000000
2.140000,-0.990517,-0.518231,-1.438707,1.333133,0.775947,0.014179,1.122570,-0.879499,-0.152436,0.351034,-0.766701,-0.108923,-6.085018,4.377532,3.363522,-0.087502,-0.112207,0.000000,-0.074610,-0.033449,-0.000000
2.150000,-0.977129,-0.510515,-1.438573,1.344375,0.767115,0.012650,1.125774,-0.886945,-0.153356,0.289410,-0.722136,-0.075167,-6.239054,4.534339,3.386161,-0.088228,-0.112514,0.000000,-0.070523,-0.027731,-0.000000
2.160000,-0.963629,-0.502888,-1.438454,1.355646,0.758210,0.011113,1.128354,-0.893937,-0.153938,0.226291,-0.676043,-0.041206,-6.389235,4.683759,3.399390,-0.088912,-0.112763,0.000000,-0.066301,-0.021874,0.000000
2.170000,-0.950016,-0.495351,-1.438351,1.366940,0.749237,0.009572,1.130295,-0.900461,-0.154180,0.161667,-0.628491,-0.007182,-6.534753,4.825217,3.403799,-0.089554,-0.112953,0.000000,-0.061947,-0.015874,0.000000
2.180000,-0.936290,-0.487904,-1.438263,1.378250,0.740202,0.008031,1.131582,-0.906502,-0.154082,0.095612,-0.579567,0.026841,-6.675381,4.958232,3.399385,-0.090151,-0.113082,0.000000,-0.057468,-0.009736,0.000000
2.190000,-0.922451,-0.480547,-1.438190,1.389569,0.731109,0.006492,1.132202,-0.912048,-0.153643,0.028176,-0.529356,0.060776,-6.810888,5.082319,3.386146,-0.090703,-0.113148,0.000000,-0.052871,-0.003462,0.000000
2.200000,-0.908499,-0.473282,-1.438133,1.400892,0.721963,0.004959,1.132141,-0.917085,-0.152867,-0.040588,-0.477952,0.094534,-6.941047,5.196996,3.364079,-0.091208,-0.113151,0.000000,-0.048162,0.002945,0.000000
2.210000,-0.894434,-0.466108,-1.438091,1.412210,0.712769,0.003436,1.131387,-0.921605,-0.151753,-0.110548,-0.425577,0.128051,-7.067607,5.304991,3.332609,-0.091666,-0.113089,0.000000,-0.043363,0.009475,-0.000000
2.220000,-0.880255,-0.459027,-1.438064,1.423517,0.703533,0.001925,1.129926,-0.925593,-0.150307,-0.181831,-0.372031,0.161183,-7.188118,5.402217,3.292375,-0.092075,-0.112960,0.000000,-0.038450,0.016143,0.000000
2.230000,-0.865963,-0.452038,-1.438052,1.434806,0.694259,0.000431,1.127747,-0.929042,-0.148531,-0.254288,-0.317571,0.193869,-7.302108,5.487798,3.243444,-0.092434,-0.112764,0.000000,-0.033446,0.022936,0.000000
2.240000,-0.851559,-0.445142,-1.438055,1.446070,0.684954,-0.001045,1.124837,-0.931942,-0.146431,-0.327850,-0.262317,0.226023,-7.409105,5.560860,3.185885,-0.092744,-0.112499,0.000000,-0.028361,0.029852,0.000000
2.250000,-0.837042,-0.438339,-1.438073,1.457300,0.675622,-0.002497,1.121186,-0.934286,-0.144013,-0.402445,-0.206399,0.257558,-7.508638,5.620525,3.119763,-0.093001,-0.112164,0.000000,-0.023206,0.036886,-0.000000
2.260000,-0.822413,-0.431629,-1.438105,1.468491,0.666269,-0.003924,1.116766,-0.936030,-0.141282,-0.479719,-0.146456,0.288410,-7.556719,5.577572,3.044652,-0.093204,-0.111756,0.000000,-0.017646,0.044203,-0.000000
2.270000,-0.807672,-0.425013,-1.438152,1.479634,0.656902,-0.005322,1.111590,-0.937217,-0.138247,-0.555512,-0.090918,0.318446,-7.601721,5.530290,2.961173,-0.093354,-0.111276,0.000000,-0.012510,0.051394,-0.000000
2.280000,-0.792821,-0.418491,-1.438212,1.490721,0.647526,-0.006688,1.105654,-0.937850,-0.134916,-0.631760,-0.035832,0.347606,-7.648502,5.488619,2.869456,-0.093454,-0.110723,0.000000,-0.007406,0.058655,-0.000000
2.290000,-0.777858,-0.412063,-1.438285,1.501744,0.638147,-0.008019,1.098953,-0.937935,-0.131298,-0.708504,0.018907,0.375808,-7.701918,5.462502,2.769627,-0.093503,-0.110097,0.000000,-0.002321,0.065990,-0.000000
2.300000,-0.762786,-0.405728,-1.438372,1.512697,0.628769,-0.009313,1.091482,-0.937473,-0.127404,-0.785836,0.073503,0.402972,-7.766827,5.461880,2.661815,-0.093500,-0.109397,0.000000,0.002766,0.073413,0.000000
2.310000,-0.747604,-0.399487,-1.438471,1.523569,0.619403,-0.010566,1.083304,-0.936603,-0.123242,-0.857437,0.115433,0.429081,-8.011206,5.820748,2.544551,-0.093461,-0.108629,0.000000,0.006621,0.080298,-0.000000
2.320000,-0.732315,-0.393340,-1.438583,1.534358,0.610044,-0.011777,1.074325,-0.935152,-0.118826,-0.938783,0.175471,0.453909,-8.256817,6.185315,2.419754,-0.093367,-0.107783,0.000000,0.012284,0.088182,-0.000000
2.330000,-0.716918,-0.387287,-1.438707,1.545053,0.600702,-0.012942,1.064521,-0.933082,-0.114168,-1.022527,0.239059,0.477452,-8.488545,6.525845,2.287748,-0.093214,-0.106857,0.000000,0.018323,0.096340,0.000000
2.340000,-0.701414,-0.381326,-1.438842,1.555646,0.591384,-0.014059,1.053867,-0.930360,-0.109281,-1.108457,0.305808,0.499641,-8.691271,6.812598,2.148857,-0.092999,-0.105847,0.000000,0.024702,0.104754,0.000000
2.350000,-0.685805,-0.375459,-1.438988,1.566128,0.582097,-0.015127,1.042345,-0.926958,-0.104180,-1.196206,0.375032,0.520407,-8.849880,7.015837,2.003403,-0.092719,-0.104752,0.000000,0.031355,0.113389,-0.000000
2.360000,-0.670092,-0.369684,-1.439144,1.576493,0.572841,-0.016142,1.029829,-0.922627,-0.098879,-1.295424,0.466713,0.539657,-8.692461,6.576277,1.852487,-0.092349,-0.103558,0.000000,0.040268,0.123210,-0.000000
2.370000,-0.654276,-0.364002,-1.439310,1.586725,0.563640,-0.017104,1.016443,-0.917639,-0.093392,-1.381376,0.529938,0.557402,-8.492135,6.058570,1.695561,-0.091915,-0.102278,0.000000,0.046397,0.131756,0.000000
2.380000,-0.638358,-0.358411,-1.439486,1.596819,0.554491,-0.018010,1.002208,-0.912046,-0.087736,-1.465178,0.587741,0.573549,-8.265228,5.497821,1.532852,-0.091423,-0.100912,0.000000,0.052023,0.140134,0.000000
2.390000,-0.622340,-0.352912,-1.439670,1.606766,0.545400,-0.018858,0.987147,-0.905904,-0.081927,-1.546646,0.639868,0.588041,-8.028070,4.929133,1.364589,-0.090876,-0.099464,0.000000,0.057120,0.148324,0.000000
2.400000,-0.606223,-0.347503,-1.439863,1.616559,0.536374,-0.019648,0.971283,-0.899268,-0.075981,-1.625760,0.686414,0.600823,-7.796986,4.387612,1.191001,-0.090282,-0.097934,0.000000,0.061697,0.156326,0.000000
2.410000,-0.590009,-0.342184,-1.440063,1.626188,0.527420,-0.020377,0.954688,-0.892314,-0.069915,-1.698178,0.716619,0.611940,-7.701523,4.191456,1.009888,-0.089656,-0.096330,0.000000,0.064678,0.163702,-0.000000
2.420000,-0.573700,-0.336954,-1.440270,1.635649,0.518533,-0.021046,0.937322,-0.884941,-0.063748,-1.774819,0.757814,0.621114,-7.630927,4.058012,0.824204,-0.088989,-0.094647,0.000000,0.068788,0.171546,0.000000
2.430000,-0.557297,-0.331813,-1.440484,1.644932,0.509722,-0.021652,0.919194,-0.877161,-0.057499,-1.850888,0.797990,0.628411,-7.587660,3.987718,0.634473,-0.088281,-0.092886,0.000000,0.072830,0.179378,-0.000000
2.440000,-0.540802,-0.326760,-1.440703,1.654030,0.500991,-0.022195,0.900306,-0.868982,-0.051186,-1.926671,0.837781,0.633792,-7.574187,3.981015,0.441221,-0.087532,-0.091046,0.000000,0.076868,0.187225,0.000000
2.450000,-0.524217,-0.321793,-1.440928,1.662935,0.492344,-0.022676,0.880660,-0.860405,-0.044829,-2.002479,0.877824,0.637225,-7.592971,4.038343,0.244973,-0.086743,-0.089127,0.000000,0.080965,0.195119,-0.000000
2.460000,-0.507544,-0.316912,-1.441156,1.671638,0.483789,-0.023092,0.860369,-0.851591,-0.038448,-2.068095,0.903277,0.638678,-7.912965,4.551270,0.046391,-0.085929,-0.087140,0.000000,0.083637,0.202031,0.000000
2.470000,-0.490785,-0.312117,-1.441389,1.680137,0.475319,-0.023444,0.839287,-0.842322,-0.032063,-2.148857,0.951445,0.638140,-8.237512,5.081214,-0.154152,-0.085069,-0.085070,0.000000,0.088612,0.210505,-0.000000
2.480000,-0.473942,-0.307406,-1.441625,1.688421,0.466944,-0.023733,0.817382,-0.832544,-0.025692,-2.232760,1.004800,0.635590,-8.536445,5.580721,-0.356148,-0.084155,-0.082913,0.000000,0.094144,0.219337,-0.000000
2.490000,-0.457017,-0.302778,-1.441864,1.696481,0.458670,-0.023958,0.794623,-0.822210,-0.019358,-2.319400,1.062800,0.631014,-8.779597,6.002339,-0.559089,-0.083184,-0.080666,0.000000,0.100179,0.228486,-0.000000
2.500000,-0.440013,-0.298232,-1.442104,1.704310,0.450502,-0.024121,0.770987,-0.811276,-0.013079,-2.408066,1.124429,0.624407,-8.936800,6.298614,-0.762465,-0.082150,-0.078327,0.000000,0.106618,0.237879,0.000000
2.510000,-0.422932,-0.293767,-1.442346,1.711904,0.442437,-0.024220,0.746239,-0.799369,-0.006875,-2.517973,1.220023,0.615856,-8.467049,5.618215,-0.968069,-0.081016,-0.075870,0.000000,0.116514,0.249458,0.000000
2.520000,-0.405776,-0.289383,-1.442588,1.719239,0.434506,-0.024258,0.720645,-0.786901,-0.000768,-2.599933,1.272274,0.605151,-7.913567,4.816001,-1.172810,-0.079822,-0.073323,0.000000,0.122095,0.258254,-0.000000
2.530000,-0.388548,-0.285077,-1.442831,1.726314,0.426701,-0.024236,0.694260,-0.773952,0.005221,-2.676074,1.316107,0.592406,-7.308736,3.942952,-1.375896,-0.078577,-0.070690,0.000000,0.126862,0.266492,-0.000000
2.540000,-0.371250,-0.280848,-1.443073,1.733122,0.419028,-0.024154,0.667144,-0.760608,0.011073,-2.746044,1.351067,0.577641,-6.684942,3.050048,-1.576538,-0.077288,-0.067978,0.000000,0.130762,0.274131,0.000000
2.550000,-0.353886,-0.276696,-1.443314,1.739655,0.411490,-0.024015,0.639359,-0.746960,0.016767,-2.809817,1.377212,0.560886,-6.074568,2.188271,-1.773945,-0.075965,-0.065193,0.000000,0.133795,0.281160,-0.000000
2.560000,-0.336458,-0.272618,-1.443553,1.745903,0.404095,-0.023820,0.611104,-0.733298,0.022284,-2.855116,1.376060,0.542156,-5.827539,1.889667,-1.966835,-0.074636,-0.062355,0.000000,0.134085,0.286327,0.000000
2.570000,-0.318969,-0.268613,-1.443790,1.751871,0.396831,-0.023570,0.582265,-0.719447,0.027604,-2.912323,1.393776,0.521543,-5.619816,1.665245,-2.154970,-0.073284,-0.059452,0.000000,0.136295,0.292710,-0.000000
2.580000,-0.301422,-0.264681,-1.444024,1.757547,0.389707,-0.023268,0.552863,-0.705429,0.032709,-2.967622,1.409586,0.499075,-5.444901,1.507078,-2.337619,-0.071910,-0.056486,0.000000,0.138324,0.298903,0.000000
2.590000,-0.283819,-0.260819,-1.444255,1.762926,0.382723,-0.022917,0.522918,-0.691260,0.037579,-3.021309,1.424112,0.474811,-5.296294,1.407241,-2.514051,-0.070518,-0.053459,0.000000,0.140233,0.304932,-0.000000
2.600000,-0.266164,-0.257026,-1.444482,1.768003,0.375882,-0.022518,0.492442,-0.676949,0.042199,-3.073614,1.437899,0.448817,-5.167497,1.357809,-2.683537,-0.069106,-0.050372,0.000000,0.142073,0.310816,0.000000
2.610000,-0.248460,-0.253301,-1.444705,1.772773,0.369185,-0.022074,0.461472,-0.662517,0.046549,-3.122609,1.450124,0.421090,-5.104909,1.383338,-2.843424,-0.067678,-0.047230,0.000000,0.143760,0.316354,-0.000000
2.620000,-0.230710,-0.249642,-1.444924,1.777230,0.362632,-0.021588,0.429992,-0.647945,0.050616,-3.173352,1.464217,0.391890,-5.042658,1.439443,-2.995139,-0.066231,-0.044031,0.000000,0.145639,0.322056,-0.000000
2.630000,-0.212917,-0.246048,-1.445137,1.781371,0.356226,-0.021062,0.398007,-0.633230,0.054382,-3.223420,1.478975,0.361216,-4.967766,1.514221,-3.138187,-0.064765,-0.040775,0.000000,0.147585,0.327671,-0.000000
2.640000,-0.195083,-0.242517,-1.445345,1.785189,0.349968,-0.020501,0.365526,-0.618363,0.057835,-3.272622,1.494524,0.329157,-4.867259,1.595769,-3.272075,-0.063279,-0.037464,0.000000,0.149611,0.333177,-0.000000
2.650000,-0.177214,-0.239048,-1.445547,1.788680,0.343860,-0.019907,0.332559,-0.603337,0.060961,-3.320636,1.510873,0.295807,-4.728160,1.672185,-3.396306,-0.061772,-0.034099,0.000000,0.151714,0.338535,0.000000
2.660000,-0.159311,-0.235639,-1.445743,1.791840,0.337902,-0.019283,0.299052,-0.588139,0.063748,-3.373152,1.528367,0.261286,-4.382429,1.720042,-3.510930,-0.060244,-0.030674,0.000000,0.153927,0.344324,0.000000
2.670000,-0.141378,-0.232289,-1.445932,1.794661,0.332097,-0.018633,0.265108,-0.572768,0.066183,-3.415056,1.545697,0.225648,-3.991143,1.740371,-3.614841,-0.058694,-0.027201,0.000000,0.156116,0.348994,-0.000000
2.680000,-0.123419,-0.228997,-1.446115,1.797141,0.326447,-0.017960,0.230765,-0.557224,0.068257,-3.452843,1.563048,0.189027,-3.560313,1.722682,-3.707479,-0.057121,-0.023684,0.000000,0.158297,0.353203,-0.000000
2.690000,-0.105436,-0.225760,-1.446292,1.799276,0.320953,-0.017269,0.196066,-0.541509,0.069961,-3.486150,1.579989,0.151538,-3.095950,1.656482,-3.788283,-0.055528,-0.020127,0.000000,0.160423,0.356911,0.000000
2.700000,-0.087434,-0.222577,-1.446461,1.801061,0.315618,-0.016562,0.161058,-0.525628,0.071286,-3.514671,1.595981,0.113302,-2.604067,1.531280,-3.856691,-0.053913,-0.016536,0.000000,0.162435,0.360082,-0.000000
2.710000,-0.069416,-0.219447,-1.446623,1.802496,0.310438,-0.015845,0.125785,-0.509471,0.072224,-3.538580,1.621789,0.074380,-2.080059,1.048496,-3.910452,-0.052267,-0.012916,0.000000,0.165434,0.362732,-0.000000
2.720000,-0.051386,-0.216368,-1.446778,1.803577,0.305425,-0.015119,0.090304,-0.493209,0.072772,-3.556698,1.629663,0.035062,-1.541855,0.521003,-3.950902,-0.050606,-0.009274,0.000000,0.166576,0.364736,-0.000000
2.730000,-0.033346,-0.213338,-1.446925,1.804302,0.300574,-0.014390,0.054669,-0.476895,0.072924,-3.569394,1.632142,-0.004592,-0.996764,-0.026415,-3.977686,-0.048937,-0.005614,0.000000,0.167140,0.366130,-0.000000
2.740000,-0.015301,-0.210356,-1.447065,1.804670,0.295887,-0.013662,0.018934,-0.460584,0.072679,-3.576635,1.629151,-0.044445,-0.452100,-0.568974,-3.990451,-0.047266,-0.001945,0.000000,0.167118,0.366909,0.000000
2.750000,0.002746,-0.207420,-1.447198,1.804680,0.291362,-0.012938,-0.016846,-0.444330,0.072035,-3.578462,1.620862,-0.084353,0.084825,-1.081889,-3.988841,-0.045597,0.001730,0.000000,0.166525,0.367077,0.000000
2.760000,0.020791,-0.204528,-1.447324,1.804332,0.287002,-0.012223,-0.052594,-0.428264,0.070991,-3.572874,1.600279,-0.124308,0.553281,-1.353085,-3.969086,-0.043945,0.005400,0.000000,0.164644,0.366428,0.000000
2.770000,0.038832,-0.201679,-1.447443,1.803628,0.282799,-0.011520,-0.088288,-0.412333,0.069550,-3.565064,1.585626,-0.163839,1.005917,-1.568002,-3.934666,-0.042305,0.009064,0.000000,0.163341,0.365496,0.000000
2.780000,0.056863,-0.198871,-1.447555,1.802567,0.278755,-0.010833,-0.123881,-0.396558,0.067716,-3.552811,1.569113,-0.202952,1.441962,-1.724790,-3.885646,-0.040679,0.012715,0.000000,0.161818,0.364054,0.000000
2.790000,0.074882,-0.196103,-1.447660,1.801150,0.274867,-0.010167,-0.159330,-0.380955,0.065493,-3.536283,1.551330,-0.241503,1.860646,-1.821597,-3.822089,-0.039069,0.016349,0.000000,0.160135,0.362121,-0.000000
2.800000,0.092885,-0.193373,-1.447758,1.799381,0.271135,-0.009524,-0.194593,-0.365533,0.062888,-3.515658,1.532887,-0.279346,2.261198,-1.856572,-3.744061,-0.037477,0.019961,0.000000,0.158356,0.359719,0.000000
2.810000,0.110868,-0.190680,-1.447850,1.797258,0.267559,-0.008910,-0.229595,-0.350395,0.059907,-3.487891,1.505400,-0.316490,2.561242,-1.600274,-3.647743,-0.035912,0.023544,0.000000,0.155623,0.356537,-0.000000
2.820000,0.128829,-0.188022,-1.447936,1.794789,0.264130,-0.008327,-0.264341,-0.335416,0.056562,-3.460823,1.490847,-0.352428,2.851607,-1.306311,-3.537557,-0.034363,0.027096,0.000000,0.154187,0.353383,-0.000000
2.830000,0.146763,-0.185397,-1.448017,1.791973,0.260850,-0.007780,-0.298802,-0.320568,0.052862,-3.430860,1.479313,-0.387197,3.141513,-1.000701,-3.414042,-0.032827,0.030614,0.000000,0.153033,0.349894,-0.000000
2.840000,0.164667,-0.182804,-1.448092,1.788814,0.257718,-0.007271,-0.332948,-0.305820,0.048822,-3.397963,1.470785,-0.420666,3.440183,-0.709461,-3.277737,-0.031302,0.034096,0.000000,0.152159,0.346068,0.000000
