time,x,y,z,vx,vy,vz,ax,ay,az,jx,jy,jz,sx,sy,sz,roll,pitch,yaw,p,q,r
0.000000,-2.217184,-2.173872,-1.475166,0.013137,-0.008306,-0.001080,-0.277149,0.155318,-0.029449,-10.403539,5.516229,-1.190102,314.371553,-188.554279,24.960410,0.015778,0.028160,0.000000,0.557886,1.052956,0.000000
0.010000,-2.217053,-2.173955,-1.475176,0.010365,-0.006752,-0.001374,-0.381184,0.210480,-0.041350,-7.259823,3.630686,-0.940498,703.125824,-387.258419,64.195373,0.021346,0.038674,0.000000,0.365462,0.731980,0.000000
0.020000,-2.216977,-2.174007,-1.475193,0.005513,-0.004096,-0.001907,-0.422345,0.227931,-0.048259,3.658978,-2.228940,0.093806,882.379363,-430.267147,85.474867,0.023096,0.042816,0.000000,-0.225185,-0.369973,-0.000000
0.030000,-2.216943,-2.174037,-1.475214,0.001918,-0.002194,-0.002340,-0.308005,0.165901,-0.039474,10.387764,-4.974657,0.769000,240.728435,-24.898042,23.790214,0.016834,0.031261,0.000000,-0.502811,-1.051033,-0.000000
0.040000,-2.216939,-2.174051,-1.475240,-0.000647,-0.000778,-0.002696,-0.214590,0.128438,-0.032879,8.473546,-2.726900,0.569610,-174.615473,205.100199,-18.092487,0.013045,0.021798,0.000000,-0.275931,-0.859138,-0.000000
0.050000,-2.216956,-2.174052,-1.475268,-0.002374,0.000375,-0.002997,-0.138534,0.111363,-0.028081,6.895454,-0.872653,0.407150,-143.006102,168.118760,-14.623627,0.011318,0.014080,0.000000,-0.088101,-0.700128,0.000000
0.060000,-2.216986,-2.174043,-1.475300,-0.003418,0.001449,-0.003258,-0.076681,0.110985,-0.024736,5.613424,0.635475,0.277137,-115.282442,135.727258,-11.588785,0.011284,0.007797,0.000000,0.064973,-0.570485,-0.000000
0.070000,-2.217024,-2.174023,-1.475334,-0.003907,0.002595,-0.003492,-0.026265,0.124072,-0.022539,4.589806,1.841892,0.175374,-91.203047,107.627720,-8.959548,0.012618,0.002671,0.000000,0.187536,-0.466709,0.000000
0.080000,-2.217064,-2.173991,-1.475370,-0.003943,0.003931,-0.003709,0.015115,0.147823,-0.021228,3.789363,2.788029,0.097946,-70.526418,83.522177,-6.707488,0.015035,-0.001537,0.000000,0.283666,-0.385412,-0.000000
0.090000,-2.217103,-2.173945,-1.475408,-0.003605,0.005551,-0.003916,0.049522,0.179833,-0.020580,3.179277,3.512336,0.041224,-53.011122,63.112668,-4.804190,0.018291,-0.005037,0.000000,0.357210,-0.323366,-0.000000
0.100000,-2.217136,-2.173880,-1.475448,-0.002953,0.007527,-0.004120,0.078701,0.218070,-0.020404,2.729141,4.050283,0.001863,-38.415738,46.101238,-3.221243,0.022179,-0.008006,0.000000,0.411755,-0.277538,-0.000000
0.110000,-2.217162,-2.173794,-1.475490,-0.002031,0.009912,-0.004325,0.104105,0.260839,-0.020543,2.410962,4.434361,-0.023200,-26.498777,32.189906,-1.930228,0.026526,-0.010590,0.000000,0.450606,-0.245113,-0.000000
0.120000,-2.217177,-2.173682,-1.475534,-0.000871,0.012744,-0.004531,0.126920,0.306757,-0.020868,2.199165,4.694081,-0.036742,-17.018761,21.080674,-0.902715,0.031191,-0.012910,0.000000,0.476773,-0.223506,0.000000
0.130000,-2.217179,-2.173539,-1.475581,0.000507,0.016048,-0.004742,0.148088,0.354720,-0.021277,2.070587,4.855974,-0.041255,-9.734267,12.475595,-0.110290,0.036061,-0.015062,0.000000,0.492968,-0.210364,0.000000
0.140000,-2.217167,-2.173361,-1.475629,0.002091,0.019839,-0.004957,0.168332,0.403876,-0.021693,2.004480,4.943593,-0.038948,-4.403872,6.076775,0.475427,0.041050,-0.017120,0.000000,0.501596,-0.203580,0.000000
0.150000,-2.217137,-2.173143,-1.475680,0.003874,0.024125,-0.005176,0.188178,0.453592,-0.022056,1.982510,4.977509,-0.031746,-0.786080,1.586177,0.882881,0.046093,-0.019137,0.000000,0.504760,-0.201288,0.000000
0.160000,-2.217089,-2.172879,-1.475733,0.005855,0.028910,-0.005398,0.207982,0.503426,-0.022328,1.988758,4.975316,-0.021290,1.360601,-1.294257,1.140533,0.051145,-0.021150,0.000000,0.504252,-0.201867,-0.000000
0.170000,-2.217020,-2.172564,-1.475788,0.008034,0.034194,-0.005622,0.227953,0.553099,-0.022482,2.009722,4.951624,-0.008935,2.307158,-2.906664,1.281346,0.056178,-0.023179,0.000000,0.501560,-0.203943,-0.000000
0.180000,-2.216929,-2.172195,-1.475845,0.010414,0.039972,-0.005848,0.248176,0.602459,-0.022506,2.034901,4.917183,0.004337,2.812069,-4.322812,1.414033,0.061176,-0.025235,0.000000,0.497775,-0.206449,-0.000000
0.190000,-2.216812,-2.171765,-1.475905,0.012997,0.046243,-0.006072,0.268651,0.651442,-0.022395,2.065963,4.865168,0.019345,2.938038,-5.573166,1.539276,0.066133,-0.027316,0.000000,0.492217,-0.209556,-0.000000
0.200000,-2.216669,-2.171270,-1.475967,0.015787,0.053001,-0.006296,0.289496,0.699762,-0.022120,2.093662,4.805719,0.035122,-0.888674,-1.245575,1.092854,0.071021,-0.029435,0.000000,0.485915,-0.212325,0.000000
0.210000,-2.216496,-2.170705,-1.476031,0.018787,0.060238,-0.006515,0.310524,0.747557,-0.021693,2.048190,4.840257,0.041202,-8.017861,7.750227,0.166666,0.075852,-0.031573,0.000000,0.489060,-0.207651,0.000000
0.220000,-2.216293,-2.170065,-1.476097,0.021997,0.067952,-0.006729,0.330459,0.796567,-0.021296,1.933305,4.960724,0.038456,-7.262282,4.741619,0.488340,0.080802,-0.033600,0.000000,0.500798,-0.195916,0.000000
0.230000,-2.216056,-2.169346,-1.476165,0.025396,0.076169,-0.006941,0.349190,0.846771,-0.020924,1.902944,4.935089,0.050969,1.927681,-10.896718,2.115383,0.085867,-0.035505,0.000000,0.497846,-0.192794,0.000000
0.240000,-2.215785,-2.168542,-1.476236,0.028981,0.084888,-0.007148,0.368518,0.895269,-0.020276,1.971859,4.742790,0.080763,4.568028,-16.721451,2.717636,0.090759,-0.037471,0.000000,0.478231,-0.199791,0.000000
0.250000,-2.215477,-2.167648,-1.476308,0.032767,0.094075,-0.007346,0.388627,0.941627,-0.019309,1.994305,4.600660,0.105322,-1.506700,-10.415933,2.088190,0.095432,-0.039517,0.000000,0.463698,-0.202076,0.000000
0.260000,-2.215130,-2.166660,-1.476383,0.036754,0.103720,-0.007534,0.408404,0.987282,-0.018170,1.941725,4.534471,0.122527,-5.884841,-7.393808,1.820417,0.100033,-0.041531,0.000000,0.456802,-0.196755,-0.000000
0.270000,-2.214742,-2.165574,-1.476459,0.040935,0.113820,-0.007710,0.427462,1.032316,-0.016858,1.876608,4.452784,0.141730,-5.217272,-9.769703,2.027887,0.104568,-0.043472,0.000000,0.448397,-0.190188,0.000000
0.280000,-2.214311,-2.164384,-1.476537,0.045303,0.124367,-0.007871,0.445936,1.076338,-0.015335,1.837379,4.339077,0.163085,-2.932674,-12.257105,2.156373,0.109001,-0.045355,0.000000,0.436822,-0.186260,-0.000000
0.290000,-2.213836,-2.163086,-1.476616,0.049854,0.135347,-0.008016,0.464209,1.119098,-0.013596,1.817954,4.207642,0.184858,-2.574112,-13.435724,2.199826,0.113305,-0.047219,0.000000,0.423502,-0.184345,0.000000
0.300000,-2.213314,-2.161677,-1.476697,0.054587,0.146749,-0.008143,0.482296,1.160491,-0.011638,1.785897,4.070362,0.207081,-4.115927,-13.989987,2.250508,0.117471,-0.049066,0.000000,0.409655,-0.181171,0.000000
0.310000,-2.212744,-2.160151,-1.476779,0.059499,0.158557,-0.008249,0.499927,1.200505,-0.009455,1.735636,3.927842,0.229868,-5.232331,-14.695049,2.290173,0.121498,-0.050868,0.000000,0.395350,-0.176178,0.000000
0.320000,-2.212124,-2.158506,-1.476862,0.064586,0.170759,-0.008332,0.517008,1.239048,-0.007041,1.681250,3.776461,0.252885,-5.256025,-15.434025,2.271835,0.125378,-0.052616,0.000000,0.380216,-0.170786,-0.000000
0.330000,-2.211452,-2.156736,-1.476946,0.069840,0.183338,-0.008390,0.533552,1.276034,-0.004397,1.630515,3.619161,0.275304,-4.951377,-15.943244,2.198403,0.129103,-0.054311,0.000000,0.364535,-0.165775,-0.000000
0.340000,-2.210727,-2.154839,-1.477030,0.075257,0.196279,-0.008420,0.549619,1.311431,-0.001535,1.582223,3.457597,0.296853,-5.007024,-16.452850,2.131675,0.132669,-0.055959,0.000000,0.348467,-0.161019,-0.000000
0.350000,-2.209947,-2.152811,-1.477114,0.080832,0.209567,-0.008421,0.565197,1.345186,0.001540,1.530375,3.290104,0.317938,-5.398918,-17.042050,2.093327,0.136072,-0.057560,0.000000,0.331855,-0.155917,0.000000
0.360000,-2.209110,-2.150648,-1.477198,0.086561,0.223183,-0.008389,0.580226,1.377233,0.004824,1.474244,3.116756,0.338719,-5.681744,-17.544487,2.039749,0.139306,-0.059107,0.000000,0.314710,-0.150395,0.000000
0.370000,-2.208216,-2.148347,-1.477282,0.092436,0.237111,-0.008324,0.594682,1.407521,0.008314,1.416740,2.939215,0.358733,-5.748174,-17.887579,1.917893,0.142367,-0.060597,0.000000,0.297186,-0.144743,0.000000
0.380000,-2.207262,-2.145906,-1.477365,0.098454,0.251333,-0.008223,0.608561,1.436017,0.011999,1.359281,2.759004,0.377077,-5.747656,-18.129338,1.739257,0.145250,-0.062031,0.000000,0.279420,-0.139098,-0.000000
0.390000,-2.206247,-2.143320,-1.477447,0.104608,0.265832,-0.008084,0.621867,1.462701,0.015856,1.301787,2.576628,0.393518,-5.787258,-18.357203,1.573640,0.147955,-0.063409,0.000000,0.261453,-0.133448,0.000000
0.400000,-2.205170,-2.140589,-1.477527,0.110891,0.280588,-0.007906,0.634597,1.487550,0.019869,1.243536,2.391860,0.408550,-5.856709,-18.572211,1.439773,0.150479,-0.064729,0.000000,0.243267,-0.127722,-0.000000
0.410000,-2.204029,-2.137709,-1.477605,0.117300,0.295583,-0.007687,0.646738,1.510539,0.024027,1.184653,2.205184,0.422314,-5.890266,-18.720367,1.290571,0.152821,-0.065992,0.000000,0.224906,-0.121932,0.000000
0.420000,-2.202824,-2.134677,-1.477680,0.123826,0.310798,-0.007425,0.658290,1.531654,0.028316,1.125730,2.017453,0.434362,-5.883236,-18.801481,1.083219,0.154978,-0.067197,0.000000,0.206445,-0.116133,0.000000
0.430000,-2.201552,-2.131493,-1.477753,0.130465,0.326216,-0.007120,0.669253,1.550888,0.032714,1.066988,1.829154,0.443978,-5.860103,-18.837703,0.832705,0.156950,-0.068343,0.000000,0.187915,-0.110341,0.000000
0.440000,-2.200214,-2.128153,-1.477823,0.137211,0.341816,-0.006771,0.679629,1.568237,0.037195,1.008528,1.640699,0.451016,-5.824052,-18.829100,0.596024,0.158736,-0.069431,0.000000,0.169349,-0.104563,0.000000
0.450000,-2.198808,-2.124656,-1.477889,0.144058,0.357580,-0.006377,0.689423,1.583702,0.041735,0.950507,1.452572,0.455898,-5.770045,-18.770687,0.384641,0.160337,-0.070461,0.000000,0.150795,-0.098817,0.000000
0.460000,-2.197333,-2.121001,-1.477950,0.151000,0.373490,-0.005936,0.698640,1.597288,0.046313,0.893128,1.265285,0.458708,-5.699189,-18.667152,0.161936,0.161752,-0.071433,0.000000,0.132302,-0.093121,0.000000
0.470000,-2.195788,-2.117187,-1.478007,0.158031,0.389526,-0.005450,0.707286,1.609007,0.050909,0.836523,1.079229,0.459137,-5.622345,-18.533137,-0.094610,0.162983,-0.072348,0.000000,0.113898,-0.087486,-0.000000
0.480000,-2.194172,-2.113211,-1.478059,0.165145,0.405670,-0.004918,0.715370,1.618873,0.055496,0.780681,0.894622,0.456816,-5.541675,-18.370711,-0.371084,0.164030,-0.073206,0.000000,0.095593,-0.081906,-0.000000
0.490000,-2.192485,-2.109073,-1.478106,0.172338,0.421904,-0.004340,0.722899,1.626900,0.060045,0.725689,0.711815,0.451715,-5.445090,-18.164931,-0.636421,0.164895,-0.074008,0.000000,0.077418,-0.076389,-0.000000
0.500000,-2.190726,-2.104773,-1.478146,0.179603,0.438208,-0.003717,0.729884,1.633109,0.064530,0.671779,0.531323,0.444088,-5.328696,-17.913262,-0.888308,0.165578,-0.074755,0.000000,0.059423,-0.070958,0.000000
0.510000,-2.188893,-2.100309,-1.478180,0.186936,0.454566,-0.003050,0.736335,1.637526,0.068927,0.619116,0.353550,0.433949,-5.203034,-17.629484,-1.144540,0.166083,-0.075447,0.000000,0.041646,-0.065629,-0.000000
0.520000,-2.186987,-2.095681,-1.478207,0.194330,0.470959,-0.002339,0.742266,1.640180,0.073209,0.567718,0.178734,0.421197,-5.081031,-17.325532,-1.403961,0.166411,-0.076086,0.000000,0.024105,-0.060402,-0.000000
0.530000,-2.185007,-2.090890,-1.478227,0.201781,0.487369,-0.001586,0.747689,1.641101,0.077351,0.517495,0.007039,0.405870,-4.961514,-16.999895,-1.657054,0.166565,-0.076672,0.000000,0.006816,-0.055268,0.000000
0.540000,-2.182951,-2.085934,-1.478239,0.209284,0.503781,-0.000792,0.752616,1.640321,0.081326,0.468488,-0.161264,0.388056,-4.830024,-16.641781,-1.903308,0.166547,-0.077207,0.000000,-0.010196,-0.050231,0.000000
0.550000,-2.180821,-2.080814,-1.478243,0.216834,0.520176,0.000041,0.757059,1.637876,0.085112,0.420894,-0.325797,0.367804,-4.682403,-16.250353,-2.149152,0.166361,-0.077691,0.000000,-0.026892,-0.045312,-0.000000
0.560000,-2.178615,-2.075530,-1.478238,0.224425,0.536538,0.000910,0.761034,1.633805,0.088683,0.374840,-0.486271,0.345073,-4.530390,-15.836100,-2.391170,0.166009,-0.078126,0.000000,-0.043246,-0.040521,-0.000000
0.570000,-2.176332,-2.070083,-1.478224,0.232054,0.552852,0.001815,0.764556,1.628150,0.092013,0.330287,-0.642519,0.319980,-4.387858,-15.407598,-2.606932,0.165496,-0.078513,0.000000,-0.059238,-0.035856,-0.000000
0.580000,-2.173974,-2.064473,-1.478202,0.239716,0.569101,0.002751,0.767640,1.620954,0.095082,0.287083,-0.794423,0.292934,-4.253035,-14.964195,-2.793010,0.164825,-0.078853,0.000000,-0.074850,-0.031305,-0.000000
0.590000,-2.171538,-2.058701,-1.478169,0.247407,0.585271,0.003716,0.770298,1.612262,0.097872,0.245226,-0.941803,0.264120,-4.109753,-14.499078,-2.976605,0.163999,-0.079147,0.000000,-0.090059,-0.026870,0.000000
0.600000,-2.169025,-2.052768,-1.478127,0.255122,0.601347,0.004708,0.772544,1.602118,0.100365,0.204888,-1.084405,0.233402,-3.953313,-14.011404,-3.170808,0.163023,-0.079397,0.000000,-0.104840,-0.022566,0.000000
0.610000,-2.166436,-2.046674,-1.478075,0.262858,0.617313,0.005723,0.774395,1.590574,0.102540,0.166160,-1.222031,0.200704,-3.796333,-13.508840,-3.353765,0.161902,-0.079605,0.000000,-0.119174,-0.018404,0.000000
0.620000,-2.163768,-2.040422,-1.478013,0.270610,0.633158,0.006759,0.775867,1.577678,0.104379,0.128961,-1.354581,0.166327,-3.653418,-12.999986,-3.488035,0.160640,-0.079770,0.000000,-0.133042,-0.014377,0.000000
0.630000,-2.161023,-2.034011,-1.477940,0.278375,0.648867,0.007811,0.776975,1.563482,0.105867,0.093091,-1.482030,0.130943,-3.522287,-12.485187,-3.576319,0.159241,-0.079896,0.000000,-0.146427,-0.010471,0.000000
0.640000,-2.158201,-2.027444,-1.477857,0.286150,0.664428,0.008876,0.777729,1.548037,0.106998,0.058515,-1.604285,0.094801,-3.385289,-11.957027,-3.665789,0.157711,-0.079982,0.000000,-0.159314,-0.006686,-0.000000
0.650000,-2.155300,-2.020723,-1.477763,0.293930,0.679828,0.009951,0.778145,1.531396,0.107763,0.025386,-1.721171,0.057628,-3.237090,-11.413176,-3.772979,0.156055,-0.080031,0.000000,-0.171686,-0.003036,-0.000000
0.660000,-2.152322,-2.013848,-1.477658,0.301713,0.695056,0.011032,0.778237,1.513614,0.108150,-0.006227,-1.832549,0.019341,-3.090944,-10.861641,-3.863436,0.154278,-0.080044,0.000000,-0.183527,0.000473,0.000000
0.670000,-2.149266,-2.006822,-1.477542,0.309495,0.710100,0.012114,0.778020,1.494745,0.108149,-0.036433,-1.938404,-0.019641,-2.962091,-10.314362,-3.893396,0.152384,-0.080022,0.000000,-0.194826,0.003848,0.000000
0.680000,-2.146132,-1.999646,-1.477415,0.317273,0.724950,0.013195,0.777508,1.474846,0.107757,-0.065468,-2.038836,-0.058527,-2.847718,-9.771727,-3.870584,0.150381,-0.079966,0.000000,-0.205576,0.007104,-0.000000
0.690000,-2.142921,-1.992323,-1.477278,0.325045,0.739597,0.014269,0.776711,1.453969,0.106979,-0.093388,-2.133838,-0.097053,-2.728970,-9.221433,-3.851205,0.148273,-0.079878,0.000000,-0.215770,0.010245,0.000000
0.700000,-2.139631,-1.984854,-1.477130,0.332807,0.754030,0.015334,0.775640,1.432169,0.105816,-0.120048,-2.223265,-0.135551,-2.600382,-8.658991,-3.852035,0.146066,-0.079759,0.000000,-0.225395,0.013259,0.000000
0.710000,-2.136265,-1.977242,-1.476971,0.340558,0.768240,0.016385,0.774310,1.409503,0.104268,-0.145395,-2.307018,-0.174093,-2.475561,-8.095562,-3.833783,0.143765,-0.079610,0.000000,-0.234439,0.016139,0.000000
0.720000,-2.132820,-1.969489,-1.476802,0.348293,0.782220,0.017419,0.772733,1.386029,0.102334,-0.169559,-2.385176,-0.212227,-2.369207,-7.547764,-3.754701,0.141377,-0.079433,0.000000,-0.242900,0.018895,-0.000000
0.730000,-2.129299,-1.961598,-1.476623,0.356012,0.795961,0.018432,0.770919,1.361800,0.100023,-0.192779,-2.457973,-0.249187,-2.277987,-7.014999,-3.625543,0.138907,-0.079228,0.000000,-0.250789,0.021545,-0.000000
0.740000,-2.125700,-1.953570,-1.476434,0.363712,0.809456,0.019420,0.768877,1.336869,0.097351,-0.215119,-2.525476,-0.284738,-2.183292,-6.478305,-3.500748,0.136361,-0.078998,0.000000,-0.258107,0.024091,0.000000
0.750000,-2.122024,-1.945408,-1.476235,0.371390,0.822698,0.020379,0.766616,1.311290,0.094329,-0.236445,-2.587539,-0.319202,-2.080045,-5.931185,-3.394476,0.133745,-0.078742,0.000000,-0.264843,0.026523,-0.000000
0.760000,-2.118272,-1.937116,-1.476026,0.379044,0.835682,0.021306,0.764148,1.285118,0.090967,-0.256720,-2.644100,-0.352627,-1.981245,-5.389002,-3.270025,0.131064,-0.078462,0.000000,-0.270989,0.028837,-0.000000
0.770000,-2.114444,-1.928695,-1.475808,0.386673,0.848401,0.022199,0.761482,1.258408,0.087276,-0.276070,-2.695319,-0.384603,-1.899755,-4.872299,-3.094587,0.128325,-0.078160,0.000000,-0.276556,0.031043,0.000000
0.780000,-2.110539,-1.920148,-1.475582,0.394274,0.860850,0.023052,0.758627,1.231212,0.083274,-0.294715,-2.741546,-0.414519,-1.831945,-4.378874,-2.879777,0.125533,-0.077836,0.000000,-0.281569,0.033157,-0.000000
0.790000,-2.106558,-1.911478,-1.475347,0.401845,0.873025,0.023864,0.755588,1.203577,0.078986,-0.312709,-2.782897,-0.442198,-1.761219,-3.884125,-2.669196,0.122694,-0.077492,0.000000,-0.286039,0.035184,0.000000
0.800000,-2.102502,-1.902687,-1.475105,0.409385,0.884921,0.024632,0.752372,1.175554,0.074431,-0.329939,-2.819228,-0.467903,-1.683484,-3.380440,-2.472333,0.119813,-0.077127,0.000000,-0.289955,0.037113,-0.000000
0.810000,-2.098370,-1.893779,-1.474855,0.416893,0.896536,0.025353,0.748989,1.147193,0.069628,-0.346379,-2.850506,-0.491645,-1.609929,-2.886498,-2.261125,0.116895,-0.076744,0.000000,-0.293316,0.038943,0.000000
0.820000,-2.094164,-1.884757,-1.474598,0.424365,0.907865,0.026024,0.745445,1.118544,0.064598,-0.362138,-2.876958,-0.513125,-1.550216,-2.424339,-2.016109,0.113947,-0.076343,0.000000,-0.296141,0.040682,-0.000000
0.830000,-2.089883,-1.875622,-1.474334,0.431802,0.918907,0.026645,0.741746,1.089654,0.059365,-0.377383,-2.898993,-0.531967,-1.500833,-1.990174,-1.747592,0.110972,-0.075925,0.000000,-0.298469,0.042345,0.000000
0.840000,-2.085528,-1.866379,-1.474065,0.439200,0.929658,0.027212,0.737897,1.060564,0.053958,-0.392154,-2.916761,-0.548077,-1.449055,-1.556893,-1.482459,0.107977,-0.075491,0.000000,-0.300317,0.043935,-0.000000
0.850000,-2.081099,-1.857029,-1.473790,0.446559,0.940118,0.027724,0.733903,1.031318,0.048404,-0.406364,-2.930130,-0.561616,-1.392165,-1.117051,-1.224791,0.104966,-0.075042,0.000000,-0.301675,0.045445,-0.000000
0.860000,-2.076597,-1.847576,-1.473510,0.453878,0.950285,0.028180,0.729770,1.001961,0.042726,-0.419998,-2.939102,-0.572573,-1.338333,-0.690407,-0.958806,0.101944,-0.074577,0.000000,-0.302547,0.046873,-0.000000
0.870000,-2.072022,-1.838023,-1.473226,0.461155,0.960157,0.028578,0.725503,0.972536,0.036952,-0.433131,-2.943939,-0.580793,-1.293142,-0.297282,-0.679591,0.098915,-0.074099,0.000000,-0.302961,0.048227,0.000000
0.880000,-2.067374,-1.828373,-1.472939,0.468388,0.969735,0.028919,0.721107,0.943083,0.031110,-0.445861,-2.945048,-0.586165,-1.253591,0.067164,-0.394671,0.095885,-0.073608,0.000000,-0.302958,0.049515,-0.000000
0.890000,-2.062654,-1.818629,-1.472648,0.475577,0.979019,0.029200,0.716586,0.913635,0.025229,-0.458203,-2.942595,-0.588686,-1.212076,0.428311,-0.112365,0.092856,-0.073104,0.000000,-0.302560,0.050741,-0.000000
0.900000,-2.057862,-1.808793,-1.472355,0.482720,0.988008,0.029423,0.711943,0.884231,0.019336,-0.470102,-2.936482,-0.588412,-1.167703,0.792373,0.168750,0.089833,-0.072589,0.000000,-0.301761,0.051900,-0.000000
0.910000,-2.052999,-1.798868,-1.472060,0.489816,0.996704,0.029587,0.707184,0.854906,0.013461,-0.481557,-2.926748,-0.585311,-1.124926,1.141423,0.451410,0.086821,-0.072062,0.000000,-0.300567,0.052991,-0.000000
0.920000,-2.048066,-1.788859,-1.471763,0.496864,1.005106,0.029692,0.702312,0.825696,0.007630,-0.492601,-2.913653,-0.579384,-1.084501,1.459421,0.726782,0.083822,-0.071525,0.000000,-0.299009,0.054019,0.000000
0.930000,-2.043062,-1.778766,-1.471466,0.503862,1.013217,0.029740,0.697332,0.796633,0.001873,-0.503247,-2.897559,-0.570775,-1.044253,1.751387,0.990895,0.080841,-0.070978,0.000000,-0.297127,0.054988,-0.000000
0.940000,-2.037989,-1.768594,-1.471168,0.510810,1.021039,0.029730,0.692247,0.767745,-0.003785,-0.513486,-2.878626,-0.559566,-1.002707,2.037516,1.253099,0.077880,-0.070422,0.000000,-0.294942,0.055896,0.000000
0.950000,-2.032846,-1.758345,-1.470871,0.517707,1.028572,0.029664,0.687062,0.739060,-0.009318,-0.523301,-2.856809,-0.545713,-0.960778,2.321973,1.519268,0.074942,-0.069857,0.000000,-0.292453,0.056743,-0.000000
0.960000,-2.027634,-1.748023,-1.470575,0.524552,1.035820,0.029544,0.681781,0.710608,-0.014700,-0.532701,-2.832186,-0.529181,-0.918672,2.590960,1.780204,0.072030,-0.069284,0.000000,-0.289670,0.057531,-0.000000
0.970000,-2.022355,-1.737629,-1.470280,0.531343,1.042785,0.029370,0.676408,0.682416,-0.019902,-0.541674,-2.804990,-0.510109,-0.872604,2.834326,2.016549,0.069148,-0.068703,0.000000,-0.286621,0.058260,-0.000000
0.980000,-2.017008,-1.727167,-1.469988,0.538080,1.049468,0.029146,0.670948,0.654509,-0.024902,-0.550153,-2.775500,-0.488850,-0.821535,3.056405,2.228033,0.066298,-0.068116,0.000000,-0.283338,0.058925,0.000000
0.990000,-2.011593,-1.716640,-1.469697,0.544762,1.055875,0.028872,0.665405,0.626906,-0.029679,-0.558105,-2.743862,-0.465549,-0.769933,3.270118,2.437902,0.063481,-0.067522,0.000000,-0.279842,0.059526,0.000000
1.000000,-2.006112,-1.706050,-1.469410,0.551388,1.062007,0.028552,0.659786,0.599631,-0.034213,-0.565552,-2.710097,-0.440092,-0.720325,3.477463,2.655087,0.060701,-0.066923,0.000000,-0.276134,0.060065,0.000000
1.010000,-2.000566,-1.695400,-1.469126,0.557957,1.067867,0.028188,0.654094,0.572705,-0.038481,-0.572512,-2.674313,-0.412447,-0.668891,3.669979,2.861377,0.057959,-0.066318,0.000000,-0.272229,0.060544,-0.000000
1.020000,-1.994953,-1.684692,-1.468846,0.564470,1.073461,0.027782,0.648335,0.546145,-0.042462,-0.578930,-2.636698,-0.382864,-0.608110,3.843375,3.030909,0.055256,-0.065710,0.000000,-0.268147,0.060959,-0.000000
1.030000,-1.989276,-1.673930,-1.468571,0.570924,1.078790,0.027339,0.642515,0.519971,-0.046138,-0.584674,-2.597445,-0.351829,-0.538222,4.000716,3.166626,0.052596,-0.065097,0.000000,-0.263915,0.061302,0.000000
1.040000,-1.983535,-1.663116,-1.468300,0.577320,1.083860,0.026860,0.636642,0.494196,-0.049498,-0.589694,-2.556683,-0.319531,-0.468647,4.147587,3.300684,0.049978,-0.064482,0.000000,-0.259545,0.061568,0.000000
1.050000,-1.977730,-1.652253,-1.468033,0.583657,1.088674,0.026349,0.630722,0.468837,-0.052529,-0.594047,-2.514493,-0.285815,-0.403043,4.284241,3.443539,0.047405,-0.063864,0.000000,-0.255048,0.061764,0.000000
1.060000,-1.971862,-1.641343,-1.467773,0.589934,1.093237,0.025809,0.624761,0.443906,-0.055215,-0.597755,-2.470999,-0.250661,-0.334412,4.407392,3.571615,0.044877,-0.063245,0.000000,-0.250435,0.061890,0.000000
1.070000,-1.965931,-1.630388,-1.467517,0.596152,1.097552,0.025244,0.618766,0.419417,-0.057542,-0.600735,-2.426345,-0.214383,-0.252829,4.517205,3.656721,0.042396,-0.062625,0.000000,-0.245724,0.061943,-0.000000
1.080000,-1.959939,-1.619392,-1.467268,0.602310,1.101625,0.024658,0.612746,0.395379,-0.059502,-0.602812,-2.380655,-0.177526,-0.159639,4.615292,3.704194,0.039962,-0.062005,0.000000,-0.240930,0.061907,0.000000
1.090000,-1.953885,-1.608356,-1.467024,0.608407,1.105460,0.024054,0.606710,0.371804,-0.061093,-0.603928,-2.334040,-0.140299,-0.067630,4.701655,3.749820,0.037577,-0.061386,0.000000,-0.236064,0.061778,0.000000
1.100000,-1.947770,-1.597283,-1.466787,0.614444,1.109061,0.023436,0.600668,0.348699,-0.062308,-0.604164,-2.286621,-0.102530,0.018961,4.775448,3.804100,0.035241,-0.060769,0.000000,-0.231139,0.061563,-0.000000
1.110000,-1.941596,-1.586175,-1.466555,0.620420,1.112434,0.022808,0.594627,0.326071,-0.063143,-0.603548,-2.238531,-0.064217,0.109188,4.837234,3.841855,0.032954,-0.060154,0.000000,-0.226166,0.061266,0.000000
1.120000,-1.935362,-1.575034,-1.466330,0.626337,1.115583,0.022173,0.588597,0.303928,-0.063593,-0.601980,-2.189877,-0.025693,0.213696,4.889812,3.836300,0.030718,-0.059543,0.000000,-0.221158,0.060879,-0.000000
1.130000,-1.929069,-1.563863,-1.466112,0.632192,1.118512,0.021536,0.582587,0.282274,-0.063657,-0.599275,-2.140734,0.012509,0.330171,4.933431,3.794097,0.028531,-0.058936,0.000000,-0.216122,0.060385,-0.000000
1.140000,-1.922718,-1.552664,-1.465900,0.637988,1.121228,0.020900,0.576611,0.261113,-0.063342,-0.595377,-2.091208,0.050189,0.444710,4.964842,3.749934,0.026395,-0.058335,0.000000,-0.211070,0.059780,0.000000
1.150000,-1.916309,-1.541438,-1.465694,0.643725,1.123735,0.020269,0.570680,0.240450,-0.062653,-0.590380,-2.041438,0.087508,0.553096,4.983552,3.713208,0.024310,-0.057740,0.000000,-0.206012,0.059072,0.000000
1.160000,-1.909844,-1.530189,-1.465494,0.649402,1.126037,0.019647,0.564804,0.220285,-0.061592,-0.584315,-1.991537,0.124453,0.664797,4.992157,3.660308,0.022275,-0.057153,0.000000,-0.200960,0.058265,-0.000000
1.170000,-1.903321,-1.518918,-1.465301,0.655021,1.128140,0.019038,0.558994,0.200619,-0.060164,-0.577084,-1.941594,0.160714,0.789939,4.992258,3.568792,0.020290,-0.056574,0.000000,-0.195922,0.057350,0.000000
1.180000,-1.896743,-1.507626,-1.465114,0.660582,1.130050,0.018444,0.553262,0.181453,-0.058378,-0.568516,-1.891692,0.195829,0.925738,4.983303,3.445771,0.018356,-0.056005,0.000000,-0.190905,0.056311,-0.000000
1.190000,-1.890110,-1.496317,-1.464932,0.666086,1.131769,0.017870,0.547623,0.162785,-0.056248,-0.558570,-1.841928,0.229629,1.058651,4.963803,3.320966,0.016472,-0.055448,0.000000,-0.185919,0.055145,-0.000000
1.200000,-1.883422,-1.484991,-1.464756,0.671534,1.133305,0.017319,0.542091,0.144614,-0.053785,-0.547343,-1.792416,0.262248,1.185186,4.933721,3.201660,0.014638,-0.054902,0.000000,-0.180972,0.053861,0.000000
1.210000,-1.876679,-1.473651,-1.464586,0.676928,1.134662,0.016794,0.536676,0.126937,-0.051003,-0.534866,-1.743254,0.293663,1.314235,4.894360,3.068350,0.012853,-0.054370,0.000000,-0.176073,0.052460,0.000000
1.220000,-1.869883,-1.462298,-1.464420,0.682268,1.135844,0.016299,0.531393,0.109749,-0.047912,-0.521059,-1.694529,0.323615,1.453351,4.846500,2.905040,0.011117,-0.053853,0.000000,-0.171229,0.050936,0.000000
1.230000,-1.863034,-1.450934,-1.464260,0.687556,1.136857,0.015836,0.526255,0.093046,-0.044530,-0.505799,-1.646324,0.351763,1.599508,4.789877,2.718406,0.009428,-0.053352,0.000000,-0.166449,0.049278,0.000000
1.240000,-1.856132,-1.439561,-1.464104,0.692793,1.137705,0.015408,0.521277,0.076823,-0.040877,-0.489068,-1.598731,0.377984,1.742346,4.724009,2.530374,0.007788,-0.052868,0.000000,-0.161738,0.047482,0.000000
1.250000,-1.849178,-1.428180,-1.463952,0.697981,1.138393,0.015018,0.516474,0.061072,-0.036971,-0.470952,-1.551844,0.402371,1.879570,4.649772,2.345667,0.006193,-0.052402,0.000000,-0.157106,0.045558,0.000000
1.260000,-1.842172,-1.416793,-1.463803,0.703122,1.138926,0.014669,0.511858,0.045786,-0.032829,-0.451477,-1.505736,0.424897,2.017590,4.567722,2.150723,0.004645,-0.051956,0.000000,-0.152557,0.043506,0.000000
1.270000,-1.835115,-1.405401,-1.463658,0.708218,1.139309,0.014362,0.507444,0.030957,-0.028473,-0.430600,-1.460489,0.445385,2.160671,4.476040,1.936859,0.003142,-0.051532,0.000000,-0.148099,0.041322,-0.000000
1.280000,-1.828008,-1.394007,-1.463516,0.713271,1.139545,0.014099,0.503246,0.016576,-0.023922,-0.408264,-1.416215,0.463634,2.306257,4.374451,1.709568,0.001683,-0.051130,0.000000,-0.143742,0.039001,-0.000000
1.290000,-1.820850,-1.382610,-1.463376,0.718283,1.139640,0.013883,0.499279,0.002633,-0.019200,-0.384475,-1.373000,0.479577,2.448087,4.266021,1.481621,0.000267,-0.050752,0.000000,-0.139492,0.036543,-0.000000
1.300000,-1.813642,-1.371214,-1.463238,0.723257,1.139598,0.013715,0.495557,-0.010884,-0.014330,-0.359302,-1.330895,0.493267,2.585119,4.153226,1.254882,-0.001106,-0.050399,0.000000,-0.135355,0.033954,0.000000
1.310000,-1.806385,-1.359818,-1.463102,0.728194,1.139423,0.013597,0.492093,-0.023985,-0.009335,-0.332773,-1.289936,0.504674,2.720805,4.034185,1.022442,-0.002440,-0.050073,0.000000,-0.131331,0.031235,-0.000000
1.320000,-1.799078,-1.348425,-1.462966,0.733099,1.139118,0.013529,0.488901,-0.036683,-0.004237,-0.304886,-1.250211,0.513715,2.855980,3.903210,0.783286,-0.003733,-0.049774,0.000000,-0.127429,0.028387,-0.000000
1.330000,-1.791723,-1.337036,-1.462831,0.737972,1.138689,0.013512,0.485995,-0.048989,0.000940,-0.275653,-1.211872,0.520340,2.988713,3.760770,0.541332,-0.004988,-0.049505,0.000000,-0.123663,0.025411,-0.000000
1.340000,-1.784319,-1.325651,-1.462696,0.742819,1.138139,0.013548,0.483388,-0.060920,0.006170,-0.245112,-1.174995,0.524542,3.117130,3.615178,0.299570,-0.006206,-0.049266,0.000000,-0.120040,0.022309,-0.000000
1.350000,-1.776867,-1.314273,-1.462560,0.747640,1.137471,0.013636,0.481093,-0.072489,0.011431,-0.213310,-1.139568,0.526332,3.241807,3.469499,0.057079,-0.007389,-0.049059,0.000000,-0.116557,0.019086,-0.000000
1.360000,-1.769366,-1.302902,-1.462423,0.752440,1.136689,0.013776,0.479122,-0.083712,0.016697,-0.180275,-1.105605,0.525684,3.363087,3.318438,-0.186233,-0.008537,-0.048884,0.000000,-0.113216,0.015744,0.000000
1.370000,-1.761818,-1.291539,-1.462285,0.757223,1.135796,0.013969,0.477487,-0.094602,0.021944,-0.146049,-1.073199,0.522607,3.477631,3.155763,-0.424381,-0.009653,-0.048744,0.000000,-0.110024,0.012287,0.000000
1.380000,-1.754222,-1.280186,-1.462144,0.761990,1.134797,0.014215,0.476201,-0.105176,0.027149,-0.110723,-1.042490,0.517196,3.584270,2.983245,-0.655299,-0.010738,-0.048639,0.000000,-0.106997,0.008723,0.000000
1.390000,-1.746578,-1.268843,-1.462001,0.766747,1.133693,0.014512,0.475273,-0.115451,0.032288,-0.074363,-1.013534,0.509501,3.686639,2.809850,-0.885104,-0.011793,-0.048570,0.000000,-0.104138,0.005060,-0.000000
1.400000,-1.738887,-1.257512,-1.461854,0.771496,1.132488,0.014861,0.474714,-0.125446,0.037339,-0.036990,-0.986293,0.499494,3.786954,2.638624,-1.117165,-0.012821,-0.048538,0.000000,-0.101444,0.001299,0.000000
1.410000,-1.731148,-1.246194,-1.461703,0.776241,1.131184,0.015259,0.474533,-0.135177,0.042278,0.001376,-0.960762,0.487158,3.881806,2.464039,-1.345413,-0.013822,-0.048544,0.000000,-0.098914,-0.002558,-0.000000
1.420000,-1.723362,-1.234889,-1.461549,0.780986,1.129784,0.015706,0.474741,-0.144661,0.047082,0.040646,-0.937012,0.472586,3.964072,2.279964,-1.558107,-0.014799,-0.048589,0.000000,-0.096554,-0.006501,0.000000
1.430000,-1.715528,-1.223598,-1.461389,0.785736,1.128291,0.016201,0.475346,-0.153917,0.051730,0.080657,-0.915163,0.455995,4.033833,2.088494,-1.755113,-0.015753,-0.048674,0.000000,-0.094377,-0.010516,0.000000
1.440000,-1.707647,-1.212323,-1.461225,0.790493,1.126706,0.016741,0.476354,-0.162965,0.056202,0.121323,-0.895242,0.437483,4.099685,1.898656,-1.950240,-0.016686,-0.048799,0.000000,-0.092386,-0.014592,-0.000000
1.450000,-1.699718,-1.201064,-1.461054,0.795263,1.125031,0.017325,0.477773,-0.171822,0.060479,0.162651,-0.877189,0.416991,4.164264,1.712908,-2.148641,-0.017601,-0.048966,0.000000,-0.090573,-0.018731,-0.000000
1.460000,-1.691742,-1.189822,-1.460878,0.800049,1.123269,0.017951,0.479607,-0.180508,0.064542,0.204608,-0.860984,0.394511,4.221055,1.525906,-2.339218,-0.018498,-0.049174,0.000000,-0.088938,-0.022928,0.000000
1.470000,-1.683717,-1.178598,-1.460695,0.804855,1.121421,0.018616,0.481865,-0.189042,0.068370,0.247072,-0.846671,0.370206,4.262728,1.333514,-2.506361,-0.019379,-0.049424,0.000000,-0.087484,-0.027171,0.000000
1.480000,-1.675645,-1.167394,-1.460506,0.809686,1.119489,0.019318,0.484549,-0.197442,0.071946,0.289863,-0.834314,0.344383,4.290482,1.138114,-2.651693,-0.020247,-0.049717,0.000000,-0.086219,-0.031441,-0.000000
1.490000,-1.667524,-1.156209,-1.460309,0.814546,1.117472,0.020055,0.487662,-0.205728,0.075257,0.332882,-0.823909,0.317172,4.313141,0.946191,-2.794422,-0.021104,-0.050053,0.000000,-0.085142,-0.035730,-0.000000
1.500000,-1.659354,-1.145044,-1.460105,0.819439,1.115374,0.020823,0.491206,-0.213920,0.078289,0.376125,-0.815390,0.288495,4.333965,0.758930,-2.940892,-0.021950,-0.050432,0.000000,-0.084246,-0.040034,-0.000000
1.510000,-1.651135,-1.133901,-1.459893,0.824370,1.113194,0.021620,0.495185,-0.222036,0.081027,0.419561,-0.808730,0.258355,4.346428,0.572939,-3.076744,-0.022789,-0.050854,0.000000,-0.083529,-0.044350,-0.000000
1.520000,-1.642866,-1.122780,-1.459672,0.829343,1.110933,0.022444,0.499598,-0.230095,0.083456,0.463054,-0.803931,0.226960,4.341264,0.387554,-3.184417,-0.023621,-0.051319,0.000000,-0.082990,-0.048664,0.000000
1.530000,-1.634548,-1.111683,-1.459444,0.834362,1.108592,0.023290,0.504446,-0.238115,0.085566,0.506386,-0.800979,0.194666,4.319669,0.204869,-3.266951,-0.024448,-0.051828,0.000000,-0.082630,-0.052954,0.000000
1.540000,-1.626179,-1.100609,-1.459207,0.839432,1.106171,0.024155,0.509725,-0.246114,0.087350,0.549447,-0.799834,0.161621,4.293544,0.026819,-3.346398,-0.025273,-0.052379,0.000000,-0.082444,-0.057208,0.000000
1.550000,-1.617759,-1.089559,-1.458961,0.844556,1.103670,0.025037,0.515435,-0.254111,0.088799,0.592257,-0.800443,0.127738,4.267368,-0.147126,-3.429328,-0.026097,-0.052972,0.000000,-0.082426,-0.061427,-0.000000
1.560000,-1.609288,-1.078535,-1.458706,0.849740,1.101089,0.025931,0.521571,-0.262123,0.089905,0.634795,-0.802777,0.093034,4.232679,-0.317111,-3.499985,-0.026922,-0.053608,0.000000,-0.082574,-0.065608,-0.000000
1.570000,-1.600765,-1.067537,-1.458442,0.854988,1.098427,0.026835,0.528130,-0.270167,0.090659,0.676911,-0.806785,0.057739,4.177872,-0.479512,-3.541230,-0.027749,-0.054285,0.000000,-0.082882,-0.069736,0.000000
1.580000,-1.592188,-1.056567,-1.458169,0.860303,1.095685,0.027744,0.535109,-0.278259,0.091059,0.718352,-0.812367,0.022210,4.105143,-0.633062,-3.557055,-0.028579,-0.055003,0.000000,-0.083341,-0.073785,-0.000000
1.590000,-1.583559,-1.045624,-1.457887,0.865690,1.092862,0.028656,0.542498,-0.286414,0.091104,0.759014,-0.819446,-0.013403,4.029755,-0.781477,-3.569408,-0.029416,-0.055761,0.000000,-0.083943,-0.077744,-0.000000
1.600000,-1.574875,-1.034709,-1.457596,0.871153,1.089957,0.029566,0.550289,-0.294648,0.090791,0.798947,-0.827996,-0.049178,3.954977,-0.926838,-3.584369,-0.030258,-0.056558,0.000000,-0.084685,-0.081617,-0.000000
1.610000,-1.566136,-1.023825,-1.457296,0.876696,1.086969,0.030472,0.558476,-0.302974,0.090120,0.838113,-0.837983,-0.085090,3.870513,-1.065473,-3.586802,-0.031109,-0.057394,0.000000,-0.085563,-0.085400,0.000000
1.620000,-1.557341,-1.012970,-1.456987,0.882323,1.083898,0.031369,0.567051,-0.311407,0.089089,0.876358,-0.849306,-0.120914,3.769369,-1.190175,-3.561676,-0.031970,-0.058267,0.000000,-0.086568,-0.089077,-0.000000
1.630000,-1.548489,-1.002147,-1.456668,0.888037,1.080741,0.032253,0.576004,-0.319960,0.087702,0.913500,-0.861787,-0.156323,3.654841,-1.300735,-3.513314,-0.032841,-0.059176,0.000000,-0.087682,-0.092631,0.000000
1.640000,-1.539580,-0.991355,-1.456341,0.893843,1.077498,0.033123,0.585321,-0.328643,0.085963,0.949454,-0.875321,-0.191181,3.536014,-1.405679,-3.461402,-0.033723,-0.060121,0.000000,-0.088894,-0.096054,-0.000000
1.650000,-1.530612,-0.980597,-1.456006,0.899743,1.074168,0.033973,0.594993,-0.337467,0.083878,0.984221,-0.889900,-0.225551,3.414972,-1.509029,-3.410944,-0.034618,-0.061099,0.000000,-0.090203,-0.099343,0.000000
1.660000,-1.521585,-0.969872,-1.455662,0.905742,1.070749,0.034800,0.605006,-0.346441,0.081452,1.017754,-0.905501,-0.259399,3.285879,-1.603927,-3.348822,-0.035527,-0.062109,0.000000,-0.091607,-0.102496,0.000000
1.670000,-1.512497,-0.959182,-1.455310,0.911843,1.067239,0.035602,0.615348,-0.355577,0.078690,1.049938,-0.921979,-0.292528,3.144076,-1.678475,-3.263651,-0.036450,-0.063150,0.000000,-0.093091,-0.105500,0.000000
1.680000,-1.503348,-0.948527,-1.454950,0.918049,1.063638,0.036374,0.626005,-0.364881,0.075601,1.080635,-0.939071,-0.324672,2.991576,-1.733548,-3.159677,-0.037389,-0.064220,0.000000,-0.094630,-0.108343,0.000000
1.690000,-1.494136,-0.937909,-1.454582,0.924364,1.059942,0.037114,0.636960,-0.374358,0.072197,1.109770,-0.956650,-0.355721,2.834791,-1.784132,-3.052142,-0.038343,-0.065318,0.000000,-0.096210,-0.111019,-0.000000
1.700000,-1.484861,-0.927328,-1.454208,0.930789,1.056150,0.037818,0.648200,-0.384014,0.068487,1.137331,-0.974753,-0.385715,2.675619,-1.835106,-2.944589,-0.039313,-0.066442,0.000000,-0.097835,-0.113526,0.000000
1.710000,-1.475521,-0.916786,-1.453826,0.937328,1.052262,0.038484,0.659707,-0.393853,0.064482,1.163282,-0.993352,-0.414613,2.510239,-1.875544,-2.827379,-0.040300,-0.067590,0.000000,-0.099503,-0.115860,0.000000
1.720000,-1.466114,-0.906283,-1.453438,0.943983,1.048273,0.039108,0.671466,-0.403881,0.060195,1.187536,-1.012264,-0.442263,2.334926,-1.892671,-2.693402,-0.041303,-0.068761,0.000000,-0.101195,-0.118016,-0.000000
1.730000,-1.456641,-0.895820,-1.453044,0.950757,1.044184,0.039687,0.683458,-0.414098,0.055637,1.209981,-1.031205,-0.468481,2.151278,-1.889007,-2.546286,-0.042324,-0.069953,0.000000,-0.102884,-0.119983,-0.000000
1.740000,-1.447099,-0.885399,-1.452644,0.957652,1.039991,0.040220,0.695665,-0.424505,0.050825,1.230562,-1.050044,-0.493189,1.964683,-1.880790,-2.395976,-0.043361,-0.071163,0.000000,-0.104557,-0.121757,-0.000000
1.750000,-1.437488,-0.875021,-1.452240,0.964670,1.035694,0.040704,0.708069,-0.435099,0.045773,1.249274,-1.068821,-0.516401,1.775862,-1.872909,-2.244270,-0.044415,-0.072390,0.000000,-0.106218,-0.123338,0.000000
1.760000,-1.427806,-0.864685,-1.451830,0.971813,1.031289,0.041136,0.720651,-0.445881,0.040497,1.266079,-1.087502,-0.538074,1.581851,-1.853980,-2.085445,-0.045485,-0.073632,0.000000,-0.107865,-0.124724,0.000000
1.770000,-1.418052,-0.854395,-1.451417,0.979083,1.026776,0.041514,0.733391,-0.456849,0.035012,1.280911,-1.105901,-0.558110,1.382382,-1.811559,-1.916977,-0.046572,-0.074887,0.000000,-0.109479,-0.125910,-0.000000
1.780000,-1.408224,-0.844150,-1.451000,0.986481,1.022152,0.041836,0.746269,-0.467999,0.029335,1.293726,-1.123734,-0.576414,1.179027,-1.748555,-1.741543,-0.047675,-0.076153,0.000000,-0.111033,-0.126893,0.000000
1.790000,-1.398322,-0.833952,-1.450580,0.994009,1.017416,0.042101,0.759265,-0.479324,0.023484,1.304492,-1.140872,-0.592941,0.972721,-1.681211,-1.563449,-0.048793,-0.077428,0.000000,-0.112516,-0.127673,0.000000
1.800000,-1.388344,-0.823802,-1.450158,1.001666,1.012566,0.042306,0.772359,-0.490817,0.017476,1.313181,-1.157358,-0.607683,0.763126,-1.614822,-1.383039,-0.049925,-0.078709,0.000000,-0.113931,-0.128247,-0.000000
1.810000,-1.378289,-0.813700,-1.449734,1.009456,1.007600,0.042450,0.785529,-0.502471,0.011330,1.319754,-1.173168,-0.620601,0.550317,-1.538313,-1.198505,-0.051071,-0.079996,0.000000,-0.115278,-0.128614,-0.000000
1.820000,-1.368155,-0.803650,-1.449309,1.017377,1.002517,0.042532,0.798754,-0.514280,0.005064,1.324187,-1.188124,-0.631653,0.336394,-1.438748,-1.011199,-0.052230,-0.081285,0.000000,-0.116541,-0.128773,-0.000000
1.830000,-1.357941,-0.793650,-1.448883,1.025431,0.997314,0.042551,0.812012,-0.526234,-0.001303,1.326482,-1.201943,-0.640825,0.122042,-1.319328,-0.822778,-0.053402,-0.082575,0.000000,-0.117691,-0.128727,-0.000000
1.840000,-1.347646,-0.783703,-1.448458,1.033617,0.991992,0.042506,0.825283,-0.538319,-0.007752,1.326628,-1.214511,-0.648108,-0.094837,-1.197422,-0.632563,-0.054584,-0.083863,0.000000,-0.118719,-0.128475,0.000000
1.850000,-1.337269,-0.773810,-1.448033,1.041936,0.986548,0.042396,0.838545,-0.550524,-0.014265,1.324586,-1.225892,-0.653477,-0.315227,-1.077550,-0.439667,-0.055776,-0.085148,0.000000,-0.119632,-0.128017,-0.000000
1.860000,-1.326808,-0.763972,-1.447610,1.050388,0.980981,0.042221,0.851775,-0.562837,-0.020822,1.320323,-1.236062,-0.656902,-0.537015,-0.948305,-0.245700,-0.056977,-0.086427,0.000000,-0.120430,-0.127350,-0.000000
1.870000,-1.316261,-0.754191,-1.447189,1.058972,0.975291,0.041980,0.864952,-0.575245,-0.027403,1.313845,-1.244858,-0.658391,-0.756600,-0.800017,-0.054961,-0.058185,-0.087699,0.000000,-0.121099,-0.126478,-0.000000
1.880000,-1.305628,-0.744466,-1.446770,1.067687,0.969476,0.041673,0.878052,-0.587734,-0.033990,1.305191,-1.252062,-0.658001,-0.973984,-0.636509,0.131937,-0.059399,-0.088961,0.000000,-0.121616,-0.125404,-0.000000
1.890000,-1.294907,-0.734801,-1.446355,1.076533,0.963537,0.041300,0.891055,-0.600286,-0.040563,1.294366,-1.257588,-0.655752,-1.193220,-0.471036,0.319497,-0.060617,-0.090212,0.000000,-0.121975,-0.124132,-0.000000
1.900000,-1.284097,-0.725196,-1.445944,1.085508,0.957471,0.040862,0.903939,-0.612886,-0.047105,1.281327,-1.261483,-0.651611,-1.415613,-0.306802,0.509416,-0.061838,-0.091449,0.000000,-0.122183,-0.122660,0.000000
1.910000,-1.273197,-0.715652,-1.445538,1.094612,0.951279,0.040358,0.916682,-0.625516,-0.053595,1.266053,-1.263724,-0.645563,-1.637816,-0.135555,0.697577,-0.063061,-0.092670,0.000000,-0.122239,-0.120986,-0.000000
1.920000,-1.262205,-0.706170,-1.445137,1.103842,0.944960,0.039790,0.929260,-0.638160,-0.060016,1.248571,-1.264194,-0.637659,-1.855611,0.048881,0.877854,-0.064283,-0.093873,0.000000,-0.122132,-0.119114,0.000000
1.930000,-1.251120,-0.696752,-1.444742,1.113197,0.938516,0.039158,0.941653,-0.650800,-0.066349,1.228941,-1.262746,-0.628006,-2.069481,0.243227,1.050511,-0.065503,-0.095057,0.000000,-0.121849,-0.117052,-0.000000
1.940000,-1.239941,-0.687400,-1.444354,1.122675,0.931944,0.038463,0.953839,-0.663415,-0.072576,1.207181,-1.259329,-0.616649,-2.284308,0.438527,1.222569,-0.066720,-0.096219,0.000000,-0.121386,-0.114802,0.000000
1.950000,-1.228667,-0.678114,-1.443973,1.132274,0.925247,0.037706,0.965797,-0.675987,-0.078682,1.183255,-1.253976,-0.603555,-2.501423,0.633284,1.396035,-0.067931,-0.097358,0.000000,-0.120749,-0.112362,0.000000
1.960000,-1.217296,-0.668895,-1.443600,1.141991,0.918425,0.036889,0.977504,-0.688495,-0.084647,1.157153,-1.246664,-0.588728,-2.717078,0.832519,1.565166,-0.069135,-0.098472,0.000000,-0.119936,-0.109733,0.000000
1.970000,-1.205827,-0.659745,-1.443235,1.151824,0.911477,0.036013,0.988940,-0.700920,-0.090456,1.128913,-1.237325,-0.572252,-2.927282,1.037608,1.723361,-0.070330,-0.099558,0.000000,-0.118941,-0.106918,0.000000
1.980000,-1.194259,-0.650665,-1.442880,1.161770,0.904406,0.035080,1.000083,-0.713241,-0.096092,1.098607,-1.225911,-0.554261,-3.132810,1.245914,1.871556,-0.071514,-0.100615,0.000000,-0.117761,-0.103925,0.000000
1.990000,-1.182592,-0.641657,-1.442534,1.171826,0.897213,0.034091,1.010912,-0.725438,-0.101541,1.066257,-1.212407,-0.534821,-3.338282,1.454666,2.017541,-0.072685,-0.101642,0.000000,-0.116395,-0.100756,-0.000000
2.000000,-1.170823,-0.632721,-1.442198,1.181988,0.889898,0.033049,1.021408,-0.737489,-0.106789,1.031841,-1.196818,-0.513910,-3.544602,1.664292,2.163487,-0.073842,-0.102636,0.000000,-0.114845,-0.097410,0.000000
2.010000,-1.158952,-0.623859,-1.441873,1.192254,0.882463,0.031956,1.031549,-0.749374,-0.111820,0.995365,-1.179121,-0.491551,-3.748336,1.875463,2.303345,-0.074982,-0.103596,0.000000,-0.113109,-0.093888,0.000000
2.020000,-1.146978,-0.615072,-1.441559,1.202619,0.874910,0.030813,1.041315,-0.761072,-0.116620,0.956875,-1.159309,-0.467843,-3.946686,2.084796,2.430487,-0.076104,-0.104519,0.000000,-0.111187,-0.090194,0.000000
2.030000,-1.134899,-0.606361,-1.441256,1.213080,0.867241,0.029623,1.050686,-0.772561,-0.121177,0.916431,-1.137425,-0.442941,-4.140446,2.290936,2.546113,-0.077206,-0.105405,0.000000,-0.109083,-0.086332,-0.000000
2.040000,-1.122716,-0.597727,-1.440966,1.223633,0.859459,0.028389,1.059644,-0.783820,-0.125479,0.874066,-1.113490,-0.416921,-4.332792,2.497252,2.658163,-0.078286,-0.106251,0.000000,-0.106800,-0.082307,0.000000
2.050000,-1.110427,-0.589172,-1.440689,1.234273,0.851565,0.027114,1.068168,-0.794830,-0.129515,0.829776,-1.087480,-0.389778,-4.524325,2.704938,2.768618,-0.079342,-0.107056,0.000000,-0.104336,-0.078117,-0.000000
2.060000,-1.098031,-0.580696,-1.440424,1.244996,0.843562,0.025799,1.076239,-0.805570,-0.133274,0.783579,-1.059391,-0.361549,-4.712688,2.910552,2.871526,-0.080373,-0.107818,0.000000,-0.101691,-0.073763,-0.000000
2.070000,-1.085527,-0.572300,-1.440173,1.255798,0.835454,0.024448,1.083839,-0.816018,-0.136746,0.735522,-1.029269,-0.332347,-4.895994,3.109327,2.961056,-0.081376,-0.108536,0.000000,-0.098869,-0.069250,-0.000000
2.080000,-1.072915,-0.563987,-1.439935,1.266673,0.827242,0.023064,1.090950,-0.826155,-0.139921,0.685659,-0.997205,-0.302328,-5.074994,3.301411,3.038537,-0.082350,-0.109208,0.000000,-0.095878,-0.064581,0.000000
2.090000,-1.060193,-0.555756,-1.439711,1.277617,0.818930,0.021650,1.097553,-0.835962,-0.142792,0.634022,-0.963241,-0.271577,-5.251680,3.491823,3.111086,-0.083293,-0.109832,0.000000,-0.092721,-0.059757,0.000000
2.100000,-1.047362,-0.547608,-1.439502,1.288624,0.810523,0.020208,1.103630,-0.845420,-0.145353,0.580626,-0.927368,-0.240106,-5.424861,3.681388,3.180575,-0.084205,-0.110407,0.000000,-0.089399,-0.054779,-0.000000
2.110000,-1.034421,-0.539545,-1.439307,1.299689,0.802022,0.018743,1.109165,-0.854510,-0.147595,0.525525,-0.889613,-0.207965,-5.593153,3.865737,3.241764,-0.085082,-0.110932,0.000000,-0.085911,-0.049651,0.000000
2.120000,-1.021369,-0.531568,-1.439127,1.310807,0.793432,0.017256,1.114141,-0.863212,-0.149512,0.468763,-0.850054,-0.175271,-5.759674,4.041252,3.289467,-0.085923,-0.111404,0.000000,-0.082266,-0.044376,0.000000
2.130000,-1.008205,-0.523676,-1.438962,1.321972,0.784758,0.015752,1.118540,-0.871511,-0.151100,0.410331,-0.808788,-0.142176,-5.925041,4.208689,3.324968,-0.086727,-0.111822,0.000000,-0.078472,-0.038951,0.000000
2.140000,-0.994929,-0.515872,-1.438812,1.333178,0.776002,0.014234,1.122347,-0.879388,-0.152355,0.350262,-0.765880,-0.108771,-6.084521,4.371453,3.354643,-0.087492,-0.112186,0.000000,-0.074532,-0.033375,0.000000
2.150000,-0.981541,-0.508156,-1.438677,1.344419,0.767170,0.012705,1.125546,-0.886828,-0.153275,0.288641,-0.721359,-0.075083,-6.236069,4.529019,3.380196,-0.088218,-0.112493,0.000000,-0.070449,-0.027657,0.000000
2.160000,-0.968041,-0.500529,-1.438558,1.355689,0.758266,0.011169,1.128120,-0.893815,-0.153857,0.225540,-0.675299,-0.041167,-6.382782,4.678326,3.397094,-0.088901,-0.112741,0.000000,-0.066229,-0.021801,0.000000
2.170000,-0.954427,-0.492991,-1.438454,1.366981,0.749294,0.009628,1.130056,-0.900334,-0.154099,0.160985,-0.627793,-0.007141,-6.528851,4.819378,3.400718,-0.089542,-0.112930,0.000000,-0.061879,-0.015808,0.000000
2.180000,-0.940701,-0.485543,-1.438365,1.378290,0.740259,0.008087,1.131340,-0.906371,-0.154000,0.094963,-0.578912,0.026847,-6.673741,4.953719,3.392188,-0.090139,-0.113059,0.000000,-0.057404,-0.009672,-0.000000
2.190000,-0.926862,-0.478186,-1.438292,1.389608,0.731166,0.006548,1.131956,-0.911913,-0.153562,0.027510,-0.528718,0.060703,-6.811393,5.079669,3.377380,-0.090690,-0.113124,0.000000,-0.052808,-0.003395,-0.000000
2.200000,-0.912909,-0.470920,-1.438234,1.400929,0.722021,0.005016,1.131890,-0.916946,-0.152786,-0.041264,-0.477318,0.094395,-6.936560,5.188405,3.358160,-0.091195,-0.113127,0.000000,-0.048100,0.003014,-0.000000
2.210000,-0.898843,-0.463745,-1.438192,1.412246,0.712827,0.003492,1.131130,-0.921459,-0.151674,-0.111221,-0.424950,0.127866,-7.053304,5.280913,3.330439,-0.091652,-0.113064,0.000000,-0.043300,0.009544,0.000000
2.220000,-0.884664,-0.456663,-1.438165,1.423552,0.703592,0.001982,1.129666,-0.925445,-0.150229,-0.182330,-0.371700,0.161003,-7.174297,5.378391,3.289433,-0.092061,-0.112935,0.000000,-0.038416,0.016194,0.000000
2.230000,-0.870372,-0.449674,-1.438152,1.434839,0.694318,0.000488,1.127484,-0.928893,-0.148454,-0.254707,-0.317382,0.193655,-7.283977,5.451045,3.236394,-0.092421,-0.112739,0.000000,-0.033426,0.022981,-0.000000
2.240000,-0.855967,-0.442777,-1.438155,1.446101,0.685014,-0.000987,1.124571,-0.931792,-0.146355,-0.328010,-0.262679,0.225731,-7.368366,5.476219,3.177587,-0.092730,-0.112473,0.000000,-0.028394,0.029872,-0.000000
2.250000,-0.841450,-0.435973,-1.438172,1.457331,0.675683,-0.002439,1.120924,-0.934146,-0.143939,-0.402074,-0.207858,0.257206,-7.530791,5.667899,3.113561,-0.092989,-0.112139,0.000000,-0.023346,0.036854,0.000000
2.260000,-0.826821,-0.429263,-1.438204,1.468520,0.666331,-0.003866,1.116530,-0.935949,-0.141211,-0.478626,-0.149321,0.288002,-7.772091,6.023757,3.040196,-0.093197,-0.111733,0.000000,-0.017925,0.044100,0.000000
2.270000,-0.812080,-0.422647,-1.438249,1.479661,0.656964,-0.005263,1.111351,-0.937133,-0.138179,-0.557516,-0.087383,0.318010,-7.794057,5.926540,2.956856,-0.093347,-0.111253,0.000000,-0.012158,0.051598,0.000000
2.280000,-0.797227,-0.416124,-1.438309,1.490747,0.647588,-0.006629,1.105380,-0.937697,-0.134851,-0.634507,-0.030791,0.347140,-7.640156,5.464778,2.864106,-0.093440,-0.110697,0.000000,-0.006904,0.058933,0.000000
2.290000,-0.782265,-0.409695,-1.438382,1.501769,0.638210,-0.007961,1.098661,-0.937749,-0.131236,-0.710319,0.021913,0.375292,-7.710195,5.466561,2.762857,-0.093485,-0.110069,0.000000,-0.002020,0.066178,0.000000
2.300000,-0.767192,-0.403360,-1.438468,1.512720,0.628833,-0.009254,1.091173,-0.937259,-0.127345,-0.788711,0.078541,0.402397,-7.651766,5.224044,2.660021,-0.093480,-0.109367,0.000000,0.003269,0.073706,0.000000
2.310000,-0.752010,-0.397118,-1.438567,1.523592,0.619465,-0.010507,1.082887,-0.936178,-0.123188,-0.863354,0.126394,0.428493,-7.228654,4.246454,2.554643,-0.093420,-0.108588,0.000000,0.007710,0.080894,0.000000
2.320000,-0.736720,-0.390971,-1.438678,1.534378,0.610110,-0.011718,1.073906,-0.934731,-0.118775,-0.933284,0.163470,0.453490,-7.551130,4.769404,2.426765,-0.093326,-0.107742,0.000000,0.011105,0.087645,-0.000000
2.330000,-0.721323,-0.384916,-1.438801,1.545071,0.600770,-0.012883,1.064221,-0.932909,-0.114119,-1.014377,0.221782,0.477028,-8.657452,6.869232,2.277055,-0.093198,-0.106828,0.000000,0.016621,0.095539,-0.000000
2.340000,-0.705819,-0.378955,-1.438936,1.555662,0.591451,-0.014000,1.053619,-0.930295,-0.109235,-1.106433,0.300854,0.499031,-9.012951,7.456765,2.133165,-0.092993,-0.105823,0.000000,0.024218,0.104562,-0.000000
2.350000,-0.690209,-0.373087,-1.439081,1.566143,0.582164,-0.015068,1.042092,-0.926891,-0.104138,-1.194636,0.370917,0.519691,-9.070142,7.489905,1.991728,-0.092713,-0.104727,0.000000,0.030955,0.113243,-0.000000
2.360000,-0.674496,-0.367312,-1.439237,1.576504,0.572914,-0.016083,1.029726,-0.922877,-0.098841,-1.287836,0.450652,0.538865,-9.811653,8.943749,1.835011,-0.092374,-0.103548,0.000000,0.038682,0.122464,-0.000000
2.370000,-0.658679,-0.361629,-1.439403,1.586737,0.563706,-0.017044,1.016336,-0.917878,-0.093361,-1.390869,0.549792,0.556392,-9.528950,8.243855,1.679818,-0.091939,-0.102267,0.000000,0.048373,0.132712,0.000000
2.380000,-0.642761,-0.356038,-1.439578,1.596831,0.554556,-0.017950,1.001909,-0.911881,-0.087713,-1.478415,0.615530,0.572462,-7.844807,4.648392,1.532203,-0.091407,-0.100883,0.000000,0.054793,0.141466,-0.000000
2.390000,-0.626743,-0.350538,-1.439762,1.606776,0.545469,-0.018799,0.986767,-0.905568,-0.081912,-1.547765,0.642760,0.587036,-7.188168,3.230004,1.368413,-0.090843,-0.099426,0.000000,0.057420,0.148450,0.000000
2.400000,-0.610626,-0.345128,-1.439954,1.616566,0.536445,-0.019588,0.970953,-0.899026,-0.075973,-1.622178,0.680130,0.599830,-7.576728,3.894267,1.194229,-0.090258,-0.097901,0.000000,0.061084,0.155981,-0.000000
2.410000,-0.594411,-0.339809,-1.440154,1.626195,0.527488,-0.020318,0.954324,-0.891965,-0.069915,-1.699300,0.720645,0.610920,-7.381378,3.252035,1.025638,-0.089622,-0.096294,0.000000,0.065093,0.163828,-0.000000
2.420000,-0.578102,-0.334579,-1.440361,1.635653,0.518605,-0.020987,0.936967,-0.884613,-0.063754,-1.769806,0.745170,0.620343,-7.261913,3.050324,0.838868,-0.088956,-0.094611,0.000000,0.067538,0.171056,-0.000000
2.430000,-0.561698,-0.329437,-1.440574,1.644934,0.509796,-0.021593,0.918928,-0.877062,-0.057508,-1.844538,0.781652,0.627698,-7.915827,4.698241,0.627815,-0.088271,-0.092859,0.000000,0.071207,0.178751,-0.000000
2.440000,-0.545203,-0.324383,-1.440792,1.654031,0.501064,-0.022137,0.900076,-0.868980,-0.051200,-1.928122,0.839135,0.632899,-8.280259,5.482089,0.427452,-0.087532,-0.091022,0.000000,0.077010,0.187381,0.000000
2.450000,-0.528618,-0.319415,-1.441016,1.662936,0.492416,-0.022617,0.880365,-0.860279,-0.044850,-2.010143,0.891293,0.636247,-7.526543,4.035094,0.241997,-0.086731,-0.089097,0.000000,0.082320,0.195899,0.000000
2.460000,-0.511944,-0.314534,-1.441245,1.671639,0.483859,-0.023034,0.859874,-0.851154,-0.038475,-2.078653,0.919837,0.637739,-6.456793,2.331178,0.048219,-0.085886,-0.087089,0.000000,0.085305,0.203104,-0.000000
2.470000,-0.495185,-0.309738,-1.441477,1.680133,0.475393,-0.023387,0.838792,-0.841882,-0.032095,-2.139279,0.937917,0.637211,-7.002494,3.242632,-0.154434,-0.085024,-0.085020,0.000000,0.087273,0.209555,-0.000000
2.480000,-0.478342,-0.305026,-1.441712,1.688414,0.467021,-0.023676,0.817088,-0.832396,-0.025731,-2.218703,0.984690,0.634650,-8.776571,5.903275,-0.357685,-0.084140,-0.082883,0.000000,0.092140,0.217932,-0.000000
2.490000,-0.461417,-0.300398,-1.441951,1.696475,0.458745,-0.023901,0.794418,-0.822189,-0.019402,-2.314810,1.055982,0.630057,-9.219859,6.578933,-0.561610,-0.083182,-0.080645,0.000000,0.099504,0.228032,0.000000
2.500000,-0.444412,-0.295852,-1.442191,1.704303,0.450577,-0.024064,0.770792,-0.811276,-0.013130,-2.403100,1.116268,0.623418,-9.352628,6.928999,-0.762802,-0.082150,-0.078307,0.000000,0.105807,0.237387,-0.000000
2.510000,-0.427331,-0.291386,-1.442432,1.711891,0.442520,-0.024164,0.746356,-0.799863,-0.006934,-2.501863,1.194562,0.614801,-10.773920,9.261176,-0.960293,-0.081065,-0.075881,0.000000,0.113958,0.247837,0.000000
2.520000,-0.410174,-0.287001,-1.442674,1.719230,0.434580,-0.024203,0.720755,-0.787385,-0.000834,-2.618579,1.301492,0.604212,-10.022468,8.135778,-1.165299,-0.079871,-0.073333,0.000000,0.125037,0.260142,0.000000
2.530000,-0.392946,-0.282695,-1.442916,1.726306,0.426772,-0.024181,0.693984,-0.773833,0.005150,-2.702312,1.357278,0.591495,-6.502077,2.681780,-1.377878,-0.078565,-0.070662,0.000000,0.131018,0.269154,0.000000
2.540000,-0.375648,-0.278466,-1.443157,1.733110,0.419103,-0.024100,0.666708,-0.760239,0.010996,-2.748620,1.355128,0.576655,-5.087537,0.542365,-1.581044,-0.077250,-0.067934,0.000000,0.131183,0.274401,-0.000000
2.550000,-0.358284,-0.274313,-1.443398,1.739640,0.411567,-0.023961,0.639012,-0.746731,0.016683,-2.804063,1.368125,0.559874,-5.567006,1.419489,-1.772073,-0.075941,-0.065157,0.000000,0.132887,0.280585,-0.000000
2.560000,-0.340856,-0.270234,-1.443637,1.745890,0.404169,-0.023766,0.610627,-0.732877,0.022194,-2.859960,1.383517,0.541213,-4.692656,0.220045,-1.961372,-0.074593,-0.062306,0.000000,0.134851,0.286827,-0.000000
2.570000,-0.323366,-0.266229,-1.443873,1.751852,0.396910,-0.023517,0.581813,-0.719060,0.027508,-2.897916,1.372526,0.520647,-4.438170,-0.088903,-2.150372,-0.073244,-0.059405,0.000000,0.134155,0.291254,-0.000000
2.580000,-0.305818,-0.262296,-1.444107,1.757526,0.389787,-0.023216,0.552669,-0.705426,0.032607,-2.948724,1.381739,0.498206,-6.055586,2.433919,-2.333627,-0.071910,-0.056465,0.000000,0.135509,0.296985,-0.000000
2.590000,-0.288216,-0.258434,-1.444337,1.762906,0.382801,-0.022865,0.522838,-0.691426,0.037472,-3.019028,1.421204,0.473974,-6.552467,3.278803,-2.508659,-0.070534,-0.053450,0.000000,0.139941,0.304701,0.000000
2.600000,-0.270560,-0.254640,-1.444564,1.767983,0.375959,-0.022466,0.492288,-0.677002,0.042086,-3.079773,1.447315,0.448032,-5.352308,1.692942,-2.681677,-0.069111,-0.050356,0.000000,0.143033,0.311445,-0.000000
2.610000,-0.252856,-0.250914,-1.444787,1.772752,0.369261,-0.022023,0.461243,-0.662479,0.046432,-3.126074,1.455063,0.420341,-4.545401,0.822648,-2.852450,-0.067673,-0.047206,0.000000,0.144267,0.316709,0.000000
2.620000,-0.235105,-0.247255,-1.445005,1.777208,0.362709,-0.021538,0.429767,-0.647901,0.050493,-3.170681,1.463768,0.390984,-4.679988,1.143256,-3.001321,-0.066225,-0.044007,0.000000,0.145599,0.321785,0.000000
2.630000,-0.217312,-0.243660,-1.445218,1.781347,0.356303,-0.021013,0.397829,-0.633204,0.054252,-3.219674,1.477928,0.360315,-4.982589,1.557164,-3.127155,-0.064761,-0.040756,0.000000,0.147484,0.327289,-0.000000
2.640000,-0.199478,-0.240129,-1.445425,1.785164,0.350045,-0.020453,0.365373,-0.618342,0.057699,-3.270333,1.494912,0.328440,-4.892491,1.691511,-3.255395,-0.063276,-0.037448,0.000000,0.149654,0.332942,0.000000
2.650000,-0.181608,-0.236659,-1.445627,1.788654,0.343937,-0.019859,0.332423,-0.603306,0.060821,-3.317524,1.511759,0.295207,-4.830770,1.677371,-3.385089,-0.061768,-0.034084,0.000000,0.151807,0.338215,-0.000000
2.660000,-0.163705,-0.233250,-1.445822,1.791813,0.337979,-0.019236,0.299023,-0.588107,0.063603,-3.366948,1.528459,0.260739,-5.104857,1.709863,-3.498294,-0.060240,-0.030671,0.000000,0.153939,0.343686,-0.000000
2.670000,-0.145772,-0.229900,-1.446011,1.794635,0.332174,-0.018587,0.265084,-0.572737,0.066036,-3.419621,1.545956,0.225241,-4.632940,1.729271,-3.601503,-0.058689,-0.027198,0.000000,0.156142,0.349457,0.000000
2.680000,-0.127813,-0.226607,-1.446194,1.797114,0.326524,-0.017915,0.230630,-0.557188,0.068108,-3.459607,1.563044,0.188709,-3.256394,1.557905,-3.699966,-0.057117,-0.023670,0.000000,0.158296,0.353892,-0.000000
2.690000,-0.109830,-0.223369,-1.446370,1.799247,0.321031,-0.017225,0.195892,-0.541476,0.069810,-3.484749,1.577114,0.151241,-2.480912,1.295626,-3.782025,-0.055524,-0.020109,0.000000,0.160128,0.356763,-0.000000
2.700000,-0.091828,-0.220186,-1.446538,1.801032,0.315695,-0.016519,0.160935,-0.525646,0.071133,-3.509225,1.588957,0.113068,-2.491343,1.655815,-3.849700,-0.053914,-0.016524,0.000000,0.161715,0.359519,-0.000000
2.710000,-0.073809,-0.217055,-1.446700,1.802466,0.310518,-0.015802,0.125707,-0.509697,0.072071,-3.534576,1.610230,0.074247,-2.260417,2.496596,-3.909877,-0.052289,-0.012908,0.000000,0.164249,0.362315,-0.000000
2.720000,-0.055778,-0.213976,-1.446854,1.803546,0.305501,-0.015078,0.090244,-0.493441,0.072618,-3.554434,1.638889,0.034871,-1.637682,1.778575,-3.949602,-0.050629,-0.009268,0.000000,0.167519,0.364497,-0.000000
2.730000,-0.037738,-0.210945,-1.447002,1.804271,0.300649,-0.014350,0.054618,-0.476919,0.072769,-3.567329,1.645802,-0.004745,-1.001632,-0.463345,-3.964175,-0.048939,-0.005609,0.000000,0.168538,0.365912,-0.000000
2.740000,-0.019693,-0.207963,-1.447141,1.804639,0.295962,-0.013622,0.018897,-0.460525,0.072523,-3.574466,1.629622,-0.044413,-0.471366,-1.445457,-3.971235,-0.047259,-0.001941,0.000000,0.167163,0.366681,-0.000000
2.750000,-0.001646,-0.205026,-1.447274,1.804649,0.291438,-0.012899,-0.016871,-0.444326,0.071880,-3.576756,1.616893,-0.084169,0.115788,-1.349823,-3.980773,-0.045596,0.001732,0.000000,0.166115,0.366897,-0.000000
2.760000,0.016400,-0.202134,-1.447399,1.804301,0.287076,-0.012185,-0.052638,-0.428187,0.070840,-3.572150,1.602625,-0.124028,0.806590,-2.006336,-3.979386,-0.043937,0.005405,0.000000,0.164881,0.366349,0.000000
2.770000,0.034440,-0.199285,-1.447518,1.803596,0.282875,-0.011483,-0.088314,-0.412274,0.069400,-3.560625,1.576766,-0.163757,1.224542,-2.234072,-3.941591,-0.042298,0.009066,0.000000,0.162430,0.365035,0.000000
2.780000,0.052472,-0.196476,-1.447629,1.802535,0.278830,-0.010797,-0.123850,-0.396652,0.067564,-3.547660,1.557944,-0.202860,1.305879,-1.253321,-3.869369,-0.040688,0.012712,0.000000,0.160670,0.363520,-0.000000
2.790000,0.070491,-0.193708,-1.447734,1.801119,0.274942,-0.010131,-0.159267,-0.381115,0.065343,-3.534507,1.551700,-0.241144,1.569372,-0.848035,-3.796442,-0.039085,0.016343,0.000000,0.160169,0.361934,-0.000000
2.800000,0.088494,-0.190978,-1.447832,1.799350,0.271208,-0.009490,-0.194540,-0.365618,0.062742,-3.516272,1.540983,-0.278789,2.265939,-1.822896,-3.735811,-0.037485,0.019956,0.000000,0.159181,0.359778,0.000000
2.810000,0.106478,-0.188284,-1.447923,1.797228,0.267629,-0.008877,-0.229593,-0.350295,0.059767,-3.489188,1.515242,-0.315861,3.022961,-2.887972,-3.663842,-0.035901,0.023543,0.000000,0.156626,0.356666,0.000000
2.820000,0.124439,-0.185625,-1.448009,1.794758,0.264202,-0.008295,-0.264324,-0.335313,0.056424,-3.455813,1.483224,-0.352066,3.233989,-2.360140,-3.548547,-0.034352,0.027094,0.000000,0.153402,0.352867,0.000000
2.830000,0.142373,-0.183000,-1.448089,1.791942,0.260923,-0.007748,-0.298709,-0.320631,0.052725,-3.424509,1.468039,-0.386832,3.062332,-0.760292,-3.397490,-0.032834,0.030604,0.000000,0.151875,0.349240,-0.000000
2.840000,0.160278,-0.180407,-1.448164,1.788784,0.257790,-0.007240,-0.332814,-0.305952,0.048688,-3.394566,1.468018,-0.420016,3.299895,-0.268160,-3.252968,-0.031315,0.034082,0.000000,0.151872,0.345718,0.000000
