time,x,y,z,vx,vy,vz,ax,ay,az,jx,jy,jz,sx,sy,sz,roll,pitch,yaw,p,q,r
0.000000,-2.839880,-2.175015,-1.447291,0.013133,-0.007862,-0.001844,-0.277178,0.140298,-0.028899,-10.402806,4.989695,-1.195370,314.654164,-168.681998,20.906175,0.014253,0.028164,0.000000,0.504681,1.052949,0.000000
0.010000,-2.839749,-2.175093,-1.447309,0.010361,-0.006459,-0.002133,-0.381206,0.190195,-0.040852,-7.256264,3.302875,-0.986308,703.588594,-346.632969,57.503840,0.019291,0.038678,0.000000,0.332436,0.731506,-0.000000
0.020000,-2.839673,-2.175144,-1.447333,0.005509,-0.004058,-0.002661,-0.422303,0.206356,-0.048625,3.668966,-1.942965,-0.045293,882.978855,-383.093739,76.759728,0.020909,0.042810,0.000000,-0.196579,-0.371592,0.000000
0.030000,-2.839639,-2.175174,-1.447362,0.001915,-0.002332,-0.003105,-0.307826,0.151336,-0.041758,10.403313,-4.359000,0.548887,241.170764,-16.156750,17.051271,0.015353,0.031236,0.000000,-0.440779,-1.053092,-0.000000
0.040000,-2.839635,-2.175190,-1.447395,-0.000648,-0.001031,-0.003496,-0.214237,0.119176,-0.037647,8.492381,-2.266100,0.295733,-174.346671,191.104810,-23.195735,0.012098,0.021752,0.000000,-0.229438,-0.861253,0.000000
0.050000,-2.839652,-2.175195,-1.447432,-0.002369,0.000052,-0.003858,-0.137979,0.106014,-0.035844,6.916380,-0.536904,0.084972,-142.850898,156.909266,-19.188705,0.010766,0.014013,0.000000,-0.054320,-0.702167,-0.000000
0.060000,-2.839682,-2.175189,-1.447472,-0.003407,0.001089,-0.004213,-0.075909,0.108438,-0.035948,5.635363,0.872086,-0.088041,-115.229097,126.927209,-15.632244,0.011013,0.007710,0.000000,0.088510,-0.572354,-0.000000
0.070000,-2.839720,-2.175173,-1.447516,-0.003888,0.002221,-0.004577,-0.025271,0.123455,-0.037605,4.611798,2.001640,-0.227673,-91.240409,100.885968,-12.498216,0.012536,0.002566,0.000000,0.202954,-0.468336,-0.000000
0.080000,-2.839760,-2.175145,-1.447564,-0.003913,0.003558,-0.004965,0.016327,0.148470,-0.040501,3.810555,2.889805,-0.338006,-70.643990,78.512858,-9.758493,0.015071,-0.001657,0.000000,0.292773,-0.386737,-0.000000
0.090000,-2.839798,-2.175102,-1.447616,-0.003561,0.005190,-0.005387,0.050940,0.181252,-0.044365,3.198918,3.571898,-0.422843,-53.198965,59.535219,-7.384931,0.018391,-0.005169,0.000000,0.361521,-0.324334,0.000000
0.100000,-2.839831,-2.175041,-1.447672,-0.002894,0.007183,-0.005852,0.080305,0.219908,-0.048958,2.746576,4.080510,-0.485704,-38.664452,43.680395,-5.349379,0.022301,-0.008145,0.000000,0.412520,-0.278098,-0.000000
0.110000,-2.839856,-2.174958,-1.447733,-0.001955,0.009588,-0.006366,0.105871,0.262862,-0.054079,2.425629,4.445506,-0.529830,-26.799615,30.675696,-3.623717,0.026641,-0.010733,0.000000,0.448830,-0.245213,0.000000
0.120000,-2.839870,-2.174849,-1.447799,-0.000776,0.012441,-0.006934,0.128818,0.308818,-0.059555,2.210584,4.694023,-0.558179,-17.363613,20.248447,-2.179817,0.031277,-0.013051,0.000000,0.473242,-0.223095,0.000000
0.130000,-2.839871,-2.174710,-1.447871,0.000621,0.015765,-0.007557,0.150083,0.356742,-0.065242,2.078357,4.850474,-0.573427,-10.115567,12.125991,-0.989527,0.036105,-0.015197,0.000000,0.488269,-0.209394,-0.000000
0.140000,-2.839858,-2.174534,-1.447950,0.002225,0.019575,-0.008239,0.170385,0.405828,-0.071023,2.008272,4.936543,-0.577969,-4.814583,6.035638,-0.024705,0.041042,-0.017242,0.000000,0.496142,-0.202006,-0.000000
0.150000,-2.839827,-2.174318,-1.448036,0.004029,0.023881,-0.008978,0.190248,0.455473,-0.076802,1.982065,4.971187,-0.573921,-1.219830,1.704730,0.742775,0.046028,-0.019240,0.000000,0.498809,-0.199074,-0.000000
0.160000,-2.839777,-2.174057,-1.448130,0.006030,0.028685,-0.009775,0.210026,0.505252,-0.082502,1.983876,4.970638,-0.563114,0.909510,-1.139390,1.341040,0.051018,-0.021228,0.000000,0.497931,-0.198986,0.000000
0.170000,-2.839706,-2.173744,-1.448232,0.008230,0.033986,-0.010628,0.229926,0.554886,-0.088064,2.000255,4.948399,-0.547100,1.843947,-2.809779,1.802707,0.055986,-0.023225,0.000000,0.494888,-0.200379,-0.000000
0.180000,-2.839612,-2.173377,-1.448342,0.010629,0.039783,-0.011536,0.250031,0.604220,-0.093444,2.020755,4.914442,-0.527060,2.341605,-4.284335,2.233938,0.060916,-0.025242,0.000000,0.490694,-0.202197,0.000000
0.190000,-2.839494,-2.172949,-1.448462,0.013230,0.046071,-0.012497,0.270341,0.653175,-0.098605,2.047087,4.862713,-0.502421,2.464444,-5.591853,2.635878,0.065800,-0.027277,0.000000,0.484759,-0.204617,0.000000
0.200000,-2.839348,-2.172455,-1.448592,0.016036,0.052846,-0.013508,0.290973,0.701474,-0.103492,2.070044,4.802605,-0.474342,-1.363398,-1.801107,2.460941,0.070611,-0.029343,0.000000,0.478037,-0.206711,0.000000
0.210000,-2.839173,-2.171892,-1.448733,0.019050,0.060100,-0.014567,0.311742,0.749227,-0.108092,2.019819,4.826691,-0.453202,-8.492104,6.257680,1.798949,0.075361,-0.031421,0.000000,0.479750,-0.201441,0.000000
0.220000,-2.838967,-2.171253,-1.448884,0.022270,0.067831,-0.015670,0.331370,0.798008,-0.112556,1.900201,4.927759,-0.438363,-7.730702,3.388614,2.328750,0.080206,-0.033383,0.000000,0.489125,-0.189206,-0.000000
0.230000,-2.838728,-2.170535,-1.449046,0.025677,0.076060,-0.016818,0.349746,0.847782,-0.116859,1.865205,4.894463,-0.406627,1.469151,-10.982464,4.106566,0.085144,-0.035218,0.000000,0.485156,-0.185546,0.000000
0.240000,-2.838453,-2.169732,-1.449220,0.029265,0.084786,-0.018007,0.368674,0.895897,-0.120689,1.929585,4.708110,-0.356232,4.117061,-16.401839,4.869318,0.089910,-0.037108,0.000000,0.466103,-0.191930,-0.000000
0.250000,-2.838142,-2.168839,-1.449406,0.033051,0.093978,-0.019232,0.388338,0.941944,-0.123984,1.947546,4.566426,-0.309241,-1.948289,-10.735964,4.417784,0.094466,-0.039072,0.000000,0.451602,-0.193667,-0.000000
0.260000,-2.837792,-2.167853,-1.449605,0.037032,0.103625,-0.020487,0.407625,0.987225,-0.126873,1.890619,4.493390,-0.267876,-6.312422,-8.035656,4.300260,0.098942,-0.040998,0.000000,0.443994,-0.187916,-0.000000
0.270000,-2.837402,-2.166767,-1.449816,0.041203,0.113723,-0.021769,0.426150,1.031812,-0.129341,1.821298,4.405713,-0.223236,-5.641847,-10.296327,4.624029,0.103346,-0.042849,0.000000,0.435035,-0.180973,-0.000000
0.280000,-2.836968,-2.165578,-1.450040,0.045555,0.124261,-0.023074,0.444051,1.075340,-0.131338,1.777782,4.287464,-0.175396,-3.368640,-12.701693,4.850974,0.107643,-0.044637,0.000000,0.423141,-0.176656,0.000000
0.290000,-2.836491,-2.164282,-1.450277,0.050084,0.135229,-0.024396,0.461706,1.117561,-0.132849,1.753925,4.151679,-0.126216,-3.015164,-13.865411,4.980719,0.111809,-0.046403,0.000000,0.409601,-0.174337,0.000000
0.300000,-2.835967,-2.162874,-1.450528,0.054789,0.146613,-0.025731,0.479129,1.158373,-0.133863,1.717479,4.010155,-0.075781,-4.546131,-14.408380,5.105281,0.115835,-0.048146,0.000000,0.395605,-0.170799,-0.000000
0.310000,-2.835395,-2.161350,-1.450792,0.059667,0.158397,-0.027073,0.496055,1.197764,-0.134365,1.663003,3.863512,-0.024111,-5.651216,-15.099573,5.204092,0.119722,-0.049842,0.000000,0.381221,-0.165502,0.000000
0.320000,-2.834773,-2.159706,-1.451069,0.064710,0.170568,-0.028418,0.512389,1.235644,-0.134345,1.604454,3.708164,0.028301,-5.687487,-15.821737,5.227980,0.123460,-0.051480,0.000000,0.366084,-0.159836,-0.000000
0.330000,-2.834101,-2.157938,-1.451360,0.069914,0.183110,-0.029760,0.528144,1.271928,-0.133799,1.549253,3.547077,0.080449,-5.416189,-16.312205,5.181336,0.127044,-0.053063,0.000000,0.350469,-0.154536,-0.000000
0.340000,-2.833375,-2.156043,-1.451665,0.075273,0.196006,-0.031094,0.543374,1.306585,-0.132736,1.496130,3.381920,0.131927,-5.494327,-16.801518,5.130144,0.130470,-0.054596,0.000000,0.334533,-0.149468,-0.000000
0.350000,-2.832595,-2.154018,-1.451982,0.080782,0.209242,-0.032415,0.558067,1.339566,-0.131160,1.439366,3.211046,0.183052,-5.888268,-17.368756,5.097259,0.133735,-0.056078,0.000000,0.318119,-0.144066,0.000000
0.360000,-2.831759,-2.151859,-1.452313,0.086435,0.222798,-0.033717,0.572161,1.370806,-0.129075,1.378365,3.034545,0.233873,-6.174682,-17.847592,5.037376,0.136832,-0.057503,0.000000,0.301232,-0.138269,0.000000
0.370000,-2.830866,-2.149562,-1.452656,0.092225,0.236658,-0.034996,0.585634,1.400257,-0.126483,1.315873,2.854095,0.283799,-6.269612,-18.165835,4.896859,0.139760,-0.058870,0.000000,0.284025,-0.132344,-0.000000
0.380000,-2.829915,-2.147125,-1.453013,0.098147,0.250803,-0.036247,0.598479,1.427888,-0.123399,1.252973,2.671228,0.331810,-6.316298,-18.381641,4.688665,0.142513,-0.060176,0.000000,0.266627,-0.126392,-0.000000
0.390000,-2.828903,-2.144546,-1.453381,0.104195,0.265215,-0.037464,0.610694,1.453681,-0.119847,1.189547,2.486462,0.377573,-6.391220,-18.582194,4.484790,0.145092,-0.061423,0.000000,0.249075,-0.120395,0.000000
0.400000,-2.827831,-2.141821,-1.453762,0.110361,0.279877,-0.038644,0.622270,1.477617,-0.115847,1.125148,2.299584,0.421506,-6.477104,-18.768541,4.304298,0.147495,-0.062610,0.000000,0.231348,-0.114309,0.000000
0.410000,-2.826696,-2.138948,-1.454154,0.116640,0.294768,-0.039781,0.633197,1.499673,-0.111417,1.060005,2.111091,0.463659,-6.528634,-18.887058,4.099781,0.149719,-0.063735,0.000000,0.213488,-0.108153,-0.000000
0.420000,-2.825498,-2.135926,-1.454558,0.123025,0.309870,-0.040872,0.643470,1.519839,-0.106574,0.994576,1.921843,0.503501,-6.556619,-18.937864,3.830167,0.151765,-0.064797,0.000000,0.195562,-0.101969,-0.000000
0.430000,-2.824236,-2.132751,-1.454972,0.129509,0.325165,-0.041913,0.653088,1.538110,-0.101347,0.928872,1.732334,0.540262,-6.578661,-18.943132,3.511714,0.153631,-0.065798,0.000000,0.177598,-0.095748,-0.000000
0.440000,-2.822908,-2.129422,-1.455396,0.136087,0.340632,-0.042899,0.662047,1.554486,-0.095769,0.863003,1.542980,0.573735,-6.577426,-18.902790,3.200443,0.155317,-0.066735,0.000000,0.159627,-0.089497,0.000000
0.450000,-2.821514,-2.125938,-1.455830,0.142750,0.356254,-0.043828,0.670348,1.568970,-0.089872,0.797324,1.354278,0.604271,-6.545197,-18.811952,2.906970,0.156823,-0.067610,0.000000,0.141691,-0.083251,0.000000
0.460000,-2.820053,-2.122297,-1.456272,0.149494,0.372012,-0.044696,0.677994,1.581571,-0.083683,0.732099,1.166741,0.631875,-6.495982,-18.675581,2.596591,0.158151,-0.068421,0.000000,0.123835,-0.077033,0.000000
0.470000,-2.818524,-2.118498,-1.456724,0.156310,0.387886,-0.045502,0.684990,1.592304,-0.077234,0.667404,0.980766,0.656203,-6.444575,-18.508428,2.251231,0.159300,-0.069170,0.000000,0.106084,-0.070847,0.000000
0.480000,-2.816927,-2.114540,-1.457182,0.163194,0.403858,-0.046241,0.691342,1.601186,-0.070559,0.603207,0.796573,0.676899,-6.387611,-18.312623,1.885419,0.160272,-0.069856,0.000000,0.088446,-0.064683,-0.000000
0.490000,-2.815260,-2.110421,-1.457648,0.170137,0.419909,-0.046913,0.697054,1.608236,-0.063696,0.539652,0.614514,0.693911,-6.307483,-18.073335,1.525672,0.161069,-0.070480,0.000000,0.070948,-0.058553,-0.000000
0.500000,-2.813524,-2.106142,-1.458121,0.177135,0.436022,-0.047515,0.702135,1.613477,-0.056681,0.477057,0.435106,0.707413,-6.202435,-17.788112,1.172366,0.161691,-0.071042,0.000000,0.053638,-0.052489,-0.000000
0.510000,-2.811718,-2.101701,-1.458599,0.184180,0.452179,-0.048046,0.706595,1.616938,-0.049548,0.415603,0.258752,0.717358,-6.085281,-17.470849,0.811975,0.162142,-0.071544,0.000000,0.036548,-0.046506,-0.000000
0.520000,-2.809840,-2.097098,-1.459082,0.191267,0.468361,-0.048506,0.710447,1.618652,-0.042334,0.355352,0.085689,0.723652,-5.961070,-17.133654,0.452671,0.162422,-0.071985,0.000000,0.019696,-0.040609,0.000000
0.530000,-2.807892,-2.092333,-1.459569,0.198389,0.484552,-0.048893,0.713702,1.618652,-0.035075,0.296382,-0.083922,0.726412,-5.825984,-16.775139,0.103872,0.162535,-0.072367,0.000000,0.003095,-0.034803,-0.000000
0.540000,-2.805873,-2.087407,-1.460060,0.205541,0.500734,-0.049207,0.716375,1.616973,-0.027806,0.238832,-0.249814,0.725730,-5.675398,-16.384530,-0.241996,0.162484,-0.072690,0.000000,-0.013230,-0.029104,-0.000000
0.550000,-2.803781,-2.082319,-1.460553,0.212716,0.516891,-0.049449,0.718479,1.613656,-0.020560,0.182874,-0.411612,0.721572,-5.511215,-15.960904,-0.594310,0.162271,-0.072957,0.000000,-0.029244,-0.023527,-0.000000
0.560000,-2.801618,-2.077069,-1.461049,0.219910,0.533007,-0.049619,0.720032,1.608741,-0.013374,0.128608,-0.569032,0.713844,-5.337096,-15.514920,-0.943123,0.161899,-0.073167,0.000000,-0.044924,-0.018080,-0.000000
0.570000,-2.799383,-2.071659,-1.461545,0.227117,0.549066,-0.049717,0.721051,1.602275,-0.006284,0.076132,-0.721911,0.702709,-5.149774,-15.055843,-1.256859,0.161372,-0.073323,0.000000,-0.060249,-0.012776,-0.000000
0.580000,-2.797076,-2.066088,-1.462043,0.234331,0.565053,-0.049744,0.721555,1.594303,0.000680,0.025612,-0.870149,0.688706,-4.948101,-14.583190,-1.532996,0.160694,-0.073426,0.000000,-0.075203,-0.007634,0.000000
0.590000,-2.794697,-2.060357,-1.462540,0.241548,0.580952,-0.049703,0.721563,1.584872,0.007491,-0.022830,-1.013574,0.672049,-4.738144,-14.089410,-1.809881,0.159868,-0.073478,0.000000,-0.089764,-0.002669,0.000000
0.600000,-2.792245,-2.054469,-1.463037,0.248763,0.596750,-0.049595,0.721098,1.574031,0.014121,-0.069151,-1.151937,0.652509,-4.523514,-13.573217,-2.104193,0.158898,-0.073480,0.000000,-0.103909,0.002117,0.000000
0.610000,-2.789721,-2.048422,-1.463532,0.255970,0.612433,-0.049421,0.720180,1.561833,0.020541,-0.113300,-1.285039,0.629966,-4.300581,-13.042995,-2.385629,0.157790,-0.073435,0.000000,-0.117617,0.006718,-0.000000
0.620000,-2.787126,-2.042220,-1.464025,0.263166,0.627987,-0.049184,0.718832,1.548331,0.026720,-0.155162,-1.412797,0.604796,-4.062331,-12.508878,-2.606517,0.156546,-0.073344,0.000000,-0.130873,0.011119,-0.000000
0.630000,-2.784458,-2.035863,-1.464516,0.270347,0.643400,-0.048886,0.717077,1.533577,0.032637,-0.194547,-1.535216,0.577835,-3.810140,-11.971225,-2.771291,0.155172,-0.073209,0.000000,-0.143659,0.015294,0.000000
0.640000,-2.781719,-2.029352,-1.465003,0.277508,0.658658,-0.048531,0.714941,1.517626,0.038277,-0.231365,-1.652221,0.549370,-3.554793,-11.420732,-2.939949,0.153673,-0.073034,0.000000,-0.155961,0.019230,0.000000
0.650000,-2.778908,-2.022690,-1.465486,0.284645,0.673752,-0.048121,0.712450,1.500533,0.043624,-0.265643,-1.763631,0.519036,-3.300123,-10.854198,-3.132943,0.152053,-0.072820,0.000000,-0.167761,0.022932,-0.000000
0.660000,-2.776026,-2.015877,-1.465965,0.291757,0.688669,-0.047659,0.709628,1.482354,0.048658,-0.297367,-1.869305,0.486712,-3.039581,-10.281094,-3.306547,0.150317,-0.072570,0.000000,-0.179044,0.026397,-0.000000
0.670000,-2.773073,-2.008916,-1.466440,0.298838,0.703399,-0.047148,0.706503,1.463147,0.053358,-0.326435,-1.969253,0.452905,-2.766191,-9.715872,-3.406569,0.148472,-0.072286,0.000000,-0.189796,0.029610,-0.000000
0.680000,-2.770049,-2.001809,-1.466908,0.305887,0.717932,-0.046591,0.703100,1.442969,0.057716,-0.352691,-2.063623,0.418580,-2.482703,-9.158711,-3.442985,0.146521,-0.071971,0.000000,-0.200016,0.032547,0.000000
0.690000,-2.766955,-1.994558,-1.467371,0.312900,0.732259,-0.045993,0.699449,1.421874,0.061730,-0.376089,-2.152427,0.384046,-2.199629,-8.594086,-3.485303,0.144472,-0.071628,0.000000,-0.209693,0.035200,0.000000
0.700000,-2.763791,-1.987164,-1.467828,0.319876,0.746370,-0.045357,0.695578,1.399920,0.065397,-0.396684,-2.235504,0.348874,-1.919531,-8.016324,-3.553978,0.142328,-0.071260,0.000000,-0.218816,0.037575,0.000000
0.710000,-2.760557,-1.979630,-1.468279,0.326812,0.760257,-0.044685,0.691515,1.377164,0.068707,-0.414479,-2.312753,0.312966,-1.636502,-7.438894,-3.600452,0.140095,-0.070869,0.000000,-0.227368,0.039674,0.000000
0.720000,-2.757255,-1.971959,-1.468722,0.333706,0.773913,-0.043983,0.687288,1.353665,0.071656,-0.429414,-2.384282,0.276865,-1.346962,-6.881494,-3.573841,0.137780,-0.070459,0.000000,-0.235350,0.041483,-0.000000
0.730000,-2.753883,-1.964152,-1.469158,0.340557,0.787330,-0.043252,0.682927,1.329479,0.074245,-0.441418,-2.450383,0.241489,-1.053827,-6.342982,-3.487546,0.135388,-0.070032,0.000000,-0.242774,0.042989,0.000000
0.740000,-2.750444,-1.956212,-1.469587,0.347365,0.800502,-0.042498,0.678460,1.304657,0.076486,-0.450490,-2.511142,0.207114,-0.763251,-5.800373,-3.407839,0.132925,-0.069591,0.000000,-0.249641,0.044189,-0.000000
0.750000,-2.746936,-1.948142,-1.470008,0.354127,0.813423,-0.041723,0.673917,1.279256,0.078387,-0.456683,-2.566391,0.173332,-0.475990,-5.245958,-3.351693,0.130395,-0.069140,0.000000,-0.255937,0.045090,0.000000
0.760000,-2.743361,-1.939944,-1.470421,0.360843,0.826088,-0.040930,0.669326,1.253330,0.079952,-0.460010,-2.616061,0.140080,-0.189280,-4.697858,-3.274494,0.127806,-0.068681,0.000000,-0.261652,0.045693,-0.000000
0.770000,-2.739719,-1.931620,-1.470827,0.367513,0.838490,-0.040123,0.664717,1.226935,0.081189,-0.460469,-2.660348,0.107843,0.095637,-4.179544,-3.136901,0.125162,-0.068219,0.000000,-0.266798,0.045994,0.000000
0.780000,-2.736011,-1.923174,-1.471224,0.374137,0.850626,-0.039306,0.660117,1.200123,0.082109,-0.458097,-2.699652,0.077342,0.376439,-3.688018,-2.953079,0.122470,-0.067754,0.000000,-0.271402,0.045991,0.000000
0.790000,-2.732236,-1.914608,-1.471613,0.380715,0.862492,-0.038481,0.655555,1.172941,0.082735,-0.452940,-2.734108,0.048781,0.653336,-3.194790,-2.775307,0.119734,-0.067292,0.000000,-0.275477,0.045688,0.000000
0.800000,-2.728396,-1.905924,-1.471994,0.387248,0.874085,-0.037652,0.651058,1.145440,0.083085,-0.445031,-2.763548,0.021836,0.927585,-2.691325,-2.614681,0.116961,-0.066834,0.000000,-0.279007,0.045089,-0.000000
0.810000,-2.724491,-1.897126,-1.472366,0.393737,0.885401,-0.036820,0.646654,1.117671,0.083172,-0.434389,-2.787935,-0.003513,1.197502,-2.198861,-2.437598,0.114154,-0.066384,0.000000,-0.281987,0.044197,0.000000
0.820000,-2.720522,-1.888216,-1.472730,0.400181,0.896438,-0.035988,0.642370,1.089682,0.083015,-0.421081,-2.807525,-0.026916,1.457114,-1.741445,-2.221536,0.111321,-0.065944,0.000000,-0.284441,0.043016,0.000000
0.830000,-2.716488,-1.879197,-1.473086,0.406584,0.907195,-0.035159,0.638233,1.061520,0.082634,-0.405246,-2.822764,-0.047943,1.705379,-1.314387,-1.979002,0.108466,-0.065518,0.000000,-0.286407,0.041558,0.000000
0.840000,-2.712390,-1.870072,-1.473433,0.412946,0.917669,-0.034335,0.634265,1.033226,0.082056,-0.386973,-2.833813,-0.066496,1.948682,-0.887816,-1.741187,0.105593,-0.065108,0.000000,-0.287903,0.039832,0.000000
0.850000,-2.708229,-1.860844,-1.473772,0.419269,0.927859,-0.033518,0.630493,1.004844,0.081304,-0.366273,-2.840520,-0.082767,2.189872,-0.454029,-1.512098,0.102708,-0.064717,0.000000,-0.288916,0.037840,-0.000000
0.860000,-2.704005,-1.851515,-1.474104,0.425556,0.937766,-0.032709,0.626940,0.976416,0.080400,-0.343176,-2.842893,-0.096738,2.423196,-0.034543,-1.273504,0.099815,-0.064347,0.000000,-0.289447,0.035585,0.000000
0.870000,-2.699718,-1.842088,-1.474427,0.431808,0.947388,-0.031910,0.623630,0.947986,0.079369,-0.317809,-2.841211,-0.108237,2.639072,0.350068,-1.021646,0.096919,-0.064002,0.000000,-0.289526,0.033081,0.000000
0.880000,-2.695369,-1.832567,-1.474742,0.438028,0.956725,-0.031122,0.620584,0.919592,0.078236,-0.290394,-2.835892,-0.117171,2.837781,0.705452,-0.765490,0.094024,-0.063683,0.000000,-0.289195,0.030349,-0.000000
0.890000,-2.690957,-1.822954,-1.475049,0.444220,0.965780,-0.030345,0.617822,0.891268,0.077026,-0.261053,-2.827102,-0.123547,3.030553,1.057472,-0.512264,0.091135,-0.063392,0.000000,-0.288474,0.027402,-0.000000
0.900000,-2.686484,-1.813252,-1.475349,0.450385,0.974551,-0.029581,0.615363,0.863050,0.075765,-0.229783,-2.814742,-0.127416,3.221189,1.411941,-0.259118,0.088255,-0.063132,0.000000,-0.287355,0.024241,-0.000000
0.910000,-2.681950,-1.803463,-1.475641,0.456527,0.983041,-0.028830,0.613226,0.834973,0.074477,-0.196629,-2.798863,-0.128729,3.400843,1.750809,-0.004583,0.085388,-0.062905,0.000000,-0.285846,0.020871,0.000000
0.920000,-2.677354,-1.793591,-1.475925,0.462649,0.991250,-0.028092,0.611430,0.807073,0.073190,-0.161766,-2.779726,-0.127508,3.558124,2.059435,0.237893,0.082538,-0.062713,0.000000,-0.283975,0.017309,-0.000000
0.930000,-2.672697,-1.783638,-1.476203,0.468756,0.999182,-0.027366,0.609991,0.779379,0.071927,-0.125467,-2.757674,-0.123972,3.694531,2.343186,0.463965,0.079708,-0.062558,0.000000,-0.281782,0.013585,0.000000
0.940000,-2.667978,-1.773607,-1.476473,0.474849,1.006838,-0.026653,0.608921,0.751919,0.070711,-0.087876,-2.732862,-0.118228,3.823885,2.620497,0.688781,0.076902,-0.062441,0.000000,-0.279285,0.009715,0.000000
0.950000,-2.663200,-1.763501,-1.476736,0.480934,1.014220,-0.025952,0.608233,0.724721,0.069563,-0.048989,-2.705264,-0.110196,3.950366,2.894507,0.920916,0.074123,-0.062363,0.000000,-0.276484,0.005698,0.000000
0.960000,-2.658360,-1.753323,-1.476992,0.487014,1.021332,-0.025262,0.607941,0.697814,0.068507,-0.008868,-2.674972,-0.099810,4.063686,3.152826,1.146733,0.071373,-0.062327,0.000000,-0.273391,0.001540,0.000000
0.970000,-2.653459,-1.743074,-1.477241,0.493093,1.028177,-0.024582,0.608056,0.671222,0.067566,0.032285,-2.642208,-0.087261,4.152034,3.388202,1.339392,0.068655,-0.062332,0.000000,-0.270030,-0.002738,-0.000000
0.980000,-2.648498,-1.732759,-1.477483,0.499175,1.034757,-0.023911,0.608587,0.644970,0.066761,0.074172,-2.607208,-0.073022,4.217631,3.604834,1.499281,0.065972,-0.062381,0.000000,-0.266433,-0.007101,-0.000000
0.990000,-2.643476,-1.722379,-1.477719,0.505265,1.041076,-0.023247,0.609539,0.619078,0.066106,0.116637,-2.570111,-0.057276,4.275157,3.811889,1.659310,0.063326,-0.062475,0.000000,-0.262614,-0.011534,0.000000
1.000000,-2.638393,-1.711938,-1.477948,0.511366,1.047138,-0.022589,0.610919,0.593567,0.065616,0.159675,-2.530971,-0.039836,4.328849,4.009939,1.831957,0.060720,-0.062613,0.000000,-0.258581,-0.016037,-0.000000
1.010000,-2.633248,-1.701437,-1.478171,0.517483,1.052947,-0.021934,0.612733,0.568458,0.065309,0.203214,-2.489912,-0.020636,4.368187,4.193217,1.992113,0.058155,-0.062796,0.000000,-0.254348,-0.020604,0.000000
1.020000,-2.628043,-1.690879,-1.478387,0.523620,1.058507,-0.021282,0.614984,0.543769,0.065203,0.247039,-2.447106,0.000006,4.381827,4.361089,2.104859,0.055633,-0.063025,0.000000,-0.249934,-0.025211,0.000000
1.030000,-2.622776,-1.680266,-1.478596,0.529783,1.063823,-0.020630,0.617674,0.519516,0.065309,0.290851,-2.402691,0.021461,4.372315,4.516009,2.174757,0.053156,-0.063301,0.000000,-0.245359,-0.029825,0.000000
1.040000,-2.617447,-1.669602,-1.478799,0.535974,1.068898,-0.019976,0.620801,0.495715,0.065632,0.334486,-2.356786,0.043501,4.354105,4.658759,2.245855,0.050726,-0.063623,0.000000,-0.240637,-0.034426,-0.000000
1.050000,-2.612057,-1.658888,-1.478996,0.542199,1.073737,-0.019318,0.624363,0.472381,0.066179,0.377933,-2.309515,0.066378,4.331408,4.788122,2.332391,0.048343,-0.063990,0.000000,-0.235778,-0.039017,-0.000000
1.060000,-2.606603,-1.648127,-1.479186,0.548461,1.078345,-0.018653,0.628359,0.449525,0.066960,0.421114,-2.261024,0.090149,4.294134,4.904137,2.402627,0.046010,-0.064404,0.000000,-0.230799,-0.043591,-0.000000
1.070000,-2.601087,-1.637322,-1.479369,0.554766,1.082728,-0.017979,0.632786,0.427160,0.067982,0.463815,-2.211433,0.114430,4.231703,5.010419,2.419311,0.043727,-0.064863,0.000000,-0.225713,-0.048123,0.000000
1.080000,-2.595508,-1.626473,-1.479545,0.561117,1.086889,-0.017293,0.637636,0.405296,0.069249,0.505748,-2.160815,0.138535,4.146822,5.107576,2.390115,0.041496,-0.065367,0.000000,-0.220531,-0.052581,0.000000
1.090000,-2.589865,-1.615584,-1.479715,0.567519,1.090834,-0.016594,0.642901,0.383944,0.070753,0.546752,-2.109281,0.162233,4.053302,5.191063,2.362909,0.039316,-0.065916,0.000000,-0.215265,-0.056946,0.000000
1.100000,-2.584158,-1.604656,-1.479877,0.573975,1.094567,-0.015878,0.648571,0.363111,0.072493,0.586814,-2.056994,0.185794,3.955300,5.258996,2.351540,0.037190,-0.066507,0.000000,-0.209929,-0.061220,0.000000
1.110000,-2.578386,-1.593692,-1.480032,0.580490,1.098096,-0.015144,0.654637,0.342804,0.074469,0.625858,-2.004101,0.209263,3.843478,5.314911,2.322845,0.035118,-0.067141,0.000000,-0.204537,-0.065395,-0.000000
1.120000,-2.572548,-1.582694,-1.480180,0.587068,1.101424,-0.014389,0.661088,0.323029,0.076679,0.663683,-1.950696,0.232251,3.707860,5.363883,2.242589,0.033100,-0.067816,0.000000,-0.199101,-0.069449,-0.000000
1.130000,-2.566644,-1.571664,-1.480320,0.593712,1.104556,-0.013610,0.667910,0.303790,0.079114,0.700015,-1.896824,0.254115,3.551160,5.405138,2.120088,0.031136,-0.068531,0.000000,-0.193626,-0.073349,-0.000000
1.140000,-2.560674,-1.560603,-1.480452,0.600426,1.107499,-0.012806,0.675088,0.285092,0.081761,0.734707,-1.842593,0.274652,3.386808,5.432331,2.000189,0.029227,-0.069284,0.000000,-0.188122,-0.077078,-0.000000
1.150000,-2.554636,-1.549514,-1.480576,0.607214,1.110258,-0.011975,0.682605,0.266938,0.084607,0.767751,-1.788177,0.294119,3.218855,5.444557,1.894588,0.027373,-0.070073,0.000000,-0.182606,-0.080638,-0.000000
1.160000,-2.548529,-1.538398,-1.480692,0.614078,1.112838,-0.011114,0.690443,0.249329,0.087643,0.799084,-1.733702,0.312544,3.038501,5.446319,1.773303,0.025575,-0.070897,0.000000,-0.177088,-0.084022,-0.000000
1.170000,-2.542354,-1.527257,-1.480799,0.621022,1.115245,-0.010222,0.698586,0.232264,0.090858,0.828521,-1.679251,0.329585,2.836709,5.439705,1.609507,0.023832,-0.071754,0.000000,-0.171577,-0.087208,0.000000
1.180000,-2.536109,-1.516093,-1.480896,0.628050,1.117483,-0.009297,0.707014,0.215744,0.094235,0.855818,-1.624908,0.344734,2.616271,5.423290,1.412793,0.022143,-0.072642,0.000000,-0.166081,-0.090168,0.000000
1.190000,-2.529793,-1.504908,-1.480985,0.635163,1.119560,-0.008337,0.715703,0.199766,0.097753,0.880847,-1.570785,0.357841,2.389714,5.394838,1.219104,0.020510,-0.073558,0.000000,-0.160612,-0.092885,-0.000000
1.200000,-2.523406,-1.493702,-1.481063,0.642364,1.121479,-0.007342,0.724631,0.184328,0.101392,0.903612,-1.517011,0.369116,2.161060,5.354737,1.036659,0.018931,-0.074500,0.000000,-0.155180,-0.095363,0.000000
1.210000,-2.516946,-1.482478,-1.481131,0.649655,1.123246,-0.006310,0.733775,0.169426,0.105135,0.924068,-1.463690,0.378574,1.922408,5.304534,0.842556,0.017406,-0.075465,0.000000,-0.149795,-0.097594,-0.000000
1.220000,-2.510413,-1.471237,-1.481189,0.657039,1.124867,-0.005239,0.743112,0.155054,0.108963,0.942060,-1.410920,0.385967,1.665203,5.243467,0.620187,0.015935,-0.076452,0.000000,-0.144466,-0.099560,0.000000
1.230000,-2.503805,-1.459981,-1.481236,0.664517,1.126347,-0.004130,0.752616,0.141207,0.112854,0.957372,-1.358821,0.390978,1.392182,5.170824,0.378100,0.014517,-0.077457,0.000000,-0.139205,-0.101236,-0.000000
1.240000,-2.497122,-1.448710,-1.481272,0.672092,1.127691,-0.002982,0.762259,0.127878,0.116783,0.969904,-1.307504,0.393529,1.115619,5.088042,0.139511,0.013151,-0.078477,0.000000,-0.134022,-0.102609,-0.000000
1.250000,-2.490363,-1.437427,-1.481296,0.679763,1.128905,-0.001795,0.772014,0.115057,0.120725,0.979684,-1.257060,0.393768,0.839247,4.997144,-0.091826,0.011837,-0.079509,0.000000,-0.128926,-0.103683,-0.000000
1.260000,-2.483527,-1.426132,-1.481308,0.687532,1.129993,-0.000568,0.781853,0.102737,0.124658,0.986689,-1.207561,0.391693,0.555588,4.897122,-0.329437,0.010573,-0.080551,0.000000,-0.123923,-0.104453,-0.000000
1.270000,-2.476613,-1.414827,-1.481307,0.695400,1.130960,0.000699,0.791748,0.090906,0.128559,0.990796,-1.159117,0.387179,0.257515,4.782943,-0.577920,0.009358,-0.081598,0.000000,-0.119023,-0.104904,-0.000000
1.280000,-2.469619,-1.403513,-1.481294,0.703367,1.131811,0.002004,0.801669,0.079554,0.132402,0.991839,-1.111902,0.380134,-0.052001,4.654460,-0.830760,0.008192,-0.082649,0.000000,-0.114244,-0.105018,0.000000
1.290000,-2.462545,-1.392191,-1.481267,0.711433,1.132551,0.003347,0.811585,0.068668,0.136161,0.989756,-1.066028,0.370564,-0.362333,4.518878,-1.079961,0.007073,-0.083699,0.000000,-0.109597,-0.104786,-0.000000
1.300000,-2.455390,-1.380862,-1.481227,0.719598,1.133184,0.004727,0.821464,0.058234,0.139813,0.984592,-1.021524,0.358535,-0.670679,4.380286,-1.326390,0.006000,-0.084745,0.000000,-0.105084,-0.104213,0.000000
1.310000,-2.448153,-1.369527,-1.481173,0.727862,1.133715,0.006143,0.831277,0.048238,0.143332,0.976342,-0.978422,0.344036,-0.983104,4.233795,-1.572884,0.004972,-0.085783,0.000000,-0.100709,-0.103296,-0.000000
1.320000,-2.440833,-1.358187,-1.481104,0.736224,1.134149,0.007593,0.840991,0.038665,0.146694,0.964930,-0.936849,0.327078,-1.303964,4.069573,-1.812239,0.003986,-0.086811,0.000000,-0.096483,-0.102027,-0.000000
1.330000,-2.433429,-1.346844,-1.481021,0.744682,1.134489,0.009077,0.850575,0.029501,0.149874,0.950263,-0.897031,0.307792,-1.630422,3.888763,-2.040711,0.003042,-0.087824,0.000000,-0.092430,-0.100396,0.000000
1.340000,-2.425939,-1.335498,-1.480922,0.753236,1.134739,0.010591,0.859996,0.020725,0.152850,0.932322,-0.859073,0.286263,-1.955304,3.705088,-2.265654,0.002138,-0.088818,0.000000,-0.088562,-0.098401,-0.000000
1.350000,-2.418364,-1.324149,-1.480809,0.761882,1.134903,0.012134,0.869222,0.012319,0.155599,0.911157,-0.822929,0.262479,-2.276924,3.523322,-2.492196,0.001271,-0.089792,0.000000,-0.084872,-0.096047,-0.000000
1.360000,-2.410702,-1.312800,-1.480680,0.770620,1.134985,0.013703,0.878219,0.004266,0.158099,0.886783,-0.788607,0.236419,-2.598804,3.334418,-2.712705,0.000440,-0.090739,0.000000,-0.081362,-0.093333,-0.000000
1.370000,-2.402952,-1.301450,-1.480535,0.779447,1.134988,0.015296,0.886957,-0.003453,0.160327,0.859181,-0.756241,0.208224,-2.922285,3.128026,-2.909883,-0.000356,-0.091658,0.000000,-0.078045,-0.090258,-0.000000
1.380000,-2.395113,-1.290100,-1.480374,0.788359,1.134916,0.016909,0.895403,-0.010859,0.162264,0.828338,-0.726046,0.178222,-3.245055,2.906991,-3.083135,-0.001121,-0.092545,0.000000,-0.074945,-0.086825,-0.000000
1.390000,-2.387184,-1.278751,-1.480197,0.797355,1.134771,0.018541,0.903524,-0.017974,0.163892,0.794280,-0.698101,0.146562,-3.563756,2.685720,-3.253181,-0.001855,-0.093395,0.000000,-0.072069,-0.083037,-0.000000
1.400000,-2.379166,-1.267404,-1.480003,0.806430,1.134557,0.020187,0.911289,-0.024821,0.165195,0.757063,-0.672332,0.113158,-3.878052,2.468656,-3.428428,-0.002562,-0.094205,0.000000,-0.069411,-0.078898,0.000000
1.410000,-2.371056,-1.256060,-1.479793,0.815580,1.134275,0.021845,0.918665,-0.031421,0.166155,0.716719,-0.648728,0.077993,-4.188725,2.246666,-3.592481,-0.003243,-0.094973,0.000000,-0.066968,-0.074414,0.000000
1.420000,-2.362854,-1.244719,-1.479566,0.824803,1.133928,0.023510,0.925623,-0.037795,0.166755,0.673288,-0.627399,0.041309,-4.493610,2.010483,-3.720922,-0.003901,-0.095693,0.000000,-0.064753,-0.069589,-0.000000
1.430000,-2.354560,-1.233382,-1.479323,0.834093,1.133519,0.025180,0.932131,-0.043969,0.166981,0.626847,-0.608518,0.003575,-4.790902,1.763390,-3.816204,-0.004538,-0.096364,0.000000,-0.062784,-0.064438,0.000000
1.440000,-2.346172,-1.222049,-1.479063,0.843446,1.133049,0.026850,0.938160,-0.049966,0.166826,0.577470,-0.592131,-0.035016,-5.081799,1.518664,-3.908759,-0.005157,-0.096982,0.000000,-0.061066,-0.058972,0.000000
1.450000,-2.337691,-1.210721,-1.478786,0.852856,1.132520,0.028516,0.943680,-0.055811,0.166281,0.525211,-0.578145,-0.074600,-5.368524,1.279627,-4.008881,-0.005760,-0.097544,0.000000,-0.059589,-0.053194,0.000000
1.460000,-2.329115,-1.199398,-1.478492,0.862319,1.131933,0.030176,0.948664,-0.061529,0.165334,0.470100,-0.566538,-0.115193,-5.648719,1.038238,-4.094214,-0.006349,-0.098046,0.000000,-0.058351,-0.047110,0.000000
1.470000,-2.320445,-1.188082,-1.478182,0.871829,1.131289,0.031823,0.953082,-0.067142,0.163977,0.412236,-0.557380,-0.156485,-5.913566,0.788757,-4.137013,-0.006927,-0.098486,0.000000,-0.057360,-0.040735,0.000000
1.480000,-2.311679,-1.176772,-1.477856,0.881381,1.130590,0.033455,0.956909,-0.072676,0.162205,0.351828,-0.550763,-0.197933,-6.162085,0.534633,-4.142226,-0.007496,-0.098861,0.000000,-0.056626,-0.034096,-0.000000
1.490000,-2.302817,-1.165470,-1.477513,0.890967,1.129835,0.035067,0.960119,-0.078157,0.160018,0.288995,-0.546688,-0.239329,-6.404467,0.284657,-4.145231,-0.008059,-0.099168,0.000000,-0.056148,-0.027210,0.000000
1.500000,-2.293859,-1.154176,-1.477154,0.900583,1.129027,0.036655,0.962689,-0.083610,0.157418,0.223739,-0.545070,-0.280838,-6.644359,0.040225,-4.156650,-0.008619,-0.099405,0.000000,-0.055918,-0.020077,0.000000
1.510000,-2.284805,-1.142890,-1.476780,0.910221,1.128163,0.038216,0.964594,-0.089059,0.154402,0.156107,-0.545883,-0.322462,-6.873458,-0.203333,-4.151584,-0.009178,-0.099570,0.000000,-0.055933,-0.012704,0.000000
1.520000,-2.275655,-1.131612,-1.476390,0.919875,1.127245,0.039744,0.965811,-0.094528,0.150969,0.086270,-0.549137,-0.363870,-7.080574,-0.446584,-4.103135,-0.009738,-0.099659,0.000000,-0.056193,-0.005113,0.000000
1.530000,-2.266408,-1.120345,-1.475985,0.929537,1.126273,0.041235,0.966319,-0.100041,0.147124,0.014496,-0.554815,-0.404525,-7.266883,-0.686710,-4.017930,-0.010301,-0.099672,0.000000,-0.056698,0.002660,-0.000000
1.540000,-2.257064,-1.109087,-1.475565,0.939201,1.125245,0.042686,0.966101,-0.105624,0.142878,-0.059068,-0.562871,-0.444228,-7.445750,-0.921680,-3.930876,-0.010872,-0.099606,0.000000,-0.057442,0.010596,-0.000000
1.550000,-2.247624,-1.097840,-1.475131,0.948859,1.124160,0.044093,0.965138,-0.111299,0.138240,-0.134419,-0.573248,-0.483143,-7.620914,-1.152413,-3.851371,-0.011450,-0.099460,0.000000,-0.058419,0.018696,0.000000
1.560000,-2.238087,-1.086604,-1.474684,0.958504,1.123019,0.045451,0.963412,-0.117089,0.133215,-0.211486,-0.585919,-0.521256,-7.782203,-1.378800,-3.755715,-0.012040,-0.099232,0.000000,-0.059626,0.026949,0.000000
1.570000,-2.228454,-1.075379,-1.474222,0.968128,1.121818,0.046757,0.960908,-0.123017,0.127814,-0.290063,-0.600824,-0.558257,-7.918734,-1.595658,-3.621617,-0.012643,-0.098921,0.000000,-0.061057,0.035330,0.000000
1.580000,-2.218724,-1.064167,-1.473748,0.977722,1.120558,0.048007,0.957611,-0.129105,0.122050,-0.369861,-0.617832,-0.593688,-8.032394,-1.801449,-3.456279,-0.013261,-0.098526,0.000000,-0.062698,0.043803,0.000000
1.590000,-2.208899,-1.052968,-1.473262,0.987280,1.119236,0.049198,0.953511,-0.135374,0.115941,-0.450711,-0.636853,-0.627382,-8.136362,-2.001695,-3.289236,-0.013897,-0.098045,0.000000,-0.064539,0.052348,0.000000
1.600000,-2.198979,-1.041783,-1.472764,0.996793,1.117851,0.050326,0.948597,-0.141842,0.109503,-0.532588,-0.657866,-0.659473,-8.235784,-2.199192,-3.127530,-0.014552,-0.097479,0.000000,-0.066579,0.060962,0.000000
1.610000,-2.188963,-1.030611,-1.472256,1.006252,1.116400,0.051388,0.942859,-0.148531,0.102751,-0.615427,-0.680837,-0.689933,-8.320807,-2.388745,-2.951890,-0.015228,-0.096826,0.000000,-0.068813,0.069637,-0.000000
1.620000,-2.178854,-1.019455,-1.471737,1.015650,1.114880,0.052381,0.936288,-0.155459,0.095704,-0.699004,-0.705641,-0.718511,-8.376803,-2.560949,-2.747174,-0.015928,-0.096086,0.000000,-0.071228,0.078347,0.000000
1.630000,-2.168650,-1.008314,-1.471208,1.024978,1.113290,0.053302,0.928879,-0.162644,0.088381,-0.782963,-0.732056,-0.744876,-8.405727,-2.715792,-2.520125,-0.016653,-0.095259,0.000000,-0.073802,0.087052,0.000000
1.640000,-2.158354,-0.997189,-1.470671,1.034227,1.111627,0.054149,0.920629,-0.170100,0.080806,-0.867119,-0.759957,-0.768913,-8.426357,-2.864412,-2.291460,-0.017404,-0.094345,0.000000,-0.076523,0.095732,-0.000000
1.650000,-2.147966,-0.986081,-1.470125,1.043390,1.109888,0.054918,0.911537,-0.177843,0.073003,-0.951490,-0.789344,-0.790706,-8.444120,-3.011579,-2.065133,-0.018183,-0.093344,0.000000,-0.079388,0.104389,0.000000
1.660000,-2.137486,-0.974991,-1.469572,1.052458,1.108070,0.055609,0.901599,-0.185887,0.064992,-1.036001,-0.820189,-0.810216,-8.445773,-3.148433,-1.828500,-0.018992,-0.092256,0.000000,-0.082397,0.113015,0.000000
1.670000,-2.126917,-0.963920,-1.469013,1.061422,1.106171,0.056218,0.890817,-0.194247,0.056798,-1.120405,-0.852313,-0.827276,-8.417876,-3.260891,-1.574880,-0.019831,-0.091083,0.000000,-0.085530,0.121584,0.000000
1.680000,-2.116258,-0.952868,-1.468448,1.070274,1.104186,0.056745,0.879191,-0.202933,0.048447,-1.204359,-0.885406,-0.841713,-8.364092,-3.350257,-1.309659,-0.020702,-0.089824,0.000000,-0.088757,0.130061,0.000000
1.690000,-2.105511,-0.941836,-1.467878,1.079006,1.102112,0.057187,0.866729,-0.211955,0.039964,-1.287687,-0.919318,-0.853469,-8.301745,-3.434128,-1.042965,-0.021606,-0.088481,0.000000,-0.092062,0.138427,0.000000
1.700000,-2.094678,-0.930825,-1.467304,1.087609,1.099946,0.057544,0.853438,-0.221320,0.031377,-1.370394,-0.954089,-0.862573,-8.234746,-3.517921,-0.775456,-0.022544,-0.087055,0.000000,-0.095451,0.146686,-0.000000
1.710000,-2.083759,-0.919837,-1.466727,1.096075,1.097686,0.057814,0.839322,-0.231037,0.022713,-1.452382,-0.989677,-0.868978,-8.151330,-3.588810,-0.501984,-0.023515,-0.085547,0.000000,-0.098918,0.154827,-0.000000
1.720000,-2.072756,-0.908872,-1.466148,1.104395,1.095326,0.057998,0.824390,-0.241113,0.013998,-1.533420,-1.025865,-0.872612,-8.042362,-3.632523,-0.224383,-0.024522,-0.083958,0.000000,-0.102444,0.162829,0.000000
1.730000,-2.061671,-0.897931,-1.465567,1.112563,1.092863,0.058094,0.808653,-0.251554,0.005260,-1.613229,-1.062327,-0.873466,-7.911499,-3.652080,0.053881,-0.025564,-0.082289,0.000000,-0.105995,0.170666,0.000000
1.740000,-2.050505,-0.887015,-1.464986,1.120568,1.090295,0.058103,0.792125,-0.262360,-0.003471,-1.691650,-1.098907,-0.871535,-7.770714,-3.665438,0.333561,-0.026642,-0.080544,0.000000,-0.109556,0.178323,0.000000
1.750000,-2.039260,-0.876125,-1.464405,1.128405,1.087616,0.058025,0.774820,-0.273532,-0.012170,-1.768644,-1.135636,-0.866794,-7.622839,-3.677596,0.616634,-0.027755,-0.078722,0.000000,-0.113131,0.185800,0.000000
1.760000,-2.027937,-0.865262,-1.463826,1.136065,1.084824,0.057860,0.756752,-0.285073,-0.020807,-1.844107,-1.172459,-0.859202,-7.460063,-3.675932,0.900749,-0.028904,-0.076826,0.000000,-0.116717,0.193087,-0.000000
1.770000,-2.016538,-0.854428,-1.463248,1.143540,1.081915,0.057609,0.737938,-0.296981,-0.029354,-1.917845,-1.209154,-0.848779,-7.276074,-3.647613,1.177599,-0.030089,-0.074858,0.000000,-0.120292,0.200168,-0.000000
1.780000,-2.005066,-0.843624,-1.462673,1.150824,1.078884,0.057273,0.718396,-0.309256,-0.037783,-1.989628,-1.245411,-0.835650,-7.073600,-3.595929,1.445958,-0.031310,-0.072821,0.000000,-0.123825,0.207025,-0.000000
1.790000,-1.993522,-0.832851,-1.462103,1.157908,1.075729,0.056853,0.698145,-0.321890,-0.046067,-2.059317,-1.281073,-0.819860,-6.861284,-3.537424,1.715107,-0.032566,-0.070716,0.000000,-0.127302,0.213645,0.000000
1.800000,-1.981908,-0.822109,-1.461536,1.164787,1.072447,0.056351,0.677209,-0.334877,-0.054180,-2.126854,-1.316159,-0.801348,-6.640823,-3.477139,1.988892,-0.033856,-0.068546,0.000000,-0.130725,0.220027,0.000000
1.810000,-1.970226,-0.811402,-1.460975,1.171452,1.069032,0.055770,0.655608,-0.348213,-0.062094,-2.192133,-1.350616,-0.780082,-6.406926,-3.403749,2.259276,-0.035180,-0.066313,0.000000,-0.134093,0.226163,-0.000000
1.820000,-1.958479,-0.800729,-1.460421,1.177899,1.065482,0.055110,0.633367,-0.361890,-0.069782,-2.254993,-1.384234,-0.756162,-6.156705,-3.304778,2.513828,-0.036538,-0.064020,0.000000,-0.137384,0.232040,-0.000000
1.830000,-1.946668,-0.790092,-1.459873,1.184120,1.061794,0.054374,0.610509,-0.375897,-0.077217,-2.315267,-1.416711,-0.729806,-5.892371,-3.183497,2.753292,-0.037928,-0.061669,0.000000,-0.140569,0.237648,-0.000000
1.840000,-1.934796,-0.779493,-1.459333,1.190109,1.057964,0.053565,0.587061,-0.390224,-0.084378,-2.372840,-1.447904,-0.701097,-5.618260,-3.056510,2.992423,-0.039349,-0.059263,0.000000,-0.143635,0.242977,-0.000000
1.850000,-1.922866,-0.768933,-1.458802,1.195861,1.053990,0.052686,0.563052,-0.404856,-0.091239,-2.427633,-1.477842,-0.669957,-5.334923,-2.927916,3.235859,-0.040801,-0.056806,0.000000,-0.146587,0.248023,0.000000
1.860000,-1.910879,-0.758413,-1.458280,1.201370,1.049867,0.051740,0.538509,-0.419781,-0.097777,-2.479538,-1.506463,-0.636379,-5.040139,-2.786760,3.472186,-0.042281,-0.054299,0.000000,-0.149421,0.252779,-0.000000
1.870000,-1.898839,-0.747935,-1.457767,1.206631,1.045594,0.050731,0.513461,-0.434985,-0.103967,-2.528435,-1.533577,-0.600514,-4.733952,-2.624217,3.687716,-0.043789,-0.051745,0.000000,-0.152120,0.257237,-0.000000
1.880000,-1.886747,-0.737501,-1.457265,1.211639,1.041168,0.049661,0.487940,-0.450452,-0.109787,-2.574218,-1.558947,-0.562625,-4.417731,-2.443949,3.884616,-0.045324,-0.049149,0.000000,-0.154659,0.261391,-0.000000
1.890000,-1.874606,-0.727112,-1.456774,1.216390,1.036585,0.048535,0.461977,-0.466164,-0.115219,-2.616790,-1.582456,-0.522821,-4.092121,-2.257928,4.079506,-0.046882,-0.046512,0.000000,-0.157028,0.265235,-0.000000
1.900000,-1.862419,-0.716769,-1.456294,1.220879,1.031844,0.047357,0.435604,-0.482101,-0.120244,-2.656060,-1.604106,-0.481035,-3.756958,-2.069045,4.276782,-0.048464,-0.043838,0.000000,-0.159231,0.268763,-0.000000
1.910000,-1.850188,-0.706475,-1.455827,1.225102,1.026943,0.046130,0.408855,-0.498246,-0.124840,-2.691929,-1.623837,-0.437286,-3.412558,-1.869826,4.464158,-0.050067,-0.041130,0.000000,-0.161262,0.271967,0.000000
1.920000,-1.837917,-0.696231,-1.455372,1.229056,1.021879,0.044860,0.381765,-0.514578,-0.128990,-2.724311,-1.641502,-0.391752,-3.060675,-1.654506,4.629427,-0.051689,-0.038392,0.000000,-0.163107,0.274844,0.000000
1.930000,-1.825607,-0.686037,-1.454930,1.232737,1.016651,0.043550,0.354369,-0.531076,-0.132675,-2.753143,-1.656927,-0.344697,-2.701879,-1.425966,4.775536,-0.053329,-0.035626,0.000000,-0.164751,0.277389,-0.000000
1.940000,-1.813262,-0.675898,-1.454501,1.236143,1.011258,0.042206,0.326703,-0.547716,-0.135883,-2.778349,-1.670021,-0.296241,-2.334707,-1.192527,4.917286,-0.054985,-0.032836,0.000000,-0.166184,0.279600,-0.000000
1.950000,-1.800884,-0.665812,-1.454085,1.239271,1.005697,0.040833,0.298802,-0.564476,-0.138600,-2.799837,-1.680777,-0.246351,-1.958742,-0.955900,5.058073,-0.056653,-0.030026,0.000000,-0.167407,0.281467,0.000000
1.960000,-1.788477,-0.655784,-1.453684,1.242119,0.999968,0.039434,0.270706,-0.581332,-0.140810,-2.817524,-1.689139,-0.195080,-1.575663,-0.711343,5.187381,-0.058333,-0.027198,0.000000,-0.168417,0.282987,0.000000
1.970000,-1.776042,-0.645813,-1.453297,1.244685,0.994070,0.038017,0.242452,-0.598259,-0.142502,-2.831350,-1.695004,-0.142604,-1.187711,-0.456579,5.296145,-0.060021,-0.024356,0.000000,-0.169203,0.284154,0.000000
1.980000,-1.763583,-0.635902,-1.452924,1.246968,0.988003,0.036584,0.214079,-0.615232,-0.143663,-2.841278,-1.698271,-0.089157,-0.794889,-0.193884,5.387224,-0.061717,-0.021504,0.000000,-0.169756,0.284967,-0.000000
1.990000,-1.751103,-0.626053,-1.452565,1.248967,0.981766,0.035143,0.185626,-0.632225,-0.144285,-2.847248,-1.698882,-0.034859,-0.395193,0.072827,5.471534,-0.063417,-0.018646,0.000000,-0.170069,0.285423,0.000000
2.000000,-1.738604,-0.616267,-1.452221,1.250681,0.975359,0.033699,0.157134,-0.649210,-0.144360,-2.849182,-1.696814,0.020274,0.011330,0.342963,5.550738,-0.065118,-0.015784,0.000000,-0.170142,0.285515,0.000000
2.010000,-1.726089,-0.606546,-1.451891,1.252110,0.968782,0.032256,0.128643,-0.666161,-0.143879,-2.847021,-1.692023,0.076155,0.422748,0.618160,5.617266,-0.066820,-0.012923,0.000000,-0.169970,0.285237,-0.000000
2.020000,-1.713561,-0.596891,-1.451576,1.253254,0.962035,0.030821,0.100193,-0.683050,-0.142837,-2.840727,-1.684451,0.132619,0.838027,0.897902,5.666714,-0.068518,-0.010066,0.000000,-0.169548,0.284586,0.000000
2.030000,-1.701024,-0.587305,-1.451275,1.254113,0.955121,0.029399,0.071828,-0.699850,-0.141227,-2.830261,-1.674065,0.189490,1.257435,1.180890,5.701422,-0.070211,-0.007218,0.000000,-0.168871,0.283561,-0.000000
2.040000,-1.688479,-0.577789,-1.450988,1.254690,0.948038,0.027997,0.043588,-0.716532,-0.139047,-2.815578,-1.660833,0.246648,1.681426,1.466687,5.726573,-0.071895,-0.004381,0.000000,-0.167936,0.282155,-0.000000
2.050000,-1.675930,-0.568344,-1.450715,1.254985,0.940790,0.026618,0.015516,-0.733067,-0.136294,-2.796632,-1.644731,0.304021,2.108803,1.754487,5.742203,-0.073569,-0.001560,0.000000,-0.166740,0.280364,-0.000000
2.060000,-1.663379,-0.558973,-1.450455,1.255001,0.933377,0.025271,-0.012344,-0.749426,-0.132966,-2.773402,-1.625744,0.361492,2.538718,2.043595,5.744770,-0.075230,0.001242,0.000000,-0.165282,0.278187,-0.000000
2.070000,-1.650830,-0.549677,-1.450209,1.254738,0.925801,0.023959,-0.039952,-0.765581,-0.129064,-2.745858,-1.603859,0.418917,2.973158,2.334404,5.734030,-0.076875,0.004020,0.000000,-0.163558,0.275618,-0.000000
2.080000,-1.638285,-0.540457,-1.449976,1.254201,0.918065,0.022689,-0.067262,-0.781503,-0.124588,-2.713939,-1.579056,0.476172,3.412116,2.626615,5.711246,-0.078501,0.006770,0.000000,-0.161567,0.272651,-0.000000
2.090000,-1.625746,-0.531315,-1.449756,1.253393,0.910171,0.021467,-0.094230,-0.797163,-0.119541,-2.677615,-1.551327,0.533141,3.851991,2.918277,5.676316,-0.080107,0.009490,0.000000,-0.159304,0.269280,-0.000000
2.100000,-1.613217,-0.522254,-1.449547,1.252317,0.902122,0.020299,-0.120814,-0.812530,-0.113925,-2.636899,-1.520690,0.589699,4.291324,3.207195,5.628216,-0.081688,0.012173,0.000000,-0.156772,0.265507,0.000000
2.110000,-1.600700,-0.513273,-1.449350,1.250977,0.893921,0.019189,-0.146968,-0.827576,-0.107747,-2.591789,-1.487183,0.645706,4.731960,3.493806,5.567020,-0.083242,0.014818,0.000000,-0.153971,0.261328,-0.000000
2.120000,-1.588197,-0.504375,-1.449163,1.249377,0.885571,0.018144,-0.172650,-0.842273,-0.101011,-2.542260,-1.450814,0.701039,5.175924,3.781870,5.495057,-0.084767,0.017418,0.000000,-0.150901,0.256737,-0.000000
2.130000,-1.575712,-0.495562,-1.448987,1.247524,0.877075,0.017169,-0.197814,-0.856593,-0.093726,-2.488271,-1.411545,0.755607,5.622439,4.071012,5.412446,-0.086260,0.019971,0.000000,-0.147556,0.251730,-0.000000
2.140000,-1.563247,-0.486834,-1.448820,1.245421,0.868439,0.016269,-0.222415,-0.870504,-0.085899,-2.429811,-1.369394,0.809288,6.067876,4.354562,5.315797,-0.087718,0.022472,0.000000,-0.143935,0.246300,0.000000
2.150000,-1.550804,-0.478193,-1.448661,1.243076,0.859665,0.015451,-0.246410,-0.883980,-0.077540,-2.366913,-1.324454,0.861923,6.509400,4.628110,5.203899,-0.089139,0.024916,0.000000,-0.140045,0.240447,0.000000
2.160000,-1.538385,-0.469640,-1.448511,1.240493,0.850759,0.014718,-0.269753,-0.896993,-0.068661,-2.299623,-1.276831,0.913366,6.948924,4.895338,5.079003,-0.090519,0.027300,0.000000,-0.135893,0.234174,0.000000
2.170000,-1.525994,-0.461178,-1.448367,1.237680,0.841725,0.014077,-0.292402,-0.909517,-0.059273,-2.227935,-1.226547,0.963503,7.392577,5.165314,4.943528,-0.091857,0.029619,0.000000,-0.131479,0.227473,-0.000000
2.180000,-1.513632,-0.452806,-1.448229,1.234645,0.832569,0.013533,-0.314312,-0.921524,-0.049391,-2.151771,-1.173525,1.012237,7.839366,5.437633,4.796625,-0.093149,0.031869,0.000000,-0.126791,0.220335,0.000000
2.190000,-1.501301,-0.444526,-1.448096,1.231394,0.823295,0.013090,-0.335438,-0.932988,-0.039028,-2.071147,-1.117795,1.059435,8.279955,5.698108,4.634962,-0.094393,0.034045,0.000000,-0.121830,0.212754,-0.000000
2.200000,-1.489004,-0.436340,-1.447967,1.227936,0.813909,0.012752,-0.355735,-0.943880,-0.028202,-1.986172,-1.059563,1.104936,8.712751,5.934057,4.458401,-0.095585,0.036143,0.000000,-0.116612,0.204737,-0.000000
2.210000,-1.476742,-0.428248,-1.447841,1.224280,0.804417,0.012526,-0.375161,-0.954179,-0.016929,-1.896892,-0.999114,1.148603,9.143230,6.154575,4.268983,-0.096725,0.038158,0.000000,-0.111161,0.196283,0.000000
2.220000,-1.464518,-0.420252,-1.447717,1.220433,0.794826,0.012414,-0.393673,-0.963863,-0.005230,-1.803308,-0.936471,1.190315,9.573260,6.389099,4.066232,-0.097809,0.040087,0.000000,-0.105476,0.187387,-0.000000
2.230000,-1.452334,-0.412352,-1.447593,1.216406,0.785140,0.012421,-0.411227,-0.972908,0.006877,-1.705427,-0.871332,1.229928,10.015339,6.605755,3.848931,-0.098834,0.041924,0.000000,-0.099523,0.178043,0.000000
2.240000,-1.440190,-0.404549,-1.447468,1.212208,0.775367,0.012551,-0.427781,-0.981289,0.019369,-1.603001,-0.804356,1.267294,10.462131,6.770159,3.617748,-0.099799,0.043665,0.000000,-0.093363,0.168220,0.000000
2.250000,-1.428089,-0.396844,-1.447342,1.207850,0.765514,0.012808,-0.443287,-0.988995,0.032223,-1.496184,-0.735928,1.302283,10.802172,7.088289,3.375064,-0.100702,0.045305,0.000000,-0.087030,0.157927,-0.000000
2.260000,-1.416033,-0.389238,-1.447212,1.203343,0.755587,0.013196,-0.457705,-0.996008,0.045414,-1.386957,-0.662591,1.334795,11.047839,7.565452,3.120011,-0.101540,0.046840,0.000000,-0.080170,0.147359,0.000000
2.270000,-1.404023,-0.381732,-1.447078,1.198696,0.745594,0.013717,-0.471026,-1.002247,0.058919,-1.275228,-0.584619,1.364683,11.513960,7.604344,2.845729,-0.102305,0.048268,0.000000,-0.072805,0.136501,0.000000
2.280000,-1.392059,-0.374327,-1.446938,1.193922,0.735542,0.014374,-0.483210,-1.007700,0.072708,-1.156678,-0.510504,1.391710,12.152349,7.289784,2.551296,-0.102996,0.049584,0.000000,-0.065789,0.124906,0.000000
2.290000,-1.380144,-0.367022,-1.446791,1.189032,0.725440,0.015171,-0.494160,-1.012457,0.086753,-1.032181,-0.438824,1.415709,12.538833,7.421998,2.246122,-0.103621,0.050779,0.000000,-0.058978,0.112656,0.000000
2.300000,-1.368279,-0.359818,-1.446635,1.184039,0.715293,0.016109,-0.503853,-1.016477,0.101022,-0.905902,-0.362064,1.436632,13.017803,7.297890,1.937529,-0.104175,0.051849,0.000000,-0.051602,0.100167,0.000000
2.310000,-1.356463,-0.352716,-1.446468,1.178955,0.705111,0.017191,-0.512278,-1.019699,0.115486,-0.771825,-0.292866,1.454460,13.840188,6.443708,1.618604,-0.104653,0.052793,0.000000,-0.044945,0.086821,0.000000
2.320000,-1.344699,-0.345716,-1.446291,1.173793,0.694899,0.018419,-0.519290,-1.022334,0.130112,-0.629098,-0.233190,1.469004,13.910947,7.073781,1.270021,-0.105074,0.053595,0.000000,-0.039212,0.072519,0.000000
2.330000,-1.332987,-0.338818,-1.446100,1.168569,0.684664,0.019793,-0.524860,-1.024362,0.144866,-0.493606,-0.151390,1.479860,13.185906,9.258950,0.892850,-0.105437,0.054251,0.000000,-0.031155,0.058882,0.000000
2.340000,-1.321328,-0.332022,-1.445895,1.163296,0.674412,0.021316,-0.529162,-1.025362,0.159709,-0.365380,-0.048011,1.486861,13.176839,9.938825,0.513520,-0.105697,0.054779,0.000000,-0.020811,0.045914,-0.000000
2.350000,-1.309722,-0.325329,-1.445674,1.157986,0.664157,0.022988,-0.532168,-1.025323,0.174603,-0.230069,0.047386,1.490131,13.425248,10.058596,0.139847,-0.105853,0.055174,0.000000,-0.011205,0.032139,0.000000
2.360000,-1.298168,-0.318739,-1.445435,1.152653,0.653906,0.024808,-0.533763,-1.024414,0.189511,-0.096875,0.153161,1.489658,12.961594,11.573868,-0.246040,-0.105921,0.055425,0.000000,-0.000452,0.018499,0.000000
2.370000,-1.286668,-0.312251,-1.445178,1.147311,0.643668,0.026778,-0.534105,-1.022259,0.204396,0.029163,0.278864,1.485210,13.503286,10.953449,-0.660986,-0.105862,0.055546,0.000000,0.012449,0.005513,-0.000000
2.380000,-1.275222,-0.305866,-1.444900,1.141971,0.633460,0.028896,-0.533180,-1.018837,0.219216,0.173191,0.372230,1.476439,15.420961,7.459949,-1.100260,-0.105672,0.055536,0.000000,0.022118,-0.009418,0.000000
2.390000,-1.263829,-0.299582,-1.444600,1.136647,0.623292,0.031162,-0.530641,-1.014815,0.233925,0.337582,0.428063,1.463205,16.271062,6.103729,-1.541047,-0.105419,0.055357,0.000000,0.027995,-0.026555,0.000000
2.400000,-1.252489,-0.293400,-1.444276,1.131358,0.613164,0.033575,-0.526428,-1.010276,0.248480,0.498612,0.494305,1.445618,16.035563,6.805299,-1.971410,-0.105112,0.055001,0.000000,0.035025,-0.043450,-0.000000
2.410000,-1.241202,-0.287319,-1.443928,1.126119,0.603086,0.036132,-0.520669,-1.004929,0.262837,0.658294,0.564169,1.423776,16.350327,6.214629,-2.406489,-0.104719,0.054483,0.000000,0.042514,-0.060306,-0.000000
2.420000,-1.229967,-0.281338,-1.443554,1.120945,0.593066,0.038831,-0.513262,-0.998992,0.276955,0.825619,0.618597,1.397488,16.549041,6.015519,-2.876217,-0.104262,0.053788,0.000000,0.048483,-0.078060,-0.000000
2.430000,-1.218783,-0.275458,-1.443151,1.115853,0.583106,0.041671,-0.504157,-0.992557,0.290787,0.989274,0.684479,1.366252,15.928129,7.599007,-3.376493,-0.103749,0.052913,0.000000,0.055726,-0.095537,0.000000
2.440000,-1.207650,-0.269676,-1.442720,1.110861,0.573214,0.044647,-0.493477,-0.985303,0.304280,1.144181,0.770578,1.329958,15.556567,8.340554,-3.865523,-0.103147,0.051867,0.000000,0.065168,-0.112201,-0.000000
2.450000,-1.196566,-0.263993,-1.442259,1.105984,0.563400,0.047756,-0.481273,-0.977145,0.317386,1.300406,0.851290,1.288942,16.271797,6.889999,-4.331723,-0.102445,0.050656,0.000000,0.074145,-0.129093,0.000000
2.460000,-1.185530,-0.258408,-1.441765,1.101236,0.553672,0.050995,-0.467469,-0.968277,0.330059,1.469617,0.908378,1.243324,17.263932,5.159022,-4.802215,-0.101664,0.049271,0.000000,0.080739,-0.147431,0.000000
2.470000,-1.174541,-0.252920,-1.441239,1.096634,0.544035,0.054358,-0.451881,-0.958978,0.342253,1.645684,0.954471,1.192897,16.572603,5.995863,-5.299847,-0.100831,0.047692,0.000000,0.086259,-0.166575,-0.000000
2.480000,-1.163597,-0.247527,-1.440678,1.092198,0.534492,0.057840,-0.434555,-0.949187,0.353917,1.801069,1.028295,1.137327,14.582417,8.552566,-5.815732,-0.099939,0.045923,0.000000,0.094766,-0.183629,-0.000000
2.490000,-1.152697,-0.242230,-1.440082,1.087943,0.525051,0.061436,-0.415859,-0.938412,0.364999,1.937333,1.125522,1.076583,13.888792,9.122871,-6.317804,-0.098935,0.044001,0.000000,0.105821,-0.198735,-0.000000
2.500000,-1.141838,-0.237026,-1.439449,1.083881,0.515724,0.065140,-0.395808,-0.926677,0.375449,2.078845,1.210752,1.010971,13.489169,9.384944,-6.793655,-0.097822,0.041928,0.000000,0.115702,-0.214439,-0.000000
2.510000,-1.131019,-0.231916,-1.438779,1.080027,0.506517,0.068945,-0.374282,-0.914197,0.385219,2.207116,1.313221,0.940709,11.756574,11.627083,-7.263120,-0.096621,0.039692,0.000000,0.127471,-0.228784,0.000000
2.520000,-1.120238,-0.226896,-1.438070,1.076396,0.497440,0.072844,-0.351666,-0.900412,0.394263,2.313977,1.443294,0.865708,12.103572,10.353548,-7.753758,-0.095273,0.037331,0.000000,0.142230,-0.240887,-0.000000
2.530000,-1.109492,-0.221967,-1.437322,1.072994,0.488509,0.076830,-0.328003,-0.885331,0.402533,2.449188,1.520292,0.785634,15.130225,4.698911,-8.258391,-0.093776,0.034852,0.000000,0.151469,-0.255991,-0.000000
2.540000,-1.098778,-0.217126,-1.436534,1.069835,0.479733,0.080895,-0.302682,-0.870007,0.409976,2.616581,1.537272,0.700540,16.024880,2.382942,-8.736949,-0.092243,0.032189,0.000000,0.154418,-0.274501,0.000000
2.550000,-1.088095,-0.212372,-1.435704,1.066940,0.471109,0.085030,-0.275671,-0.854585,0.416543,2.769685,1.567951,0.610895,15.024177,3.112439,-9.179129,-0.090688,0.029339,0.000000,0.158839,-0.291489,0.000000
2.560000,-1.077439,-0.207704,-1.434833,1.064322,0.462642,0.089226,-0.247289,-0.838648,0.422193,2.917065,1.599521,0.516958,15.330805,1.744227,-9.609265,-0.089066,0.026335,0.000000,0.163376,-0.307839,-0.000000
2.570000,-1.066808,-0.203119,-1.433920,1.061994,0.454336,0.093474,-0.217330,-0.822595,0.426883,3.076301,1.602835,0.418710,14.907587,1.249136,-10.044382,-0.087421,0.023158,0.000000,0.164934,-0.325399,-0.000000
2.580000,-1.056199,-0.198617,-1.432964,1.059975,0.446190,0.097763,-0.185763,-0.806591,0.430568,3.215216,1.624504,0.316070,12.512479,3.589124,-10.473593,-0.085768,0.019803,0.000000,0.168440,-0.340736,-0.000000
2.590000,-1.045609,-0.194195,-1.431964,1.058279,0.438204,0.102085,-0.153026,-0.790105,0.433204,3.326551,1.674618,0.209238,11.221907,4.246693,-10.871153,-0.084052,0.016318,0.000000,0.174959,-0.353055,0.000000
2.600000,-1.035034,-0.189853,-1.430922,1.056915,0.430388,0.106428,-0.119232,-0.773099,0.434752,3.439655,1.709437,0.098647,11.642298,2.454856,-11.236797,-0.082269,0.012717,0.000000,0.179846,-0.365453,0.000000
2.610000,-1.024471,-0.185588,-1.429836,1.055895,0.422742,0.110780,-0.084232,-0.755916,0.435177,3.559397,1.723715,-0.015498,11.625667,1.368595,-11.583840,-0.080455,0.008985,0.000000,0.182531,-0.378432,-0.000000
2.620000,-1.013916,-0.181398,-1.428706,1.055230,0.415269,0.115131,-0.048044,-0.738624,0.434442,3.672168,1.736809,-0.133030,10.551168,1.499070,-11.902970,-0.078618,0.005124,0.000000,0.185057,-0.390527,0.000000
2.630000,-1.003366,-0.177282,-1.427533,1.054934,0.407970,0.119469,-0.010789,-0.721180,0.432516,3.770420,1.753696,-0.253557,9.207819,1.746628,-12.185263,-0.076754,0.001151,0.000000,0.187944,-0.400918,0.000000
2.640000,-0.992817,-0.173239,-1.426317,1.055015,0.400846,0.123781,0.027365,-0.703550,0.429371,3.856324,1.771742,-0.376735,8.254128,1.692240,-12.440092,-0.074860,-0.002917,0.000000,0.190900,-0.409823,-0.000000
2.650000,-0.982266,-0.169265,-1.425058,1.055481,0.393899,0.128056,0.066337,-0.685745,0.424982,3.935503,1.787541,-0.502359,7.299812,1.474506,-12.674921,-0.072937,-0.007068,0.000000,0.193557,-0.417826,0.000000
2.660000,-0.971708,-0.165361,-1.423756,1.056341,0.387131,0.132281,0.106075,-0.667800,0.419324,4.002321,1.801232,-0.630233,5.972541,1.320047,-12.878982,-0.070989,-0.011295,0.000000,0.195922,-0.424318,0.000000
2.670000,-0.961139,-0.161523,-1.422412,1.057602,0.380543,0.136443,0.146384,-0.649720,0.412377,4.054953,1.813942,-0.759939,5.284448,1.140750,-13.027033,-0.069018,-0.015575,0.000000,0.198104,-0.429099,-0.000000
2.680000,-0.950556,-0.157750,-1.421027,1.059269,0.374136,0.140529,0.187174,-0.631521,0.404125,4.108010,1.824047,-0.890774,5.414818,0.749137,-13.116853,-0.067027,-0.019897,0.000000,0.199925,-0.433717,-0.000000
2.690000,-0.939953,-0.154040,-1.419602,1.061346,0.367912,0.144525,0.228544,-0.613239,0.394562,4.163250,1.828925,-1.022276,4.953452,0.288338,-13.178361,-0.065020,-0.024269,0.000000,0.201101,-0.438350,0.000000
2.700000,-0.929329,-0.150392,-1.418137,1.063840,0.361872,0.148420,0.270439,-0.594942,0.383680,4.207079,1.829814,-1.154341,3.739637,0.467791,-13.230189,-0.063006,-0.028682,0.000000,0.201761,-0.441556,-0.000000
2.710000,-0.918677,-0.146803,-1.416633,1.066755,0.356014,0.152199,0.312686,-0.576643,0.371475,4.238043,1.838280,-1.286879,2.739896,1.118088,-13.247683,-0.060985,-0.033117,0.000000,0.203123,-0.443186,0.000000
2.720000,-0.907994,-0.143271,-1.415093,1.070094,0.350339,0.155849,0.355200,-0.558177,0.357942,4.261876,1.852176,-1.419295,2.056784,0.228313,-13.175774,-0.058943,-0.037561,0.000000,0.204950,-0.443851,-0.000000
2.730000,-0.897275,-0.139796,-1.413516,1.073859,0.344850,0.159358,0.397923,-0.539600,0.343089,4.279178,1.842847,-1.550395,1.334851,-2.154454,-13.015654,-0.056887,-0.042008,0.000000,0.204218,-0.443627,-0.000000
2.740000,-0.886516,-0.136374,-1.411905,1.078052,0.339547,0.162711,0.440783,-0.521320,0.326934,4.288573,1.809086,-1.679608,0.522817,-3.286564,-12.838536,-0.054859,-0.046448,0.000000,0.200816,-0.442379,-0.000000
2.750000,-0.875714,-0.133005,-1.410262,1.082674,0.334424,0.165896,0.483695,-0.503418,0.309497,4.289635,1.777115,-1.807166,-0.206434,-3.357384,-12.674439,-0.052871,-0.050869,0.000000,0.197513,-0.440074,-0.000000
2.760000,-0.864863,-0.129686,-1.408587,1.087726,0.329478,0.168901,0.526576,-0.485777,0.290791,4.284445,1.741939,-1.933097,-0.845704,-4.167962,-12.471564,-0.050909,-0.055261,0.000000,0.193790,-0.436945,-0.000000
2.770000,-0.853959,-0.126415,-1.406884,1.093206,0.324708,0.171712,0.569383,-0.468579,0.270835,4.272721,1.693756,-2.056597,-1.781641,-4.526811,-12.151932,-0.048995,-0.059618,0.000000,0.188629,-0.432980,0.000000
2.780000,-0.842999,-0.123192,-1.405153,1.099114,0.320107,0.174318,0.612030,-0.451902,0.249659,4.248812,1.651403,-2.176135,-3.058402,-3.661775,-11.726634,-0.047137,-0.063930,0.000000,0.184002,-0.427619,0.000000
2.790000,-0.831977,-0.120013,-1.403398,1.105447,0.315670,0.176705,0.654360,-0.435551,0.227312,4.211552,1.620521,-2.291130,-4.138523,-3.367965,-11.298225,-0.045315,-0.068180,0.000000,0.180491,-0.420773,0.000000
2.800000,-0.820890,-0.116878,-1.401619,1.112201,0.311396,0.178864,0.696261,-0.419492,0.203836,4.166042,1.584043,-2.402100,-4.776864,-4.460614,-10.899248,-0.043527,-0.072354,0.000000,0.176329,-0.412997,0.000000
2.810000,-0.809733,-0.113785,-1.399820,1.119372,0.307280,0.180782,0.737681,-0.403870,0.179270,4.116015,1.531308,-2.509115,-5.350939,-5.641033,-10.458914,-0.041789,-0.076447,0.000000,0.170431,-0.404698,0.000000
2.820000,-0.798502,-0.110733,-1.398003,1.126954,0.303318,0.182449,0.778582,-0.388866,0.153654,4.059023,1.471223,-2.611278,-6.437989,-5.192834,-9.899388,-0.040119,-0.080455,0.000000,0.163738,-0.395651,-0.000000
2.830000,-0.787194,-0.107719,-1.396171,1.134943,0.299503,0.183855,0.818861,-0.374446,0.127044,3.987255,1.427452,-2.707102,-7.864451,-3.639993,-9.241110,-0.038514,-0.084367,0.000000,0.158688,-0.385096,0.000000
2.840000,-0.775804,-0.104743,-1.394326,1.143332,0.295829,0.184990,0.858327,-0.360317,0.099512,3.901734,1.398423,-2.796100,-8.871056,-3.206447,-8.587221,-0.036945,-0.088163,0.000000,0.155103,-0.373182,0.000000
