time,x,y,z,vx,vy,vz,ax,ay,az,jx,jy,jz,sx,sy,sz,roll,pitch,yaw,p,q,r
0.000000,-2.524055,-1.639572,-1.462297,0.016968,-0.009945,-0.004120,-0.753737,0.411882,0.069778,19.405995,-13.677103,-2.830203,-367.063503,386.474473,76.664915,0.042136,0.077230,0.000000,-1.403224,-2.001071,0.000000
0.010000,-2.523920,-1.639653,-1.462335,0.010342,-0.006448,-0.003551,-0.577119,0.293479,0.045112,16.006524,-10.096620,-2.122239,-313.728678,330.570330,65.127182,0.029993,0.059033,0.000000,-1.034841,-1.645546,0.000000
0.020000,-2.523843,-1.639704,-1.462369,0.005321,-0.003965,-0.003196,-0.431917,0.208180,0.026968,13.113900,-7.047208,-1.523773,-265.650319,280.212751,54.755294,0.021256,0.044121,0.000000,-0.721372,-1.344426,-0.000000
0.030000,-2.523809,-1.639734,-1.462400,0.001615,-0.002191,-0.002994,-0.313322,0.150945,0.014309,10.676872,-4.474828,-1.023448,-222.565761,235.116252,45.488942,0.015400,0.031975,0.000000,-0.457545,-1.092051,0.000000
0.040000,-2.523807,-1.639749,-1.462429,-0.001020,-0.000868,-0.002895,-0.217023,0.117264,0.006208,8.646814,-2.328297,-0.610511,-184.212373,194.995354,37.267777,0.011958,0.022133,0.000000,-0.237908,-0.882869,0.000000
0.050000,-2.523827,-1.639753,-1.462458,-0.002787,0.000220,-0.002857,-0.139183,0.103121,0.001842,6.977732,-0.559287,-0.274807,-150.327220,159.564596,30.031790,0.010512,0.014190,0.000000,-0.057199,-0.711636,0.000000
0.060000,-2.523861,-1.639745,-1.462486,-0.003854,0.001248,-0.002848,-0.076410,0.104972,0.000486,5.626251,0.877677,-0.006792,-120.647931,128.538474,23.720367,0.010700,0.007789,0.000000,0.089499,-0.573488,-0.000000
0.070000,-2.523902,-1.639727,-1.462515,-0.004356,0.002362,-0.002839,-0.025735,0.119710,0.001510,4.551630,2.025213,0.202481,-94.911696,101.631510,18.273318,0.012204,0.002624,0.000000,0.206711,-0.463958,0.000000
0.080000,-2.523946,-1.639697,-1.462543,-0.004400,0.003676,-0.002811,0.015418,0.144644,0.004368,3.715750,2.923086,0.361355,-72.855792,78.558211,13.630301,0.014750,-0.001572,0.000000,0.298572,-0.378956,-0.000000
0.090000,-2.523989,-1.639653,-1.462571,-0.004072,0.005281,-0.002748,0.049257,0.177463,0.008595,3.083122,3.608204,0.477566,-54.217468,59.033072,9.730910,0.018104,-0.005025,0.000000,0.368859,-0.314745,0.000000
0.100000,-2.524027,-1.639590,-1.462598,-0.003433,0.007245,-0.002636,0.077648,0.216213,0.013801,2.620876,4.114625,0.558259,-38.734779,42.770831,6.515634,0.022067,-0.007926,0.000000,0.421015,-0.267910,0.000000
0.110000,-2.524057,-1.639507,-1.462623,-0.002532,0.009620,-0.002469,0.102141,0.259264,0.019664,2.298782,4.473546,0.609959,-26.144104,29.485732,3.923230,0.026474,-0.010432,0.000000,0.458173,-0.235343,-0.000000
0.120000,-2.524076,-1.639397,-1.462647,-0.001399,0.012440,-0.002242,0.123998,0.305287,0.025923,2.089228,4.713312,0.638600,-16.183115,18.892397,1.893761,0.031190,-0.012673,0.000000,0.483176,-0.214222,-0.000000
0.130000,-2.524084,-1.639256,-1.462668,-0.000057,0.015732,-0.001950,0.144217,0.353219,0.032377,1.967230,4.859415,0.649509,-8.589109,10.705352,0.366966,0.036106,-0.014749,0.000000,0.498581,-0.202001,-0.000000
0.140000,-2.524077,-1.639080,-1.462686,0.001482,0.019508,-0.001594,0.163560,0.402239,0.038870,1.910432,4.934489,0.647414,-3.099339,4.639158,-0.717370,0.041137,-0.016738,0.000000,0.506670,-0.196406,0.000000
0.150000,-2.524054,-1.638864,-1.462699,0.003213,0.023778,-0.001173,0.182577,0.451738,0.045295,1.899105,4.958316,0.636436,0.549039,0.408438,-1.419394,0.046221,-0.018695,0.000000,0.509446,-0.195428,0.000000
0.160000,-2.524012,-1.638603,-1.462709,0.005134,0.028543,-0.000689,0.201636,0.501291,0.051581,1.916136,4.947819,0.620084,2.617428,-2.272887,-1.800708,0.051314,-0.020660,0.000000,0.508635,-0.197326,-0.000000
0.170000,-2.523950,-1.638292,-1.462713,0.007247,0.033803,-0.000142,0.220946,0.550627,0.057689,1.947061,4.917072,0.601288,3.370104,-3.689597,-1.919932,0.056387,-0.022652,0.000000,0.505678,-0.200626,0.000000
0.180000,-2.523866,-1.637925,-1.462711,0.009554,0.039555,0.000465,0.240584,0.599603,0.063606,1.980026,4.877290,0.582356,3.069153,-4.127441,-1.838024,0.061424,-0.024679,0.000000,0.501734,-0.204119,-0.000000
0.190000,-2.523759,-1.637499,-1.462704,0.012059,0.045794,0.001129,0.260522,0.648171,0.069341,2.005808,4.836834,0.564997,1.977253,-3.871967,-1.615358,0.066421,-0.026739,0.000000,0.497671,-0.206867,-0.000000
0.200000,-2.523625,-1.637008,-1.462689,0.014765,0.052517,0.001851,0.280654,0.696356,0.074915,2.017810,4.801213,0.550323,0.357069,-3.208331,-1.311661,0.071379,-0.028821,0.000000,0.494068,-0.208197,0.000000
0.210000,-2.523463,-1.636447,-1.462666,0.017675,0.059717,0.002627,0.301793,0.742965,0.080092,2.234876,4.485841,0.477949,2.875737,-8.100305,-2.191451,0.076174,-0.031007,0.000000,0.461330,-0.230323,0.000000
0.220000,-2.523270,-1.635812,-1.462636,0.020800,0.067376,0.003453,0.322170,0.790116,0.085337,1.705401,5.115532,0.607442,-69.847423,83.837782,17.448166,0.081026,-0.033117,0.000000,0.526870,-0.176662,-0.000000
0.230000,-2.523046,-1.635098,-1.462597,0.024100,0.075541,0.004338,0.337787,0.842782,0.091718,1.655336,5.108468,0.603454,61.038730,-86.817663,-18.578744,0.086453,-0.034744,0.000000,0.526248,-0.171639,-0.000000
0.240000,-2.522788,-1.634300,-1.462549,0.027571,0.084209,0.005282,0.357360,0.889534,0.096827,2.138046,4.394982,0.451168,-3.823644,-5.187394,-1.134195,0.091264,-0.036775,0.000000,0.451891,-0.220605,-0.000000
0.250000,-2.522494,-1.633412,-1.462491,0.031248,0.093327,0.006274,0.377502,0.934542,0.101564,1.912715,4.574316,0.489521,-2.045571,-9.472916,-1.905912,0.095893,-0.038864,0.000000,0.470567,-0.197763,-0.000000
0.260000,-2.522162,-1.632432,-1.462423,0.035119,0.102899,0.007313,0.396708,0.979732,0.106360,1.932864,4.460203,0.469506,-1.897214,-10.766548,-1.998732,0.100541,-0.040860,0.000000,0.458644,-0.199818,0.000000
0.270000,-2.521791,-1.631353,-1.462345,0.039181,0.112918,0.008400,0.415516,1.023913,0.110959,1.801433,4.382869,0.450463,-16.654107,-7.185157,-1.902858,0.105083,-0.042815,0.000000,0.450513,-0.186345,0.000000
0.280000,-2.521378,-1.630172,-1.462255,0.043424,0.123375,0.009532,0.433101,1.067233,0.115362,1.762207,4.264318,0.429494,9.053303,-16.591793,-2.293027,0.109535,-0.044645,0.000000,0.438098,-0.182285,-0.000000
0.290000,-2.520922,-1.628884,-1.462154,0.047845,0.134258,0.010707,0.451165,1.109033,0.119541,1.826105,4.101750,0.406518,-4.077877,-13.390722,-2.206827,0.113828,-0.046524,0.000000,0.421100,-0.188755,0.000000
0.300000,-2.520420,-1.627485,-1.462041,0.052447,0.145551,0.011922,0.469010,1.149433,0.123498,1.747039,3.975344,0.384559,-3.947169,-14.390102,-2.279314,0.117974,-0.048381,0.000000,0.407852,-0.180590,-0.000000
0.310000,-2.519872,-1.625972,-1.461916,0.057224,0.157242,0.013176,0.486314,1.188469,0.127224,1.714204,3.831136,0.360525,-4.120277,-15.082933,-2.362382,0.121977,-0.050183,0.000000,0.392731,-0.177130,0.000000
0.320000,-2.519275,-1.624339,-1.461777,0.062172,0.169315,0.014466,0.503167,1.225981,0.130719,1.650902,3.668018,0.338849,-7.078023,-16.903720,-2.134562,0.125821,-0.051937,0.000000,0.375731,-0.170557,-0.000000
0.330000,-2.518628,-1.622584,-1.461626,0.067285,0.181756,0.015789,0.519396,1.261839,0.133991,1.603339,3.506420,0.314436,-2.384599,-15.384136,-2.753291,0.129493,-0.053627,0.000000,0.358841,-0.165568,0.000000
0.340000,-2.517929,-1.620703,-1.461461,0.072558,0.194547,0.017145,0.535305,1.296125,0.136996,1.573806,3.347949,0.287047,-4.989298,-16.928173,-2.561645,0.133000,-0.055284,0.000000,0.342216,-0.162394,0.000000
0.350000,-2.517177,-1.618692,-1.461283,0.077989,0.207673,0.018528,0.550752,1.328734,0.139742,1.516138,3.173449,0.261808,-5.073192,-17.331622,-2.649286,0.136331,-0.056892,0.000000,0.324018,-0.156349,-0.000000
0.360000,-2.516369,-1.616548,-1.461091,0.083572,0.221116,0.019938,0.565662,1.359602,0.142222,1.465727,2.999625,0.233934,-5.204444,-17.676908,-2.749185,0.139481,-0.058443,0.000000,0.305857,-0.151022,-0.000000
0.370000,-2.515505,-1.614269,-1.460884,0.089301,0.234859,0.021372,0.580047,1.388695,0.144431,1.410292,2.817788,0.208440,-5.685447,-18.431714,-2.521770,0.142445,-0.059940,0.000000,0.286934,-0.145189,0.000000
0.380000,-2.514582,-1.611850,-1.460663,0.095171,0.248884,0.022826,0.593874,1.415961,0.146379,1.356153,2.636407,0.179887,-5.132783,-17.826102,-3.194652,0.145219,-0.061377,0.000000,0.268027,-0.139464,-0.000000
0.390000,-2.513601,-1.609290,-1.460428,0.101177,0.263172,0.024298,0.607177,1.441430,0.148017,1.303792,2.456466,0.148007,-5.531255,-18.402041,-3.008786,0.147806,-0.062759,0.000000,0.249229,-0.133892,0.000000
0.400000,-2.512558,-1.606586,-1.460177,0.107313,0.277706,0.025786,0.619932,1.465066,0.149349,1.247259,2.270692,0.118229,-5.578358,-18.493880,-3.119594,0.150202,-0.064083,0.000000,0.229893,-0.127903,-0.000000
0.410000,-2.511454,-1.603735,-1.459912,0.113573,0.292467,0.027284,0.632125,1.486848,0.150371,1.191134,2.085663,0.085764,-5.622170,-18.540381,-3.236895,0.152404,-0.065347,0.000000,0.210610,-0.121933,-0.000000
0.420000,-2.510287,-1.600736,-1.459632,0.119953,0.307437,0.028792,0.643756,1.506776,0.151072,1.135071,1.899720,0.054743,-5.608454,-18.602800,-3.100249,0.154414,-0.066550,0.000000,0.191275,-0.115975,-0.000000
0.430000,-2.509055,-1.597586,-1.459336,0.126447,0.322597,0.030305,0.654825,1.524846,0.151455,1.078581,1.714546,0.020969,-5.687578,-18.422603,-3.658878,0.156230,-0.067694,0.000000,0.171995,-0.109951,-0.000000
0.440000,-2.507757,-1.594283,-1.459025,0.133048,0.337928,0.031820,0.665326,1.541071,0.151480,1.021792,1.530693,-0.015750,-5.646655,-18.376945,-3.550847,0.157854,-0.068776,0.000000,0.152821,-0.103873,0.000000
0.450000,-2.506393,-1.590827,-1.458700,0.139751,0.353412,0.033333,0.675262,1.555461,0.151147,0.965520,1.347473,-0.051184,-5.626896,-18.222666,-3.669319,0.159287,-0.069798,0.000000,0.133751,-0.097853,-0.000000
0.460000,-2.504962,-1.587215,-1.458359,0.146551,0.369031,0.034842,0.684636,1.568027,0.150448,0.909190,1.166080,-0.088797,-5.597022,-18.029571,-3.785046,0.160530,-0.070758,0.000000,0.114849,-0.091809,0.000000
0.470000,-2.503462,-1.583446,-1.458003,0.153442,0.384766,0.036341,0.693451,1.578791,0.149373,0.853988,0.987197,-0.126252,-5.480139,-17.759374,-3.771183,0.161585,-0.071658,0.000000,0.096220,-0.085879,0.000000
0.480000,-2.501893,-1.579519,-1.457632,0.160418,0.400601,0.037828,0.701715,1.587779,0.147916,0.798814,0.810621,-0.165588,-5.554011,-17.550313,-4.097276,0.162455,-0.072498,0.000000,0.077813,-0.079937,0.000000
0.490000,-2.500253,-1.575433,-1.457246,0.167474,0.416516,0.039298,0.709427,1.595012,0.146054,0.743726,0.636691,-0.206849,-5.422857,-17.210878,-4.087653,0.163142,-0.073278,0.000000,0.059661,-0.073988,0.000000
0.500000,-2.498543,-1.571188,-1.456846,0.174605,0.432495,0.040747,0.716595,1.600525,0.143781,0.690066,0.466351,-0.247885,-5.347230,-16.871154,-4.184324,0.163649,-0.073999,0.000000,0.041891,-0.068185,-0.000000
0.510000,-2.496761,-1.566783,-1.456432,0.181805,0.448521,0.042172,0.723229,1.604350,0.141092,0.636860,0.299268,-0.290116,-5.263390,-16.504336,-4.268099,0.163981,-0.074660,0.000000,0.024448,-0.062420,-0.000000
0.520000,-2.494907,-1.562218,-1.456003,0.189068,0.464577,0.043568,0.729338,1.606526,0.137976,0.585096,0.136690,-0.333288,-5.116308,-16.042070,-4.357250,0.164140,-0.075265,0.000000,0.007461,-0.056794,0.000000
0.530000,-2.492980,-1.557492,-1.455560,0.196390,0.480646,0.044930,0.734933,1.607096,0.134424,0.533965,-0.022232,-0.377072,-5.109505,-15.739513,-4.397506,0.164131,-0.075812,0.000000,-0.009148,-0.051229,-0.000000
0.540000,-2.490979,-1.552605,-1.455104,0.203765,0.496713,0.046255,0.740019,1.606094,0.130433,0.483504,-0.177311,-0.421351,-4.953016,-15.237258,-4.463776,0.163958,-0.076303,0.000000,-0.025359,-0.045730,0.000000
0.550000,-2.488904,-1.547558,-1.454635,0.211188,0.512763,0.047537,0.744609,1.603567,0.125995,0.434686,-0.327210,-0.466242,-4.838185,-14.775152,-4.504893,0.163626,-0.076740,0.000000,-0.041039,-0.040396,-0.000000
0.560000,-2.486755,-1.542350,-1.454154,0.218655,0.528780,0.048773,0.748716,1.599563,0.121108,0.386803,-0.472848,-0.511050,-4.717722,-14.298980,-4.525129,0.163139,-0.077122,0.000000,-0.056269,-0.035160,0.000000
0.570000,-2.484531,-1.536982,-1.453660,0.226161,0.544750,0.049958,0.752351,1.594131,0.115768,0.340531,-0.612670,-0.557348,-4.554919,-13.712400,-4.663309,0.162502,-0.077453,0.000000,-0.070917,-0.030080,0.000000
0.580000,-2.482232,-1.531455,-1.453155,0.233701,0.560658,0.051087,0.755530,1.587324,0.109965,0.295320,-0.748089,-0.602823,-4.487131,-13.370916,-4.426884,0.161722,-0.077732,0.000000,-0.085087,-0.025118,-0.000000
0.590000,-2.479857,-1.525769,-1.452639,0.241270,0.576492,0.052156,0.758261,1.579183,0.103715,0.251190,-0.879054,-0.647222,-4.319045,-12.770639,-4.519601,0.160802,-0.077962,0.000000,-0.098768,-0.020280,0.000000
0.600000,-2.477406,-1.519926,-1.452112,0.248865,0.592237,0.053160,0.760560,1.569764,0.097016,0.208787,-1.003896,-0.692570,-4.180128,-12.246276,-4.478022,0.159749,-0.078144,0.000000,-0.111826,-0.015614,-0.000000
0.610000,-2.474879,-1.513925,-1.451576,0.256480,0.607883,0.054095,0.762441,1.559120,0.089870,0.167632,-1.124070,-0.736476,-4.037008,-11.719496,-4.410700,0.158567,-0.078279,0.000000,-0.124366,-0.011093,0.000000
0.620000,-2.472276,-1.507768,-1.451030,0.264112,0.623416,0.054956,0.763918,1.547306,0.082280,0.128203,-1.237641,-0.781732,-3.863259,-11.060398,-4.531098,0.157264,-0.078369,0.000000,-0.136240,-0.006742,-0.000000
0.630000,-2.469597,-1.501457,-1.450477,0.271757,0.638825,0.055739,0.765009,1.534382,0.074243,0.090065,-1.346662,-0.824800,-3.764258,-10.745614,-4.076109,0.155844,-0.078416,0.000000,-0.147595,-0.002547,0.000000
0.640000,-2.466841,-1.494992,-1.449916,0.279411,0.654100,0.056439,0.765724,1.520387,0.065793,0.053223,-1.451208,-0.865348,-3.588908,-10.096509,-4.137974,0.154314,-0.078421,0.000000,-0.158435,0.001489,-0.000000
0.650000,-2.464009,-1.488375,-1.449348,0.287070,0.669230,0.057053,0.766080,1.505381,0.056932,0.018158,-1.549168,-0.906586,-3.437955,-9.562215,-3.999055,0.152678,-0.078387,0.000000,-0.168597,0.005343,0.000000
0.660000,-2.461100,-1.481608,-1.448775,0.294732,0.684204,0.057577,0.766091,1.489418,0.047672,-0.015539,-1.642580,-0.945170,-3.286261,-9.035607,-3.835034,0.150943,-0.078314,0.000000,-0.178235,0.009029,0.000000
0.670000,-2.458114,-1.474692,-1.448197,0.302391,0.699015,0.058005,0.765775,1.472554,0.038025,-0.047428,-1.729110,-0.984333,-3.105900,-8.353922,-3.877704,0.149116,-0.078205,0.000000,-0.187164,0.012529,-0.000000
0.680000,-2.455052,-1.467628,-1.447615,0.310046,0.713653,0.058336,0.765147,1.454849,0.027997,-0.077961,-1.811413,-1.020213,-3.001189,-8.110168,-3.291694,0.147202,-0.078061,0.000000,-0.195592,0.015856,0.000000
0.690000,-2.451913,-1.460419,-1.447031,0.317693,0.728109,0.058564,0.764220,1.436338,0.017634,-0.107158,-1.889665,-1.052470,-2.823545,-7.458157,-3.274777,0.145206,-0.077885,0.000000,-0.203534,0.019012,-0.000000
0.700000,-2.448698,-1.453067,-1.446444,0.325329,0.742377,0.058687,0.763010,1.417080,0.006946,-0.134560,-1.961315,-1.084650,-2.671437,-6.956191,-3.040939,0.143133,-0.077677,0.000000,-0.210787,0.021977,0.000000
0.710000,-2.445407,-1.445573,-1.445857,0.332952,0.756448,0.058702,0.761533,1.397125,-0.004046,-0.160606,-2.028911,-1.113276,-2.520974,-6.469068,-2.786514,0.140991,-0.077441,0.000000,-0.217558,0.024768,-0.000000
0.720000,-2.442039,-1.437939,-1.445271,0.340559,0.770317,0.058606,0.759805,1.376525,-0.015320,-0.184828,-2.089851,-1.141294,-2.339980,-5.813644,-2.712697,0.138785,-0.077178,0.000000,-0.223631,0.027363,-0.000000
0.730000,-2.438596,-1.430167,-1.444685,0.348148,0.783977,0.058395,0.757841,1.355339,-0.026858,-0.207756,-2.147173,-1.165343,-2.246344,-5.655661,-2.091563,0.136520,-0.076889,0.000000,-0.229263,0.029789,0.000000
0.740000,-2.435076,-1.422260,-1.444103,0.355715,0.797422,0.058068,0.755654,1.333592,-0.038611,-0.229428,-2.201127,-1.185140,-2.071878,-5.043575,-1.968395,0.134201,-0.076577,0.000000,-0.234479,0.032047,0.000000
0.750000,-2.431481,-1.414219,-1.443525,0.363260,0.810647,0.057622,0.753259,1.311339,-0.050559,-0.249343,-2.248884,-1.203792,-1.927692,-4.603765,-1.657952,0.131833,-0.076243,0.000000,-0.239043,0.034113,0.000000
0.760000,-2.427811,-1.406048,-1.442951,0.370780,0.823647,0.057056,0.750671,1.288625,-0.062673,-0.268008,-2.293283,-1.218410,-1.786733,-4.182723,-1.334737,0.129421,-0.075889,0.000000,-0.243200,0.036016,0.000000
0.770000,-2.424066,-1.397747,-1.442384,0.378273,0.836418,0.056368,0.747905,1.265495,-0.074922,-0.284912,-2.331707,-1.231106,-1.612928,-3.597423,-1.133917,0.126971,-0.075517,0.000000,-0.246724,0.037722,-0.000000
0.780000,-2.420246,-1.389320,-1.441824,0.385737,0.848956,0.055557,0.744976,1.241999,-0.087281,-0.300660,-2.367231,-1.239612,-1.537756,-3.512690,-0.563802,0.124488,-0.075129,0.000000,-0.249892,0.039275,0.000000
0.790000,-2.416351,-1.380769,-1.441273,0.393172,0.861257,0.054622,0.741895,1.218158,-0.099699,-0.315306,-2.400135,-1.243750,-1.373292,-2.977065,-0.332101,0.121974,-0.074726,0.000000,-0.252736,0.040680,-0.000000
0.800000,-2.412382,-1.372096,-1.440732,0.400575,0.873318,0.053563,0.738676,1.194016,-0.112149,-0.328294,-2.427621,-1.245642,-1.243379,-2.616106,0.023810,0.119435,-0.074310,0.000000,-0.255008,0.041899,-0.000000
0.810000,-2.408340,-1.363303,-1.440202,0.407945,0.885137,0.052379,0.735332,1.169613,-0.124598,-0.340192,-2.452478,-1.243470,-1.117597,-2.274457,0.383252,0.116875,-0.073883,0.000000,-0.256966,0.042975,-0.000000
0.820000,-2.404224,-1.354394,-1.439685,0.415281,0.896710,0.051071,0.731878,1.144985,-0.137009,-0.350482,-2.472395,-1.238224,-0.959477,-1.792660,0.693638,0.114298,-0.073445,0.000000,-0.258399,0.043867,-0.000000
0.830000,-2.400034,-1.345370,-1.439181,0.422582,0.908036,0.049639,0.728326,1.120172,-0.149349,-0.359782,-2.490087,-1.229020,-0.901740,-1.751005,1.148280,0.111708,-0.073000,0.000000,-0.259567,0.044629,0.000000
0.840000,-2.395772,-1.336234,-1.438692,0.429847,0.919113,0.048085,0.724685,1.095189,-0.161576,-0.368154,-2.505829,-1.215807,-0.754498,-1.318098,1.466668,0.109107,-0.072548,0.000000,-0.260504,0.045270,-0.000000
0.850000,-2.391438,-1.326988,-1.438220,0.437076,0.929939,0.046408,0.720968,1.070072,-0.173655,-0.375043,-2.517198,-1.199456,-0.642570,-1.040066,1.830723,0.106499,-0.072090,0.000000,-0.260983,0.045741,0.000000
0.860000,-2.387031,-1.317636,-1.437765,0.444267,0.940514,0.044612,0.717187,1.044851,-0.185553,-0.381008,-2.526582,-1.179438,-0.534830,-0.778766,2.188017,0.103888,-0.071628,0.000000,-0.261239,0.046096,-0.000000
0.870000,-2.382552,-1.308179,-1.437328,0.451419,0.950836,0.042698,0.713353,1.019553,-0.197231,-0.385597,-2.532259,-1.155579,-0.399765,-0.418666,2.568918,0.101276,-0.071163,0.000000,-0.261104,0.046288,-0.000000
0.880000,-2.378003,-1.298620,-1.436911,0.458533,0.960905,0.040668,0.709478,0.994211,-0.208653,-0.389355,-2.536254,-1.128375,-0.353037,-0.384700,2.870362,0.098667,-0.070698,0.000000,-0.260787,0.046378,-0.000000
0.890000,-2.373382,-1.288962,-1.436515,0.465609,0.970720,0.038526,0.705568,0.968833,-0.219788,-0.392343,-2.538799,-1.097909,-0.228870,-0.066762,3.235863,0.096061,-0.070232,0.000000,-0.260317,0.046373,0.000000
0.900000,-2.368690,-1.279206,-1.436141,0.472645,0.980281,0.036274,0.701635,0.943446,-0.230599,-0.394081,-2.538144,-1.063807,-0.135907,0.135289,3.568811,0.093461,-0.069766,0.000000,-0.259520,0.046223,-0.000000
0.910000,-2.363929,-1.269357,-1.435790,0.479641,0.989589,0.033915,0.697689,0.918074,-0.241054,-0.395052,-2.536006,-1.026766,-0.047027,0.323503,3.887421,0.090871,-0.069303,0.000000,-0.258576,0.045983,0.000000
0.920000,-2.359098,-1.259416,-1.435463,0.486599,0.998643,0.031454,0.693738,0.892735,-0.251120,-0.394925,-2.531411,-0.985638,0.060349,0.560860,4.288017,0.088291,-0.068843,0.000000,-0.257383,0.045611,0.000000
0.930000,-2.354197,-1.249385,-1.435161,0.493516,1.007444,0.028894,0.689793,0.867450,-0.260759,-0.394099,-2.525512,-0.942059,0.103974,0.615895,4.424147,0.085724,-0.068388,0.000000,-0.256071,0.045161,-0.000000
0.940000,-2.349228,-1.239267,-1.434885,0.500394,1.015992,0.026240,0.685858,0.842228,-0.269954,-0.392625,-2.518478,-0.896223,0.201749,0.821586,4.789344,0.083170,-0.067937,0.000000,-0.254662,0.044639,-0.000000
0.950000,-2.344189,-1.229066,-1.434637,0.507233,1.024289,0.023497,0.681944,0.817088,-0.278671,-0.390173,-2.509398,-0.846736,0.276510,0.960047,5.057298,0.080631,-0.067492,0.000000,-0.253057,0.044002,0.000000
0.960000,-2.339083,-1.218783,-1.434416,0.514033,1.032334,0.020668,0.678057,0.792044,-0.286883,-0.387076,-2.499173,-0.795279,0.347896,1.088959,5.304811,0.078109,-0.067054,0.000000,-0.251360,0.043297,0.000000
0.970000,-2.333909,-1.208420,-1.434224,0.520795,1.040130,0.017761,0.674205,0.767109,-0.294562,-0.383173,-2.487602,-0.740020,0.426646,1.218050,5.672999,0.075604,-0.066624,0.000000,-0.249540,0.042496,0.000000
0.980000,-2.328667,-1.197981,-1.434061,0.527518,1.047677,0.014779,0.670395,0.742296,-0.301679,-0.378671,-2.474961,-0.683370,0.473160,1.308376,5.651865,0.073118,-0.066202,0.000000,-0.247645,0.041634,0.000000
0.990000,-2.323359,-1.187467,-1.433928,0.534203,1.054976,0.011729,0.666633,0.717613,-0.308227,-0.373608,-2.461353,-0.625604,0.544454,1.417183,5.970232,0.070652,-0.065789,0.000000,-0.245688,0.040719,-0.000000
1.000000,-2.317983,-1.176882,-1.433826,0.540850,1.062029,0.008617,0.662926,0.693072,-0.314179,-0.367840,-2.446695,-0.564642,0.603074,1.507747,6.147771,0.068205,-0.065386,0.000000,-0.243647,0.039721,0.000000
1.010000,-2.312542,-1.166228,-1.433756,0.547461,1.068838,0.005448,0.659278,0.668682,-0.319517,-0.361525,-2.431105,-0.502801,0.659192,1.592435,6.301308,0.065779,-0.064993,0.000000,-0.241551,0.038673,-0.000000
1.020000,-2.307034,-1.155506,-1.433718,0.554036,1.075404,0.002228,0.655697,0.644451,-0.324224,-0.354669,-2.415023,-0.437906,0.711920,1.638634,6.592566,0.063374,-0.064611,0.000000,-0.239430,0.037560,0.000000
1.030000,-2.301461,-1.144720,-1.433712,0.560576,1.081728,-0.001035,0.652187,0.620385,-0.328275,-0.347291,-2.398019,-0.372734,0.763269,1.761668,6.435904,0.060990,-0.064241,0.000000,-0.237260,0.036402,0.000000
1.040000,-2.295823,-1.133872,-1.433739,0.567080,1.087812,-0.004335,0.648753,0.596494,-0.331679,-0.339418,-2.380136,-0.307603,0.810563,1.797551,6.669560,0.058629,-0.063882,0.000000,-0.235048,0.035203,-0.000000
1.050000,-2.290120,-1.122965,-1.433799,0.573551,1.093658,-0.007666,0.645400,0.572783,-0.334418,-0.331084,-2.361952,-0.240116,0.855820,1.854754,6.742204,0.056289,-0.063536,0.000000,-0.232835,0.033951,0.000000
1.060000,-2.284352,-1.112000,-1.433892,0.579989,1.099268,-0.011021,0.642133,0.549258,-0.336483,-0.322284,-2.342982,-0.172857,0.899022,1.908650,6.789887,0.053972,-0.063202,0.000000,-0.230590,0.032663,0.000000
1.070000,-2.278520,-1.100980,-1.434019,0.586394,1.104644,-0.014393,0.638955,0.525923,-0.337867,-0.313156,-2.324069,-0.103619,0.930792,1.901891,6.972996,0.051677,-0.062881,0.000000,-0.228383,0.031336,0.000000
1.080000,-2.272624,-1.089908,-1.434180,0.592768,1.109787,-0.017776,0.635871,0.502779,-0.338559,-0.303578,-2.304356,-0.035172,0.984609,2.040773,6.710354,0.049405,-0.062575,0.000000,-0.226143,0.029976,-0.000000
1.090000,-2.266665,-1.078785,-1.434375,0.599112,1.114700,-0.021162,0.632885,0.479838,-0.338575,-0.293566,-2.283850,0.032162,1.012616,2.030599,6.834824,0.047155,-0.062281,0.000000,-0.223873,0.028586,-0.000000
1.100000,-2.260642,-1.067615,-1.434603,0.605426,1.119385,-0.024545,0.630001,0.457101,-0.337910,-0.283293,-2.263512,0.100760,1.046439,2.065484,6.799631,0.044927,-0.062002,0.000000,-0.221653,0.027168,0.000000
1.110000,-2.254556,-1.056398,-1.434865,0.611712,1.123843,-0.027918,0.627221,0.434571,-0.336565,-0.272633,-2.242519,0.168110,1.078474,2.098421,6.740934,0.042722,-0.061738,0.000000,-0.219414,0.025723,0.000000
1.120000,-2.248408,-1.045139,-1.435161,0.617971,1.128077,-0.031274,0.624548,0.412249,-0.334544,-0.261791,-2.221868,0.236193,1.096009,2.064275,6.800439,0.040539,-0.061487,0.000000,-0.217245,0.024261,0.000000
1.130000,-2.242197,-1.033838,-1.435491,0.624203,1.132089,-0.034607,0.621986,0.390136,-0.331847,-0.250585,-2.200554,0.302547,1.144989,2.198812,6.465015,0.038377,-0.061252,0.000000,-0.215055,0.022776,-0.000000
1.140000,-2.235924,-1.022498,-1.435853,0.630411,1.135880,-0.037909,0.619538,0.368241,-0.328500,-0.239028,-2.178568,0.366881,1.159752,2.164666,6.471055,0.036238,-0.061032,0.000000,-0.212842,0.021271,0.000000
1.150000,-2.229589,-1.011121,-1.436249,0.636594,1.139454,-0.041175,0.617206,0.346563,-0.324508,-0.227346,-2.156989,0.431289,1.183134,2.183747,6.335495,0.034120,-0.060826,0.000000,-0.210703,0.019756,0.000000
1.160000,-2.223192,-0.999709,-1.436677,0.642755,1.142812,-0.044397,0.614992,0.325103,-0.319882,-0.215367,-2.134944,0.493594,1.205037,2.200367,6.180315,0.032023,-0.060636,0.000000,-0.208559,0.018226,0.000000
1.170000,-2.216734,-0.988265,-1.437137,0.648895,1.145957,-0.047570,0.612899,0.303862,-0.314637,-0.203319,-2.113216,0.555367,1.211263,2.168480,6.115564,0.029948,-0.060462,0.000000,-0.206480,0.016692,-0.000000
1.180000,-2.210214,-0.976791,-1.437628,0.655014,1.148890,-0.050688,0.610927,0.282840,-0.308783,-0.191000,-2.091088,0.614678,1.252518,2.257348,5.742136,0.027894,-0.060302,0.000000,-0.204399,0.015147,0.000000
1.190000,-2.203634,-0.965288,-1.438150,0.661114,1.151614,-0.053744,0.609080,0.262042,-0.302353,-0.178418,-2.068556,0.671288,1.256248,2.224627,5.633747,0.025860,-0.060159,0.000000,-0.202314,0.013591,-0.000000
1.200000,-2.196992,-0.953759,-1.438703,0.667196,1.154132,-0.056733,0.607358,0.241467,-0.295360,-0.165820,-2.046402,0.726824,1.270253,2.229642,5.414857,0.023847,-0.060030,0.000000,-0.200295,0.012039,0.000000
1.210000,-2.190290,-0.942206,-1.439285,0.673261,1.156445,-0.059650,0.605764,0.221115,-0.287826,-0.153052,-2.024016,0.779630,1.281089,2.231655,5.181611,0.021854,-0.059918,0.000000,-0.198285,0.010485,0.000000
1.220000,-2.183527,-0.930631,-1.439895,0.679311,1.158555,-0.062488,0.604297,0.200985,-0.279773,-0.140246,-2.001929,0.830760,1.283476,2.200846,5.005656,0.019881,-0.059821,0.000000,-0.196331,0.008935,-0.000000
1.230000,-2.176704,-0.919036,-1.440534,0.685348,1.160465,-0.065243,0.602959,0.181077,-0.271221,-0.127314,-1.979679,0.878937,1.302611,2.249211,4.626897,0.017928,-0.059739,0.000000,-0.194389,0.007387,-0.000000
1.240000,-2.169820,-0.907422,-1.441200,0.691371,1.162177,-0.067911,0.601751,0.161392,-0.262205,-0.114274,-1.957272,0.924000,1.301376,2.215817,4.420661,0.015994,-0.059673,0.000000,-0.192456,0.005843,-0.000000
1.250000,-2.162876,-0.895793,-1.441892,0.697383,1.163694,-0.070486,0.600674,0.141930,-0.252747,-0.101261,-1.935239,0.967000,1.304281,2.206218,4.141587,0.014079,-0.059622,0.000000,-0.190581,0.004311,0.000000
1.260000,-2.155872,-0.884149,-1.442609,0.703385,1.165016,-0.072964,0.599726,0.122688,-0.242875,-0.088214,-1.913228,1.006907,1.304626,2.192890,3.854455,0.012182,-0.059587,0.000000,-0.188728,0.002790,-0.000000
1.270000,-2.148809,-0.872493,-1.443351,0.709378,1.166148,-0.075342,0.598909,0.103665,-0.232617,-0.075176,-1.891416,1.044209,1.302702,2.171467,3.589265,0.010304,-0.059566,0.000000,-0.186913,0.001280,0.000000
1.280000,-2.141685,-0.860827,-1.444116,0.715364,1.167090,-0.077616,0.598223,0.084859,-0.222002,-0.062168,-1.869754,1.078346,1.298422,2.160419,3.236669,0.008444,-0.059561,0.000000,-0.185128,-0.000212,0.000000
1.290000,-2.134501,-0.849152,-1.444903,0.721343,1.167846,-0.079781,0.597666,0.066269,-0.211061,-0.049216,-1.848271,1.109236,1.291681,2.133171,2.956149,0.006601,-0.059570,0.000000,-0.183373,-0.001684,-0.000000
1.300000,-2.127258,-0.837470,-1.445711,0.727317,1.168417,-0.081836,0.597238,0.047892,-0.199826,-0.036337,-1.827083,1.137316,1.283062,2.106842,2.644192,0.004776,-0.059595,0.000000,-0.181659,-0.003138,-0.000000
1.310000,-2.119955,-0.825784,-1.446539,0.733288,1.168804,-0.083777,0.596939,0.029726,-0.188326,-0.023575,-1.806238,1.162220,1.271502,2.075566,2.330685,0.002968,-0.059633,0.000000,-0.179987,-0.004566,-0.000000
1.320000,-2.112592,-0.814095,-1.447386,0.739257,1.169012,-0.085602,0.596766,0.011768,-0.176593,-0.010891,-1.785454,1.183871,1.262435,2.067193,2.004536,0.001176,-0.059686,0.000000,-0.178327,-0.005972,-0.000000
1.330000,-2.105170,-0.802405,-1.448251,0.745224,1.169041,-0.087308,0.596720,-0.005985,-0.164659,0.001612,-1.765192,1.202419,1.237673,1.984144,1.705016,-0.000599,-0.059752,0.000000,-0.176724,-0.007347,0.000000
1.340000,-2.097688,-0.790715,-1.449132,0.751191,1.168893,-0.088894,0.596798,-0.023538,-0.152555,0.013906,-1.745506,1.217862,1.223259,1.966176,1.378398,-0.002358,-0.059833,0.000000,-0.175179,-0.008688,0.000000
1.350000,-2.090146,-0.779027,-1.450028,0.757160,1.168570,-0.090359,0.596998,-0.040895,-0.140312,0.026047,-1.725995,1.230038,1.202002,1.921690,1.061979,-0.004103,-0.059926,0.000000,-0.173652,-0.009998,0.000000
1.360000,-2.082545,-0.767344,-1.450939,0.763132,1.168075,-0.091700,0.597318,-0.058060,-0.127964,0.037912,-1.707115,1.239216,1.177704,1.872624,0.749674,-0.005832,-0.060032,0.000000,-0.172185,-0.011269,0.000000
1.370000,-2.074883,-0.755666,-1.451862,0.769107,1.167410,-0.092918,0.597756,-0.075038,-0.115540,0.049658,-1.688379,1.244817,1.164124,1.855632,0.394809,-0.007546,-0.060151,0.000000,-0.170728,-0.012510,0.000000
1.380000,-2.067162,-0.743996,-1.452797,0.775087,1.166575,-0.094011,0.598310,-0.091831,-0.103076,0.061044,-1.670397,1.247619,1.112441,1.739787,0.167006,-0.009246,-0.060282,0.000000,-0.169340,-0.013703,-0.000000
1.390000,-2.059382,-0.732335,-1.453742,0.781074,1.165574,-0.094979,0.598975,-0.108448,-0.090597,0.072037,-1.653223,1.247696,1.092734,1.712929,-0.174575,-0.010933,-0.060425,0.000000,-0.168025,-0.014845,-0.000000
1.400000,-2.051541,-0.720685,-1.454696,0.787067,1.164407,-0.095823,0.599750,-0.124896,-0.078134,0.082828,-1.636306,1.244353,1.058683,1.651819,-0.469753,-0.012607,-0.060579,0.000000,-0.166726,-0.015949,-0.000000
1.410000,-2.043640,-0.709048,-1.455658,0.793069,1.163076,-0.096542,0.600630,-0.141178,-0.065718,0.093181,-1.620220,1.238416,1.021749,1.586773,-0.755755,-0.014268,-0.060744,0.000000,-0.165499,-0.016997,0.000000
1.420000,-2.035679,-0.697424,-1.456626,0.799080,1.161584,-0.097137,0.601613,-0.157300,-0.053379,0.103351,-1.604378,1.228902,1.001846,1.560018,-1.107643,-0.015917,-0.060919,0.000000,-0.164283,-0.018008,-0.000000
1.430000,-2.027659,-0.685817,-1.457600,0.805101,1.159931,-0.097610,0.602695,-0.173268,-0.041148,0.113000,-1.589472,1.217088,0.927238,1.420138,-1.252546,-0.017554,-0.061104,0.000000,-0.163146,-0.018956,-0.000000
1.440000,-2.019577,-0.674226,-1.458578,0.811134,1.158119,-0.097961,0.603871,-0.189093,-0.029044,0.122090,-1.575553,1.203112,0.900646,1.384595,-1.579512,-0.019180,-0.061298,0.000000,-0.162095,-0.019835,-0.000000
1.450000,-2.011436,-0.662655,-1.459559,0.817179,1.156150,-0.098191,0.605137,-0.204780,-0.017097,0.130918,-1.561968,1.185856,0.854270,1.310944,-1.831703,-0.020796,-0.061501,0.000000,-0.161058,-0.020670,0.000000
1.460000,-2.003234,-0.651104,-1.460542,0.823237,1.154024,-0.098303,0.606488,-0.220336,-0.005333,0.139233,-1.549330,1.166569,0.808301,1.235041,-2.071510,-0.022402,-0.061711,0.000000,-0.160100,-0.021442,0.000000
1.470000,-1.994971,-0.639575,-1.461525,0.829309,1.151743,-0.098299,0.607920,-0.235768,0.006223,0.147113,-1.537098,1.144006,0.764631,1.192878,-2.391731,-0.023998,-0.061929,0.000000,-0.159162,-0.022150,-0.000000
1.480000,-1.986648,-0.628069,-1.462507,0.835396,1.149309,-0.098180,0.609428,-0.251081,0.017542,0.154461,-1.525857,1.119771,0.704664,1.054596,-2.451886,-0.025585,-0.062154,0.000000,-0.158305,-0.022794,-0.000000
1.490000,-1.978263,-0.616589,-1.463488,0.841498,1.146722,-0.097949,0.611007,-0.266289,0.028613,0.161257,-1.515640,1.094044,0.657115,1.007091,-2.739399,-0.027164,-0.062385,0.000000,-0.157533,-0.023373,-0.000000
1.500000,-1.969818,-0.605135,-1.464466,0.847616,1.143983,-0.097608,0.612652,-0.281395,0.039412,0.167569,-1.505874,1.065433,0.602740,0.928044,-2.933114,-0.028736,-0.062622,0.000000,-0.156783,-0.023884,-0.000000
1.510000,-1.961311,-0.593710,-1.465440,0.853751,1.141094,-0.097161,0.614357,-0.296409,0.049918,0.173292,-1.497042,1.035462,0.546745,0.849090,-3.111623,-0.030300,-0.062863,0.000000,-0.156107,-0.024326,0.000000
1.520000,-1.952742,-0.582314,-1.466409,0.859904,1.138056,-0.096611,0.616116,-0.311338,0.060112,0.178546,-1.488793,1.002761,0.498847,0.790445,-3.375483,-0.031858,-0.063108,0.000000,-0.155464,-0.024701,-0.000000
1.530000,-1.944113,-0.570949,-1.467372,0.866074,1.134868,-0.095960,0.617925,-0.326188,0.069970,0.183161,-1.481447,0.969065,0.423879,0.678593,-3.359787,-0.033410,-0.063357,0.000000,-0.154893,-0.025002,-0.000000
1.540000,-1.935421,-0.559617,-1.468327,0.872262,1.131532,-0.095213,0.619777,-0.340970,0.079491,0.187119,-1.475008,0.934579,0.372395,0.619768,-3.586761,-0.034956,-0.063608,0.000000,-0.154393,-0.025230,0.000000
1.550000,-1.926667,-0.548319,-1.469275,0.878469,1.128049,-0.094372,0.621666,-0.355690,0.088654,0.190566,-1.469135,0.897809,0.311725,0.544847,-3.713306,-0.036498,-0.063862,0.000000,-0.153924,-0.025388,-0.000000
1.560000,-1.917851,-0.537057,-1.470215,0.884696,1.124418,-0.093441,0.623586,-0.370355,0.097445,0.193320,-1.464049,0.860361,0.249165,0.472547,-3.823975,-0.038035,-0.064116,0.000000,-0.153514,-0.025468,0.000000
1.570000,-1.908973,-0.525831,-1.471144,0.890941,1.120642,-0.092424,0.625531,-0.384973,0.105853,0.195642,-1.459677,0.820917,0.205226,0.402477,-4.014305,-0.039568,-0.064371,0.000000,-0.153150,-0.025488,-0.000000
1.580000,-1.900033,-0.514644,-1.472063,0.897206,1.116719,-0.091325,0.627496,-0.399551,0.113863,0.197211,-1.455990,0.781135,0.108174,0.335420,-3.938262,-0.041098,-0.064626,0.000000,-0.152835,-0.025425,-0.000000
1.590000,-1.891029,-0.503497,-1.472970,0.903491,1.112651,-0.090148,0.629473,-0.414095,0.121476,0.198008,-1.452959,0.741218,0.061281,0.271177,-4.091821,-0.042625,-0.064880,0.000000,-0.152567,-0.025278,-0.000000
1.600000,-1.881963,-0.492392,-1.473866,0.909796,1.108437,-0.088897,0.631455,-0.428613,0.128681,0.198346,-1.450554,0.699760,-0.003336,0.210556,-4.149093,-0.044150,-0.065132,0.000000,-0.152336,-0.025071,-0.000000
1.610000,-1.872833,-0.481329,-1.474748,0.916120,1.104079,-0.087576,0.633438,-0.443108,0.135471,0.198015,-1.448688,0.658257,-0.066773,0.154727,-4.191725,-0.045672,-0.065381,0.000000,-0.152140,-0.024790,0.000000
1.620000,-1.863640,-0.470311,-1.475617,0.922465,1.099575,-0.086189,0.635413,-0.457589,0.141842,0.196976,-1.447524,0.615579,-0.137191,0.087084,-4.300647,-0.047193,-0.065628,0.000000,-0.151991,-0.024425,0.000000
1.630000,-1.854384,-0.459338,-1.476472,0.928829,1.094927,-0.084740,0.637375,-0.472060,0.147784,0.195349,-1.446756,0.573149,-0.188128,0.067538,-4.181878,-0.048712,-0.065870,0.000000,-0.151862,-0.023998,0.000000
1.640000,-1.845064,-0.448413,-1.477311,0.935212,1.090134,-0.083235,0.639318,-0.486525,0.153306,0.193141,-1.446325,0.531151,-0.257220,0.011112,-4.257218,-0.050230,-0.066108,0.000000,-0.151750,-0.023509,-0.000000
1.650000,-1.835679,-0.437536,-1.478136,0.941615,1.085196,-0.081676,0.641236,-0.500989,0.158404,0.190241,-1.446446,0.488396,-0.319204,-0.025943,-4.250291,-0.051747,-0.066341,0.000000,-0.151671,-0.022941,-0.000000
1.660000,-1.826231,-0.426709,-1.478945,0.948037,1.080114,-0.080068,0.643121,-0.515454,0.163076,0.186776,-1.446748,0.446136,-0.380122,-0.055472,-4.230802,-0.053263,-0.066567,0.000000,-0.151593,-0.022313,-0.000000
1.670000,-1.816719,-0.415934,-1.479737,0.954477,1.074887,-0.078416,0.644969,-0.529926,0.167325,0.182581,-1.447740,0.403533,-0.452380,-0.120576,-4.257928,-0.054779,-0.066787,0.000000,-0.151564,-0.021605,0.000000
1.680000,-1.807142,-0.405212,-1.480513,0.960936,1.069516,-0.076723,0.646771,-0.544409,0.171150,0.177864,-1.448688,0.361644,-0.490603,-0.067320,-4.117041,-0.056294,-0.067000,0.000000,-0.151514,-0.020843,-0.000000
1.690000,-1.797500,-0.394544,-1.481272,0.967412,1.063999,-0.074994,0.648524,-0.558899,0.174561,0.172645,-1.449500,0.320619,-0.559472,-0.115661,-4.116650,-0.057809,-0.067205,0.000000,-0.151435,-0.020033,0.000000
1.700000,-1.787793,-0.383933,-1.482013,0.973906,1.058338,-0.073233,0.650222,-0.573401,0.177561,0.166733,-1.450795,0.279603,-0.616225,-0.120684,-4.054730,-0.059323,-0.067401,0.000000,-0.151387,-0.019148,-0.000000
1.710000,-1.778022,-0.373378,-1.482736,0.980417,1.052531,-0.071444,0.651857,-0.587914,0.180156,0.160309,-1.451879,0.239481,-0.671948,-0.118141,-3.984187,-0.060837,-0.067588,0.000000,-0.151303,-0.018213,-0.000000
1.720000,-1.768185,-0.362882,-1.483442,0.986943,1.046579,-0.069631,0.653426,-0.602440,0.182352,0.153261,-1.453356,0.199784,-0.733527,-0.153042,-3.936831,-0.062349,-0.067766,0.000000,-0.151243,-0.017214,-0.000000
1.730000,-1.758283,-0.352447,-1.484129,0.993485,1.040482,-0.067798,0.654921,-0.616980,0.184155,0.145725,-1.454433,0.161127,-0.773409,-0.060464,-3.792828,-0.063861,-0.067933,0.000000,-0.151130,-0.016170,0.000000
1.740000,-1.748315,-0.342073,-1.484797,1.000041,1.034240,-0.065949,0.656339,-0.631527,0.185579,0.137720,-1.455008,0.123612,-0.831165,-0.076743,-3.725787,-0.065372,-0.068090,0.000000,-0.150955,-0.015083,-0.000000
1.750000,-1.738282,-0.331763,-1.485448,1.006611,1.027852,-0.064088,0.657673,-0.646081,0.186630,0.129143,-1.455746,0.086777,-0.880364,-0.046471,-3.622845,-0.066881,-0.068235,0.000000,-0.150784,-0.013940,-0.000000
1.760000,-1.728183,-0.321517,-1.486079,1.013194,1.021318,-0.062218,0.658920,-0.660640,0.187318,0.120141,-1.455905,0.051109,-0.927305,-0.007908,-3.513767,-0.068387,-0.068369,0.000000,-0.150543,-0.012759,0.000000
1.770000,-1.718018,-0.311337,-1.486692,1.019789,1.014639,-0.060343,0.660074,-0.675200,0.187655,0.110533,-1.456101,0.016485,-0.986668,-0.006927,-3.406182,-0.069891,-0.068491,0.000000,-0.150298,-0.011522,-0.000000
1.780000,-1.707787,-0.301224,-1.487286,1.026396,1.007814,-0.058466,0.661130,-0.689759,0.187652,0.100570,-1.455532,-0.016914,-1.005390,0.122536,-3.272518,-0.071393,-0.068600,0.000000,-0.149967,-0.010256,0.000000
1.790000,-1.697490,-0.291181,-1.487861,1.033012,1.000844,-0.056591,0.662084,-0.704307,0.187321,0.090281,-1.454096,-0.049028,-1.059477,0.142486,-3.153636,-0.072890,-0.068696,0.000000,-0.149540,-0.008965,-0.000000
1.800000,-1.687127,-0.281208,-1.488418,1.039637,0.993728,-0.054721,0.662933,-0.718841,0.186675,0.079455,-1.452460,-0.079939,-1.098454,0.209208,-3.023761,-0.074384,-0.068780,0.000000,-0.149088,-0.007627,-0.000000
1.810000,-1.676697,-0.271307,-1.488956,1.046270,0.986467,-0.052858,0.663673,-0.733353,0.185727,0.068328,-1.449856,-0.109554,-1.135117,0.284533,-2.891119,-0.075872,-0.068849,0.000000,-0.148532,-0.006267,-0.000000
1.820000,-1.666201,-0.261479,-1.489475,1.052910,0.979061,-0.051007,0.664298,-0.747837,0.184489,0.056683,-1.447007,-0.137682,-1.185343,0.313866,-2.741331,-0.077354,-0.068905,0.000000,-0.147950,-0.004864,-0.000000
1.830000,-1.655639,-0.251726,-1.489976,1.059556,0.971510,-0.049169,0.664805,-0.762289,0.182977,0.044799,-1.442981,-0.164523,-1.190855,0.493229,-2.626584,-0.078830,-0.068947,0.000000,-0.147245,-0.003446,0.000000
1.840000,-1.645010,-0.242049,-1.490459,1.066206,0.963815,-0.047348,0.665193,-0.776693,0.181203,0.032709,-1.437675,-0.190061,-1.234974,0.541355,-2.473451,-0.080299,-0.068974,0.000000,-0.146407,-0.002017,0.000000
1.850000,-1.634315,-0.232450,-1.490923,1.072859,0.955977,-0.045546,0.665458,-0.791041,0.179182,0.020171,-1.431898,-0.214047,-1.263426,0.642688,-2.330948,-0.081758,-0.068987,0.000000,-0.145524,-0.000554,0.000000
1.860000,-1.623553,-0.222930,-1.491370,1.079514,0.947995,-0.043766,0.665596,-0.805326,0.176927,0.007443,-1.424832,-0.236727,-1.289203,0.750645,-2.188696,-0.083209,-0.068985,0.000000,-0.144509,0.000918,0.000000
1.870000,-1.612725,-0.213491,-1.491798,1.086171,0.939870,-0.042008,0.665605,-0.819536,0.174453,-0.005674,-1.417058,-0.257670,-1.326650,0.825388,-2.015515,-0.084648,-0.068969,0.000000,-0.143428,0.002416,-0.000000
1.880000,-1.601830,-0.204133,-1.492210,1.092826,0.931604,-0.040277,0.665482,-0.833662,0.171777,-0.018932,-1.407881,-0.277367,-1.324487,1.011575,-1.924304,-0.086077,-0.068937,0.000000,-0.142207,0.003918,0.000000
1.890000,-1.590868,-0.194859,-1.492604,1.099480,0.923197,-0.038574,0.665226,-0.847688,0.168910,-0.032301,-1.397218,-0.295839,-1.356231,1.101257,-1.754350,-0.087492,-0.068890,0.000000,-0.140837,0.005421,-0.000000
1.900000,-1.579840,-0.185670,-1.492981,1.106130,0.914651,-0.036900,0.664835,-0.861604,0.165866,-0.045990,-1.385666,-0.312593,-1.373773,1.230517,-1.612186,-0.088893,-0.068828,0.000000,-0.139386,0.006943,-0.000000
1.910000,-1.568746,-0.176567,-1.493342,1.112776,0.905966,-0.035257,0.664306,-0.875397,0.162662,-0.059777,-1.372622,-0.328122,-1.389038,1.364689,-1.472387,-0.090279,-0.068751,0.000000,-0.137789,0.008463,0.000000
1.920000,-1.557585,-0.167551,-1.493687,1.119416,0.897143,-0.033647,0.663639,-0.889053,0.159310,-0.073818,-1.358489,-0.341849,-1.413133,1.476402,-1.294100,-0.091649,-0.068658,0.000000,-0.136093,0.009995,-0.000000
1.930000,-1.546357,-0.158624,-1.494015,1.126048,0.888185,-0.032071,0.662830,-0.902561,0.155828,-0.087916,-1.342790,-0.354445,-1.405979,1.664572,-1.226125,-0.093001,-0.068550,0.000000,-0.134244,0.011523,-0.000000
1.940000,-1.535064,-0.149788,-1.494328,1.132672,0.879093,-0.030531,0.661880,-0.915903,0.152225,-0.102044,-1.325467,-0.365959,-1.425082,1.786602,-1.056012,-0.094333,-0.068426,0.000000,-0.132238,0.013043,-0.000000
1.950000,-1.523704,-0.141043,-1.494626,1.139285,0.869868,-0.029027,0.660788,-0.929067,0.148515,-0.116363,-1.306928,-0.375751,-1.432639,1.935552,-0.923635,-0.095645,-0.068288,0.000000,-0.130124,0.014569,0.000000
1.960000,-1.512278,-0.132391,-1.494909,1.145887,0.860512,-0.027561,0.659553,-0.942036,0.144713,-0.130711,-1.286803,-0.384469,-1.438995,2.086701,-0.796158,-0.096935,-0.068134,0.000000,-0.127858,0.016087,-0.000000
1.970000,-1.500786,-0.123833,-1.495177,1.152476,0.851028,-0.026133,0.658174,-0.954798,0.140832,-0.145169,-1.265217,-0.391475,-1.449286,2.234173,-0.628029,-0.098202,-0.067964,0.000000,-0.125461,0.017602,-0.000000
1.980000,-1.489228,-0.115371,-1.495432,1.159050,0.841417,-0.024744,0.656650,-0.967336,0.136887,-0.159627,-1.242046,-0.397511,-1.441996,2.400286,-0.580326,-0.099444,-0.067780,0.000000,-0.122913,0.019108,0.000000
1.990000,-1.477605,-0.107005,-1.495672,1.165608,0.831682,-0.023395,0.654981,-0.979633,0.132885,-0.174066,-1.217270,-0.402639,-1.448702,2.552069,-0.423359,-0.100660,-0.067580,0.000000,-0.120214,0.020604,0.000000
2.000000,-1.465916,-0.098738,-1.495900,1.172149,0.821825,-0.022087,0.653168,-0.991676,0.128840,-0.188565,-1.190974,-0.406188,-1.448333,2.710540,-0.308942,-0.101848,-0.067366,0.000000,-0.117380,0.022092,-0.000000
2.010000,-1.454162,-0.090569,-1.496114,1.178671,0.811849,-0.020819,0.651210,-1.003448,0.124764,-0.203041,-1.163114,-0.408834,-1.446959,2.868860,-0.199080,-0.103007,-0.067136,0.000000,-0.114400,0.023569,-0.000000
2.020000,-1.442343,-0.082501,-1.496316,1.185173,0.801757,-0.019591,0.649107,-1.014932,0.120668,-0.217504,-1.133526,-0.409982,-1.445080,3.041590,-0.052385,-0.104135,-0.066892,0.000000,-0.111264,0.025033,-0.000000
2.030000,-1.430459,-0.074534,-1.496506,1.191653,0.791552,-0.018405,0.646860,-1.026113,0.116566,-0.231930,-1.102433,-0.410341,-1.439861,3.176763,-0.020619,-0.105231,-0.066633,0.000000,-0.107989,0.026485,-0.000000
2.040000,-1.418510,-0.066670,-1.496684,1.198110,0.781236,-0.017260,0.644469,-1.036976,0.112464,-0.246306,-1.069846,-0.409980,-1.435567,3.347977,0.113353,-0.106294,-0.066359,0.000000,-0.104576,0.027926,-0.000000
2.050000,-1.406497,-0.058910,-1.496851,1.204542,0.770813,-0.016156,0.641934,-1.047504,0.108372,-0.260634,-1.035538,-0.408270,-1.429539,3.506308,0.206697,-0.107322,-0.066071,0.000000,-0.101010,0.029350,0.000000
2.060000,-1.394419,-0.051254,-1.497008,1.210948,0.760287,-0.015093,0.639256,-1.057682,0.104300,-0.274896,-0.999730,-0.405845,-1.422431,3.663364,0.295332,-0.108314,-0.065769,0.000000,-0.097306,0.030762,-0.000000
2.070000,-1.382278,-0.043705,-1.497153,1.217327,0.749661,-0.014070,0.636436,-1.067493,0.100259,-0.289072,-0.962197,-0.402207,-1.413272,3.834922,0.413777,-0.109268,-0.065453,0.000000,-0.093447,0.032155,-0.000000
2.080000,-1.370073,-0.036261,-1.497289,1.223676,0.738938,-0.013087,0.633475,-1.076921,0.096258,-0.303172,-0.923208,-0.397959,-1.406651,3.962399,0.434509,-0.110183,-0.065122,0.000000,-0.089456,0.033534,0.000000
2.090000,-1.357804,-0.028926,-1.497415,1.229996,0.728124,-0.012145,0.630373,-1.085952,0.092302,-0.317190,-0.882790,-0.393170,-1.396007,4.129027,0.540520,-0.111057,-0.064778,0.000000,-0.085334,0.034901,0.000000
2.100000,-1.345473,-0.021699,-1.497532,1.236283,0.717221,-0.011241,0.627132,-1.094571,0.088399,-0.331096,-0.840704,-0.387317,-1.385793,4.279621,0.611541,-0.111889,-0.064420,0.000000,-0.081063,0.036248,-0.000000
2.110000,-1.333079,-0.014582,-1.497640,1.242538,0.706234,-0.010376,0.623751,-1.102762,0.084557,-0.344976,-0.797175,-0.380935,-1.376390,4.428119,0.677864,-0.112678,-0.064048,0.000000,-0.076661,0.037588,0.000000
2.120000,-1.320622,-0.007575,-1.497740,1.248758,0.695167,-0.009550,0.620234,-1.110510,0.080783,-0.358496,-0.752129,-0.373648,-1.340734,4.578395,0.765517,-0.113422,-0.063663,0.000000,-0.072123,0.038885,0.000000
2.130000,-1.308104,-0.000679,-1.497831,1.254942,0.684025,-0.008760,0.616581,-1.117800,0.077085,-0.372068,-0.705665,-0.365918,-1.374030,4.713688,0.779284,-0.114120,-0.063266,0.000000,-0.067456,0.040184,-0.000000
2.140000,-1.295524,0.006105,-1.497915,1.261089,0.672812,-0.008008,0.612792,-1.124618,0.073466,-0.385705,-0.657819,-0.357807,-1.339870,4.857306,0.855687,-0.114770,-0.062854,0.000000,-0.062663,0.041487,0.000000
2.150000,-1.282882,0.012777,-1.497992,1.267197,0.661534,-0.007291,0.608868,-1.130951,0.069932,-0.398978,-0.608551,-0.348928,-1.327915,4.993455,0.905494,-0.115372,-0.062430,0.000000,-0.057742,0.042748,-0.000000
2.160000,-1.270180,0.019336,-1.498061,1.273266,0.650195,-0.006609,0.604812,-1.136785,0.066488,-0.412266,-0.557896,-0.339685,-1.315927,5.127022,0.951037,-0.115925,-0.061994,0.000000,-0.052694,0.044008,-0.000000
2.170000,-1.257417,0.025781,-1.498124,1.279293,0.638800,-0.005961,0.600625,-1.142106,0.063140,-0.425170,-0.506114,-0.329842,-1.277941,5.238161,1.008752,-0.116426,-0.061545,0.000000,-0.047548,0.045225,0.000000
2.180000,-1.244594,0.032112,-1.498180,1.285278,0.627355,-0.005346,0.596309,-1.146902,0.059893,-0.438098,-0.452949,-0.319698,-1.307865,5.394457,1.019117,-0.116875,-0.061083,0.000000,-0.042272,0.046444,-0.000000
2.190000,-1.231712,0.038328,-1.498231,1.291219,0.615864,-0.004763,0.591862,-1.151160,0.056747,-0.451059,-0.398433,-0.309303,-1.270985,5.498259,1.067728,-0.117271,-0.060609,0.000000,-0.036872,0.047665,-0.000000
2.200000,-1.218770,0.044429,-1.498276,1.297115,0.604333,-0.004210,0.587289,-1.154868,0.053708,-0.463628,-0.342920,-0.298429,-1.255716,5.613140,1.098367,-0.117612,-0.060123,0.000000,-0.031382,0.048844,-0.000000
2.210000,-1.205769,0.050414,-1.498315,1.302964,0.592769,-0.003688,0.582589,-1.158012,0.050779,-0.476365,-0.285787,-0.287316,-1.243813,5.730860,1.125960,-0.117898,-0.059626,0.000000,-0.025740,0.050040,-0.000000
2.220000,-1.192711,0.056284,-1.498350,1.308766,0.581175,-0.003194,0.577766,-1.160586,0.047963,-0.488061,-0.229074,-0.275898,-1.141527,5.689817,1.154754,-0.118127,-0.059116,0.000000,-0.020148,0.051129,-0.000000
2.230000,-1.179594,0.062038,-1.498379,1.314519,0.569559,-0.002728,0.572826,-1.162587,0.045262,-0.500161,-0.170352,-0.264281,-1.279489,6.055870,1.168210,-0.118300,-0.058596,0.000000,-0.014363,0.052260,0.000000
2.240000,-1.166421,0.067675,-1.498404,1.320222,0.557925,-0.002289,0.567761,-1.163986,0.042678,-0.512709,-0.109583,-0.252497,-1.183220,6.016495,1.190323,-0.118414,-0.058063,0.000000,-0.008379,0.053436,-0.000000
2.250000,-1.153190,0.073196,-1.498425,1.325874,0.546281,-0.001874,0.562576,-1.164782,0.040213,-0.524215,-0.049372,-0.240504,-1.163951,6.104083,1.205582,-0.118468,-0.057520,0.000000,-0.002456,0.054508,-0.000000
2.260000,-1.139903,0.078601,-1.498442,1.331473,0.534632,-0.001484,0.557301,-1.165018,0.037868,-0.530031,0.000736,-0.228406,-1.026352,5.953739,1.217748,-0.118468,-0.056968,0.000000,0.002447,0.055004,-0.000000
2.270000,-1.126561,0.083889,-1.498455,1.337020,0.522983,-0.001117,0.551897,-1.164606,0.035645,-0.554198,0.088441,-0.216118,-2.810963,9.611375,1.235259,-0.118403,-0.056404,0.000000,0.011119,0.057359,0.000000
2.280000,-1.113163,0.089061,-1.498464,1.342511,0.511342,-0.000771,0.546268,-1.163346,0.033546,-0.565347,0.151491,-0.203796,0.610820,2.938791,1.228721,-0.118255,-0.055818,0.000000,0.017313,0.058398,-0.000000
2.290000,-1.099711,0.094116,-1.498470,1.347945,0.499717,-0.000445,0.540645,-1.161683,0.031569,-0.562180,0.187262,-0.191468,-0.985815,6.214615,1.240631,-0.118068,-0.055233,0.000000,0.020769,0.057989,0.000000
2.300000,-1.086204,0.099055,-1.498473,1.353323,0.488111,-0.000139,0.534948,-1.159447,0.029717,-0.576575,0.258932,-0.179026,-0.893494,6.136024,1.243259,-0.117824,-0.054642,0.000000,0.027825,0.059361,-0.000000
2.310000,-1.072644,0.103878,-1.498473,1.358643,0.476531,0.000149,0.529045,-1.156367,0.027989,-0.606724,0.362305,-0.166566,-1.308149,7.046965,1.244616,-0.117497,-0.054031,0.000000,0.038063,0.062329,-0.000000
2.320000,-1.059032,0.108586,-1.498470,1.363904,0.464985,0.000421,0.523111,-1.152779,0.026385,-0.567529,0.330962,-0.154176,5.429385,-6.041599,1.236877,-0.117121,-0.053417,0.000000,0.034783,0.058281,0.000000
2.330000,-1.045367,0.113178,-1.498465,1.369107,0.453474,0.000678,0.517508,-1.149379,0.024906,-0.576172,0.394158,-0.141756,-7.272478,18.904375,1.247041,-0.116765,-0.052838,0.000000,0.040991,0.059077,-0.000000
2.340000,-1.031650,0.117655,-1.498457,1.374252,0.442003,0.000920,0.511382,-1.144490,0.023550,-0.637727,0.561784,-0.129316,-1.281944,7.269164,1.236755,-0.116260,-0.052207,0.000000,0.057682,0.065232,0.000000
2.350000,-1.017882,0.122018,-1.498446,1.379334,0.430587,0.001149,0.505038,-1.138697,0.022319,-0.633567,0.601666,-0.116993,-1.619664,8.012663,1.231437,-0.115667,-0.051554,0.000000,0.061557,0.064739,0.000000
2.360000,-1.004063,0.126267,-1.498434,1.384353,0.419231,0.001366,0.498766,-1.132574,0.021211,-0.616631,0.614831,-0.104646,-1.006273,6.841049,1.225839,-0.115041,-0.050909,0.000000,0.062753,0.062955,-0.000000
2.370000,-0.990195,0.130403,-1.498419,1.389309,0.407938,0.001574,0.492237,-1.125447,0.020225,-0.708948,0.850786,-0.092589,-11.609643,28.466404,1.196853,-0.114316,-0.050238,0.000000,0.086324,0.072234,0.000000
2.380000,-0.976277,0.134426,-1.498402,1.394194,0.396730,0.001771,0.484881,-1.116152,0.019359,-0.726076,0.934704,-0.080472,8.369948,-12.060386,1.226755,-0.113374,-0.049485,0.000000,0.094642,0.073907,0.000000
2.390000,-0.962311,0.138338,-1.498384,1.399008,0.385613,0.001961,0.478040,-1.107410,0.018616,-0.659691,0.849691,-0.068290,-0.990136,7.043472,1.197883,-0.112489,-0.048784,0.000000,0.085994,0.067127,-0.000000
2.400000,-0.948297,0.142139,-1.498363,1.403755,0.374583,0.002144,0.471242,-1.098252,0.017992,-0.695820,0.973851,-0.056419,-0.359366,5.846835,1.187778,-0.111563,-0.048088,0.000000,0.098366,0.070730,-0.000000
2.410000,-0.934236,0.145830,-1.498341,1.408433,0.363651,0.002321,0.464206,-1.088068,0.017487,-0.713043,1.067065,-0.044715,-0.424663,6.201640,1.173373,-0.110535,-0.047369,0.000000,0.107643,0.072423,0.000000
2.420000,-0.920129,0.149412,-1.498317,1.413039,0.352824,0.002494,0.457196,-1.077435,0.017099,-0.679895,1.037351,-0.032771,4.460649,-5.722364,1.195823,-0.109463,-0.046653,0.000000,0.104562,0.069017,-0.000000
2.430000,-0.905976,0.152887,-1.498291,1.417578,0.342101,0.002664,0.450483,-1.067007,0.016830,-0.678288,1.087454,-0.021209,-4.227090,15.956352,1.115867,-0.108412,-0.045967,0.000000,0.109517,0.068808,-0.000000
2.440000,-0.891778,0.156255,-1.498264,1.422048,0.331488,0.002831,0.443491,-1.055337,0.016673,-0.712233,1.227069,-0.010062,0.043063,5.508595,1.133160,-0.107237,-0.045254,0.000000,0.123494,0.072207,-0.000000
2.450000,-0.877535,0.159517,-1.498234,1.426447,0.320996,0.002998,0.436439,-1.042958,0.016630,-0.699756,1.252831,0.001288,-0.159116,6.106793,1.116907,-0.105992,-0.044535,0.000000,0.126021,0.070904,0.000000
2.460000,-0.863249,0.162675,-1.498204,1.430776,0.310631,0.003164,0.429285,-1.029899,0.016699,-0.735343,1.365888,0.012670,-0.904385,7.367325,1.107473,-0.104679,-0.043807,0.000000,0.137341,0.074476,-0.000000
2.470000,-0.848920,0.165730,-1.498171,1.435033,0.300400,0.003332,0.422199,-1.016341,0.016878,-0.662163,1.316132,0.022957,9.660549,-8.444502,1.000505,-0.103316,-0.043085,0.000000,0.132302,0.067029,0.000000
2.480000,-0.834548,0.168683,-1.498137,1.439223,0.290303,0.003502,0.415743,-1.003121,0.017160,-0.665541,1.383254,0.033740,-10.516400,22.139880,1.157589,-0.101987,-0.042428,0.000000,0.139022,0.067342,-0.000000
2.490000,-0.820136,0.171536,-1.498101,1.443345,0.280344,0.003676,0.408560,-0.988176,0.017555,-0.753441,1.579210,0.045086,-1.119946,8.078466,1.060438,-0.100485,-0.041698,0.000000,0.158728,0.076229,-0.000000
2.500000,-0.805682,0.174291,-1.498063,1.447393,0.270542,0.003854,0.401122,-0.972208,0.018058,-0.738120,1.620516,0.055381,-1.717805,9.089399,1.049403,-0.098880,-0.040942,0.000000,0.162887,0.074656,0.000000
2.510000,-0.791188,0.176948,-1.498024,1.451368,0.260901,0.004037,0.393938,-0.955993,0.018662,-0.690700,1.610008,0.065402,-0.545340,7.325806,1.026595,-0.097250,-0.040212,0.000000,0.161832,0.069828,-0.000000
2.520000,-0.776655,0.179509,-1.497983,1.455271,0.251426,0.004227,0.386393,-0.938563,0.019371,-0.856972,1.937164,0.076575,-21.285535,40.095132,1.138060,-0.095497,-0.039445,0.000000,0.194839,0.086689,-0.000000
2.530000,-0.762083,0.181977,-1.497939,1.459090,0.242141,0.004425,0.377372,-0.918151,0.020190,-0.876610,2.033837,0.086696,17.721344,-21.335747,0.883926,-0.093444,-0.038528,0.000000,0.204647,0.088681,0.000000
2.540000,-0.747473,0.184353,-1.497894,1.462823,0.233058,0.004631,0.369494,-0.898882,0.021100,-0.733347,1.874245,0.095667,-0.589512,7.576503,0.980964,-0.091505,-0.037728,0.000000,0.188588,0.074130,0.000000
2.550000,-0.732827,0.186639,-1.497847,1.466481,0.224165,0.004847,0.361835,-0.879295,0.022108,-0.790604,2.031143,0.105718,0.618038,5.702884,0.958917,-0.089534,-0.036951,0.000000,0.204490,0.079943,-0.000000
2.560000,-0.718144,0.188837,-1.497797,1.470059,0.215476,0.005074,0.353789,-0.858440,0.023214,-0.823217,2.146466,0.115531,0.226689,6.273607,0.948221,-0.087433,-0.036134,0.000000,0.216219,0.083260,0.000000
2.570000,-0.703426,0.190949,-1.497745,1.473557,0.206998,0.005312,0.345957,-0.837247,0.024413,-0.718398,2.054743,0.124173,13.569540,-13.835224,0.834263,-0.085298,-0.035339,0.000000,0.207026,0.072609,-0.000000
2.580000,-0.688673,0.192977,-1.497691,1.476982,0.198727,0.005562,0.339072,-0.816822,0.025700,-0.702305,2.096150,0.133353,-10.583972,22.465031,1.003622,-0.083240,-0.034641,0.000000,0.211294,0.070974,-0.000000
2.590000,-0.673886,0.194924,-1.497634,1.480336,0.190668,0.005826,0.331523,-0.794743,0.027083,-0.785447,2.286373,0.143155,1.173845,4.716228,0.902276,-0.081014,-0.033875,0.000000,0.230649,0.079439,-0.000000
2.600000,-0.659066,0.196792,-1.497574,1.483612,0.182835,0.006104,0.323917,-0.771929,0.028558,-0.740339,2.282992,0.151871,0.637849,5.454724,0.894748,-0.078712,-0.033103,0.000000,0.230418,0.074859,0.000000
2.610000,-0.644214,0.198582,-1.497512,1.486815,0.175230,0.006398,0.316513,-0.748808,0.030122,-0.741365,2.341835,0.161015,0.394391,5.614204,0.889125,-0.076377,-0.032352,0.000000,0.236498,0.074974,-0.000000
2.620000,-0.629330,0.200297,-1.497446,1.489943,0.167860,0.006707,0.309182,-0.725144,0.031775,-0.721088,2.388867,0.169242,2.454889,4.477464,0.799961,-0.073987,-0.031609,0.000000,0.241402,0.072924,0.000000
2.630000,-0.614416,0.201940,-1.497378,1.492999,0.160729,0.007033,0.302027,-0.700993,0.033509,-0.717568,2.445751,0.177931,-1.788357,6.921136,0.939302,-0.071545,-0.030883,0.000000,0.247312,0.072579,0.000000
2.640000,-0.599471,0.203512,-1.497306,1.495983,0.153843,0.007377,0.294759,-0.676188,0.035335,-0.732465,2.513456,0.187146,0.027203,5.928321,0.859593,-0.069036,-0.030146,0.000000,0.254328,0.074113,-0.000000
2.650000,-0.584496,0.205017,-1.497230,1.498894,0.147207,0.007740,0.287466,-0.650773,0.037248,-0.727278,2.570115,0.195497,-0.197145,6.086977,0.854532,-0.066464,-0.029407,0.000000,0.260245,0.073604,-0.000000
2.660000,-0.569493,0.206457,-1.497151,1.501732,0.140829,0.008123,0.280264,-0.624774,0.039245,-0.710817,2.629615,0.203812,0.067197,6.134913,0.841868,-0.063830,-0.028676,0.000000,0.266466,0.071945,0.000000
2.670000,-0.554462,0.207835,-1.497067,1.504499,0.134714,0.008525,0.272980,-0.598153,0.041327,-0.757359,2.695689,0.212625,-6.044630,6.753902,0.889334,-0.061132,-0.027937,0.000000,0.273357,0.076718,-0.000000
2.680000,-0.539403,0.209153,-1.496980,1.507190,0.128868,0.008950,0.265282,-0.570875,0.043496,-0.761783,2.757836,0.220939,5.268330,5.655677,0.772381,-0.058364,-0.027156,0.000000,0.279873,0.077196,-0.000000
2.690000,-0.524318,0.210413,-1.496888,1.509806,0.123298,0.009396,0.257927,-0.543015,0.045744,-0.719191,2.815025,0.228703,-0.103825,6.091817,0.811835,-0.055536,-0.026409,0.000000,0.285906,0.072873,-0.000000
2.700000,-0.509207,0.211619,-1.496792,1.512349,0.118010,0.009865,0.250644,-0.514554,0.048072,-0.735286,2.876695,0.236907,0.234263,5.908609,0.796990,-0.052644,-0.025670,0.000000,0.292396,0.074546,-0.000000
2.710000,-0.494072,0.212774,-1.496691,1.514819,0.113009,0.010357,0.243310,-0.485659,0.050480,-0.731095,2.897263,0.244788,0.392120,4.921995,0.782751,-0.049706,-0.024925,0.000000,0.294704,0.074148,-0.000000
2.720000,-0.478911,0.213881,-1.496585,1.517215,0.108299,0.010875,0.236010,-0.456096,0.052967,-0.729392,3.036827,0.252592,0.154751,16.452222,0.774241,-0.046698,-0.024184,0.000000,0.309185,0.074005,-0.000000
2.730000,-0.463727,0.214941,-1.496473,1.519539,0.103892,0.011417,0.228737,-0.425262,0.055532,-0.723675,3.089065,0.260197,0.993972,-6.214310,0.746477,-0.043557,-0.023445,0.000000,0.314759,0.073453,-0.000000
2.740000,-0.448521,0.215959,-1.496356,1.521790,0.099792,0.011985,0.221552,-0.394689,0.058171,-0.713724,3.044562,0.267588,0.785611,3.904119,0.735097,-0.040441,-0.022715,0.000000,0.310438,0.072469,0.000000
2.750000,-0.433292,0.216938,-1.496234,1.523970,0.095999,0.012581,0.214451,-0.363885,0.060883,-0.706248,3.111189,0.274865,0.914228,2.853641,0.716593,-0.037299,-0.021993,0.000000,0.317495,0.071737,-0.000000
2.760000,-0.418042,0.217880,-1.496105,1.526080,0.092516,0.013203,0.207405,-0.332537,0.063668,-0.703733,3.160396,0.282086,0.865925,2.727091,0.700081,-0.034098,-0.021277,0.000000,0.322777,0.071515,0.000000
2.770000,-0.402771,0.218790,-1.495969,1.528119,0.089349,0.013854,0.200478,-0.301027,0.066522,-0.677222,3.126617,0.288611,3.189343,-5.334703,0.631177,-0.030879,-0.020573,0.000000,0.319562,0.068834,-0.000000
2.780000,-0.387479,0.219669,-1.495828,1.530090,0.086494,0.014534,0.193800,-0.269814,0.069441,-0.666127,3.140799,0.295259,-1.013289,8.308904,0.699055,-0.027688,-0.019894,0.000000,0.321258,0.067731,-0.000000
2.790000,-0.372169,0.220520,-1.495679,1.531995,0.083955,0.015243,0.187088,-0.237998,0.072428,-0.672420,3.209202,0.302051,1.005761,1.200235,0.632196,-0.024432,-0.019211,0.000000,0.328522,0.068412,0.000000
2.800000,-0.356840,0.221349,-1.495523,1.533832,0.081735,0.015983,0.180446,-0.205960,0.075479,-0.656747,3.200475,0.308124,0.874085,1.229886,0.608617,-0.021151,-0.018535,0.000000,0.327877,0.066841,-0.000000
2.810000,-0.341493,0.222156,-1.495359,1.535604,0.079836,0.016753,0.173876,-0.173771,0.078591,-0.658625,3.240725,0.314256,0.597512,1.615857,0.584680,-0.017852,-0.017866,0.000000,0.332260,0.067071,0.000000
2.820000,-0.326128,0.222946,-1.495187,1.537310,0.078260,0.017555,0.167415,-0.141556,0.081760,-0.627819,3.184946,0.319507,3.767368,-7.713313,0.496933,-0.014548,-0.017207,0.000000,0.326780,0.063945,0.000000
2.830000,-0.310747,0.223723,-1.495008,1.538953,0.077003,0.018388,0.161227,-0.109823,0.084982,-0.620978,3.192630,0.324851,-2.455002,9.407161,0.572361,-0.011291,-0.016577,0.000000,0.327814,0.063278,-0.000000
2.840000,-0.295349,0.224488,-1.494820,1.540534,0.076066,0.019255,0.154893,-0.077428,0.088258,-0.640585,3.270744,0.330301,0.347653,1.106041,0.484909,-0.007963,-0.015931,0.000000,0.336093,0.065332,0.000000
