time,x,y,z,vx,vy,vz,ax,ay,az,jx,jy,jz,sx,sy,sz,roll,pitch,yaw,p,q,r
0.000000,-2.839880,-2.175015,-1.447291,0.016436,-0.009612,-0.001512,-0.718966,0.390410,-0.071206,18.322301,-13.013829,1.581549,-340.501188,371.757368,-43.898114,0.039386,0.072633,0.000000,-1.299975,-1.831487,-0.000000
0.010000,-2.839749,-2.175093,-1.447309,0.010108,-0.006299,-0.002152,-0.551927,0.277943,-0.057482,15.167619,-9.568761,1.173409,-291.261490,318.162952,-37.826195,0.028116,0.055876,0.000000,-0.961708,-1.525104,-0.000000
0.020000,-2.839673,-2.175144,-1.447333,0.005301,-0.003947,-0.002675,-0.414054,0.197337,-0.047545,12.480947,-6.632889,0.823148,-246.859209,269.872706,-32.317396,0.019999,0.041979,0.000000,-0.669285,-1.260148,-0.000000
0.030000,-2.839639,-2.175174,-1.447362,0.001745,-0.002262,-0.003114,-0.300905,0.143761,-0.040845,10.215113,-4.154535,0.525278,-207.053492,226.613958,-27.343593,0.014586,0.030537,0.000000,-0.420219,-1.034274,-0.000000
0.040000,-2.839635,-2.175190,-1.447395,-0.000787,-0.000996,-0.003501,-0.208498,0.112885,-0.036883,8.325358,-2.084747,0.274587,-171.603480,188.114056,-22.876681,0.011461,0.021171,0.000000,-0.211117,-0.844457,0.000000
0.050000,-2.839652,-2.175195,-1.447432,-0.002483,0.000058,-0.003859,-0.133286,0.100858,-0.035212,6.769328,-0.377300,0.066150,-140.268247,154.100277,-18.888324,0.010243,0.013537,0.000000,-0.038152,-0.687323,0.000000
0.060000,-2.839682,-2.175189,-1.447472,-0.003499,0.001073,-0.004211,-0.072133,0.104277,-0.035434,5.507080,1.011303,-0.104681,-112.807025,124.299998,-15.350623,0.010591,0.007326,0.000000,0.102635,-0.559370,0.000000
0.070000,-2.839720,-2.175173,-1.447516,-0.003963,0.002186,-0.004573,-0.022290,0.120158,-0.037195,4.501077,2.121836,-0.242271,-88.978926,98.440525,-12.235363,0.012202,0.002264,0.000000,0.215156,-0.457112,0.000000
0.080000,-2.839760,-2.175145,-1.447564,-0.003975,0.003509,-0.004959,0.018626,0.145914,-0.040182,3.716194,2.992341,-0.350703,-68.543106,76.249169,-9.514434,0.014812,-0.001891,0.000000,0.303180,-0.377162,0.000000
0.090000,-2.839798,-2.175102,-1.447616,-0.003613,0.005129,-0.005380,0.052661,0.179323,-0.044124,3.119711,3.658137,-0.433780,-51.258716,57.453226,-7.159758,0.018195,-0.005344,0.000000,0.370269,-0.316293,0.000000
0.100000,-2.839831,-2.175041,-1.447672,-0.002939,0.007114,-0.005844,0.081547,0.218503,-0.048785,2.681320,4.151818,-0.495021,-36.884670,41.780309,-5.142789,0.022159,-0.008271,0.000000,0.419746,-0.271472,-0.000000
0.110000,-2.839856,-2.174958,-1.447733,-0.001995,0.009513,-0.006357,0.106721,0.261885,-0.053963,2.373119,4.503245,-0.537667,-25.180417,28.957387,-3.435889,0.026542,-0.010819,0.000000,0.454672,-0.239882,-0.000000
0.120000,-2.839870,-2.174849,-1.447799,-0.000813,0.012362,-0.006924,0.129358,0.308184,-0.059487,2.169616,4.739557,-0.564678,-15.904976,18.711919,-2.010738,0.031213,-0.013106,0.000000,0.477840,-0.218936,0.000000
0.130000,-2.839871,-2.174710,-1.447871,0.000587,0.015683,-0.007548,0.150385,0.356374,-0.065213,2.047727,4.885166,-0.578728,-8.817470,10.771234,-0.839200,0.036068,-0.015227,0.000000,0.491764,-0.206286,0.000000
0.140000,-2.839858,-2.174534,-1.447950,0.002192,0.019493,-0.008229,0.170515,0.405658,-0.071026,1.986777,4.961755,-0.582213,-3.676948,4.862668,0.106853,0.041025,-0.017255,0.000000,0.498675,-0.199825,0.000000
0.150000,-2.839827,-2.174318,-1.448036,0.003996,0.023798,-0.008968,0.190263,0.455443,-0.076829,1.968502,4.988284,-0.577248,-0.242286,0.713574,0.855530,0.046025,-0.019242,0.000000,0.500519,-0.197697,0.000000
0.160000,-2.839777,-2.174057,-1.448130,0.005997,0.028602,-0.009765,0.209974,0.505311,-0.082549,1.977033,4.980983,-0.565666,1.725854,-1.948791,1.435086,0.051024,-0.021222,0.000000,0.498958,-0.198289,0.000000
0.170000,-2.839706,-2.173744,-1.448232,0.008196,0.033904,-0.010619,0.229848,0.554995,-0.088126,1.998933,4.953355,-0.549017,2.470134,-3.397032,1.873531,0.055997,-0.023217,0.000000,0.495372,-0.200240,-0.000000
0.180000,-2.839612,-2.173377,-1.448342,0.010595,0.039701,-0.011527,0.249960,0.604347,-0.093517,2.023157,4.916180,-0.528572,2.230763,-3.903822,2.199036,0.060929,-0.025234,0.000000,0.490855,-0.202434,-0.000000
0.190000,-2.839494,-2.172949,-1.448462,0.013196,0.045989,-0.012488,0.270290,0.653314,-0.098688,2.041072,4.877508,-0.505319,1.248568,-3.741772,2.439725,0.065814,-0.027271,0.000000,0.486222,-0.204002,-0.000000
0.200000,-2.839348,-2.172455,-1.448592,0.016001,0.052766,-0.013500,0.290740,0.701910,-0.103616,2.046455,4.842662,-0.479965,-0.235520,-3.183887,2.623835,0.070654,-0.029319,0.000000,0.482010,-0.204322,0.000000
0.210000,-2.839173,-2.171892,-1.448733,0.019013,0.060023,-0.014560,0.312040,0.748994,-0.108150,2.235916,4.540971,-0.422704,1.981209,-7.904312,3.377008,0.075337,-0.031451,0.000000,0.451298,-0.223239,-0.000000
0.220000,-2.838967,-2.171253,-1.448884,0.022241,0.067746,-0.015662,0.332594,0.796574,-0.112488,1.753265,5.137762,-0.462619,-63.501432,79.503399,-6.079208,0.080063,-0.033507,0.000000,0.510005,-0.174376,0.000000
0.230000,-2.838728,-2.170535,-1.449046,0.025648,0.075976,-0.016811,0.348800,0.849375,-0.117132,1.701122,5.128178,-0.433401,54.154228,-82.910511,12.084346,0.085301,-0.035122,0.000000,0.508304,-0.169001,0.000000
0.240000,-2.838453,-2.169732,-1.449220,0.029231,0.084711,-0.018002,0.368488,0.896518,-0.120860,2.127381,4.445981,-0.327922,-4.278867,-5.300768,3.672105,0.089970,-0.037088,0.000000,0.440113,-0.211841,-0.000000
0.250000,-2.838142,-2.168839,-1.449406,0.033018,0.093902,-0.019226,0.388604,0.941966,-0.124092,1.915840,4.612686,-0.314730,-2.771174,-9.427558,4.280001,0.094467,-0.039098,0.000000,0.456168,-0.190470,0.000000
0.260000,-2.837792,-2.167853,-1.449605,0.037000,0.103550,-0.020482,0.407804,0.987541,-0.127023,1.928437,4.498902,-0.271159,-2.644907,-10.722399,4.509085,0.098972,-0.041016,0.000000,0.444484,-0.191679,0.000000
0.270000,-2.837402,-2.166767,-1.449816,0.041173,0.113649,-0.021765,0.426532,1.032112,-0.129501,1.789949,4.422336,-0.223918,-17.353165,-7.099229,4.855795,0.103374,-0.042887,0.000000,0.436683,-0.177834,0.000000
0.280000,-2.836968,-2.165578,-1.450040,0.045526,0.124190,-0.023071,0.443965,1.075831,-0.131499,1.743054,4.304237,-0.175787,8.217853,-16.588581,4.762546,0.107690,-0.044628,0.000000,0.424808,-0.173185,0.000000
0.290000,-2.836491,-2.164282,-1.450277,0.050054,0.135160,-0.024394,0.461796,1.118029,-0.133016,1.798638,4.141744,-0.127202,-4.869046,-13.355683,5.027413,0.111854,-0.046411,0.000000,0.408569,-0.178788,-0.000000
0.300000,-2.835967,-2.162874,-1.450528,0.054761,0.146546,-0.025729,0.479327,1.158832,-0.134033,1.711761,4.015753,-0.076017,-4.754014,-14.366314,5.125703,0.115879,-0.048165,0.000000,0.396148,-0.170224,-0.000000
0.310000,-2.835395,-2.161350,-1.450792,0.059639,0.158332,-0.027073,0.496237,1.198272,-0.134539,1.670560,3.871408,-0.025237,-4.944066,-15.078900,5.178797,0.119770,-0.049859,0.000000,0.381973,-0.166245,-0.000000
0.320000,-2.834773,-2.159706,-1.451069,0.064684,0.170506,-0.028418,0.512614,1.236189,-0.134524,1.599546,3.708998,0.028870,-7.838032,-16.820145,5.487234,0.123512,-0.051502,0.000000,0.366164,-0.159347,-0.000000
0.330000,-2.834101,-2.157938,-1.451360,0.069889,0.183051,-0.029761,0.528289,1.272458,-0.133968,1.543627,3.547231,0.081256,-3.296971,-15.503613,4.979942,0.127094,-0.053077,0.000000,0.350487,-0.153976,0.000000
0.340000,-2.833375,-2.156043,-1.451665,0.075248,0.195950,-0.031096,0.543556,1.307146,-0.132907,1.505046,3.387604,0.131391,-5.844492,-16.986936,5.192899,0.130523,-0.054613,0.000000,0.335070,-0.150348,0.000000
0.350000,-2.832595,-2.154018,-1.451982,0.080758,0.209188,-0.032418,0.558273,1.340149,-0.131331,1.438954,3.212619,0.183722,-5.942604,-17.424583,5.117857,0.133790,-0.056098,0.000000,0.318273,-0.144025,-0.000000
0.360000,-2.831759,-2.151859,-1.452313,0.086412,0.222747,-0.033721,0.572366,1.371402,-0.129243,1.379581,3.037362,0.233524,-6.088310,-17.811418,5.003504,0.136889,-0.057523,0.000000,0.301495,-0.138384,-0.000000
0.370000,-2.830866,-2.149562,-1.452656,0.092203,0.236610,-0.035001,0.585847,1.400868,-0.126651,1.315793,2.854806,0.285221,-6.509783,-18.499751,5.170081,0.139817,-0.058890,0.000000,0.284106,-0.132342,0.000000
0.380000,-2.829915,-2.147125,-1.453013,0.098126,0.250758,-0.036252,0.598686,1.428497,-0.123551,1.252727,2.671552,0.333449,-6.094813,-18.134943,4.465824,0.142571,-0.060196,0.000000,0.266674,-0.126375,0.000000
0.390000,-2.828903,-2.144546,-1.453381,0.104175,0.265174,-0.037470,0.610907,1.454302,-0.119997,1.190825,2.488469,0.377707,-6.438998,-18.663411,4.544136,0.145151,-0.061444,0.000000,0.249267,-0.120520,-0.000000
0.400000,-2.827831,-2.141821,-1.453762,0.110342,0.279838,-0.038651,0.622488,1.478245,-0.115991,1.125347,2.300099,0.422868,-6.496221,-18.810555,4.321557,0.147554,-0.062631,0.000000,0.231413,-0.114335,0.000000
0.410000,-2.826696,-2.138948,-1.454154,0.116622,0.294733,-0.039789,0.633414,1.500303,-0.111554,1.059882,2.111378,0.464219,-6.548230,-18.916484,4.071549,0.149779,-0.063756,0.000000,0.213519,-0.108143,-0.000000
0.420000,-2.825498,-2.135926,-1.454558,0.123008,0.309838,-0.040880,0.643688,1.520471,-0.106705,0.994863,1.922018,0.505392,-6.496363,-18.955156,4.036696,0.151825,-0.064818,0.000000,0.195603,-0.102008,-0.000000
0.430000,-2.824236,-2.132751,-1.454972,0.129494,0.325136,-0.041922,0.653309,1.538742,-0.101461,0.929093,1.732273,0.542306,-6.655977,-18.985860,3.339179,0.153691,-0.065819,0.000000,0.177620,-0.095782,0.000000
0.440000,-2.822908,-2.129422,-1.455396,0.136072,0.340607,-0.042909,0.662267,1.555116,-0.095876,0.862691,1.542619,0.574604,-6.577241,-18.929452,3.241686,0.155377,-0.066757,0.000000,0.159602,-0.089471,-0.000000
0.450000,-2.821514,-2.125938,-1.455830,0.142737,0.356232,-0.043838,0.670567,1.569598,-0.089970,0.797238,1.353771,0.606031,-6.555942,-18.841240,2.918005,0.156883,-0.067631,0.000000,0.141668,-0.083254,-0.000000
0.460000,-2.820053,-2.122297,-1.456272,0.149482,0.371992,-0.044707,0.678211,1.582194,-0.083770,0.731628,1.165756,0.633263,-6.520567,-18.714489,2.582840,0.158210,-0.068442,0.000000,0.123760,-0.076996,0.000000
0.470000,-2.818524,-2.118498,-1.456724,0.156299,0.387869,-0.045513,0.685204,1.592921,-0.077311,0.667272,0.979987,0.658170,-6.389444,-18.471811,2.342236,0.159359,-0.069191,0.000000,0.106039,-0.070847,0.000000
0.480000,-2.816927,-2.114540,-1.457182,0.163184,0.403844,-0.046252,0.691556,1.601799,-0.070621,0.603020,0.795627,0.678929,-6.459830,-18.395222,1.806565,0.160331,-0.069877,0.000000,0.088387,-0.064679,0.000000
0.490000,-2.815260,-2.110421,-1.457648,0.170128,0.419899,-0.046924,0.697265,1.608839,-0.063747,0.538964,0.612995,0.695389,-6.307085,-18.085727,1.539761,0.161127,-0.070501,0.000000,0.070825,-0.058496,-0.000000
0.500000,-2.813524,-2.106142,-1.458121,0.177127,0.436015,-0.047527,0.702342,1.614070,-0.056721,0.476572,0.433688,0.709244,-6.210803,-17.809200,1.175537,0.161749,-0.071063,0.000000,0.053530,-0.052455,-0.000000
0.510000,-2.811718,-2.101701,-1.458599,0.184173,0.452175,-0.048058,0.706798,1.617521,-0.049575,0.414952,0.256962,0.719318,-6.099275,-17.501081,0.815905,0.162198,-0.071564,0.000000,0.036407,-0.046456,0.000000
0.520000,-2.809840,-2.097098,-1.459082,0.191261,0.468360,-0.048518,0.710646,1.619223,-0.042348,0.354739,0.084041,0.725350,-5.952496,-17.107075,0.413445,0.162478,-0.072005,0.000000,0.019565,-0.040561,0.000000
0.530000,-2.807892,-2.092333,-1.459569,0.198384,0.484553,-0.048905,0.713897,1.619212,-0.035079,0.295709,-0.085692,0.728074,-5.851728,-16.835830,0.132838,0.162590,-0.072386,0.000000,0.002952,-0.034749,0.000000
0.540000,-2.805873,-2.087407,-1.460060,0.205537,0.500738,-0.049220,0.716564,1.617520,-0.027798,0.237975,-0.252004,0.727566,-5.681626,-16.393193,-0.256271,0.162538,-0.072709,0.000000,-0.013411,-0.029033,-0.000000
0.550000,-2.803781,-2.082319,-1.460553,0.212713,0.516898,-0.049461,0.718663,1.614188,-0.020541,0.182023,-0.413723,0.723166,-5.518408,-15.975610,-0.599096,0.162323,-0.072975,0.000000,-0.029422,-0.023455,0.000000
0.560000,-2.801618,-2.077069,-1.461049,0.219908,0.533017,-0.049631,0.720210,1.609259,-0.013343,0.127779,-0.571407,0.716019,-5.341378,-15.536041,-0.922972,0.161950,-0.073185,0.000000,-0.045118,-0.018015,-0.000000
0.570000,-2.799383,-2.071659,-1.461545,0.227116,0.549078,-0.049728,0.721223,1.602777,-0.006239,0.075114,-0.724175,0.703877,-5.177245,-15.035305,-1.411690,0.161422,-0.073341,0.000000,-0.060449,-0.012684,-0.000000
0.580000,-2.797076,-2.066088,-1.462043,0.234331,0.565067,-0.049756,0.721720,1.594790,0.000729,0.024534,-0.872492,0.689754,-4.936626,-14.625721,-1.407581,0.160743,-0.073443,0.000000,-0.075413,-0.007535,-0.000000
0.590000,-2.794697,-2.060357,-1.462540,0.241548,0.580969,-0.049714,0.721722,1.585342,0.007551,-0.023838,-1.016208,0.673922,-4.748940,-14.093486,-1.848608,0.159915,-0.073494,0.000000,-0.089990,-0.002582,0.000000
0.600000,-2.792245,-2.054469,-1.463037,0.248764,0.596770,-0.049605,0.721249,1.574484,0.014191,-0.070305,-1.154491,0.653624,-4.530312,-13.581969,-2.115946,0.158944,-0.073496,0.000000,-0.104139,0.002224,0.000000
0.610000,-2.789721,-2.048422,-1.463532,0.255972,0.612454,-0.049431,0.720324,1.562268,0.020621,-0.114324,-1.287839,0.631980,-4.298920,-13.059003,-2.354053,0.157834,-0.073450,0.000000,-0.117859,0.006805,0.000000
0.620000,-2.787126,-2.042220,-1.464025,0.263169,0.628011,-0.049194,0.718968,1.548747,0.026811,-0.156471,-1.415397,0.605291,-4.105327,-12.475769,-2.841094,0.156589,-0.073358,0.000000,-0.131119,0.011246,0.000000
0.630000,-2.784458,-2.035863,-1.464516,0.270350,0.643425,-0.048896,0.717204,1.533977,0.032726,-0.195907,-1.537848,0.578151,-3.779882,-12.013795,-2.578872,0.155213,-0.073223,0.000000,-0.143911,0.015428,0.000000
0.640000,-2.781719,-2.029352,-1.465003,0.277512,0.658686,-0.048540,0.715060,1.518007,0.038375,-0.232522,-1.655137,0.550968,-3.565805,-11.417327,-2.994619,0.153712,-0.073047,0.000000,-0.156222,0.019334,-0.000000
0.650000,-2.778908,-2.022690,-1.465486,0.284650,0.673782,-0.048129,0.712560,1.500895,0.043729,-0.266997,-1.766395,0.519537,-3.304353,-10.857780,-3.148563,0.152090,-0.072832,0.000000,-0.168025,0.023064,-0.000000
0.660000,-2.776026,-2.015877,-1.465965,0.291762,0.688700,-0.047667,0.709730,1.482696,0.048768,-0.298587,-1.872366,0.488241,-3.035691,-10.295784,-3.270090,0.150353,-0.072581,0.000000,-0.179323,0.026508,-0.000000
0.670000,-2.773073,-2.008916,-1.466440,0.298843,0.703432,-0.047155,0.706595,1.463470,0.053477,-0.327905,-1.971932,0.452709,-2.804685,-9.655777,-3.673583,0.148506,-0.072297,0.000000,-0.190064,0.029759,0.000000
0.680000,-2.770049,-2.001809,-1.466908,0.305893,0.717967,-0.046598,0.703182,1.443275,0.057827,-0.354195,-2.066288,0.418184,-2.451989,-9.216316,-3.222520,0.146554,-0.071981,0.000000,-0.200285,0.032701,0.000000
0.690000,-2.766955,-1.994558,-1.467371,0.312906,0.732294,-0.046000,0.699522,1.422161,0.061846,-0.377385,-2.155474,0.385128,-2.207849,-8.581874,-3.544777,0.144502,-0.071637,0.000000,-0.209981,0.035323,-0.000000
0.700000,-2.763791,-1.987164,-1.467828,0.319882,0.746407,-0.045363,0.695642,1.400187,0.065515,-0.398141,-2.238264,0.348731,-1.921522,-8.015019,-3.570874,0.142356,-0.071267,0.000000,-0.219093,0.037724,0.000000
0.710000,-2.760557,-1.979630,-1.468279,0.326819,0.760296,-0.044691,0.691570,1.377412,0.068828,-0.415854,-2.315892,0.313797,-1.633163,-7.454226,-3.565862,0.140122,-0.070876,0.000000,-0.227670,0.039807,0.000000
0.720000,-2.757255,-1.971959,-1.468722,0.333713,0.773953,-0.043987,0.687334,1.353893,0.071779,-0.430914,-2.386839,0.276076,-1.366479,-6.790991,-3.824983,0.137805,-0.070464,0.000000,-0.235617,0.041641,-0.000000
0.730000,-2.753883,-1.964152,-1.469158,0.340565,0.787371,-0.043256,0.682962,1.329691,0.074358,-0.442926,-2.452884,0.240512,-1.035517,-6.420716,-3.279393,0.135411,-0.070036,0.000000,-0.243038,0.043149,-0.000000
0.740000,-2.750444,-1.956212,-1.469587,0.347372,0.800544,-0.042501,0.678485,1.304851,0.076600,-0.451869,-2.514159,0.207541,-0.765404,-5.779714,-3.462039,0.132946,-0.069594,0.000000,-0.249938,0.044326,0.000000
0.750000,-2.746936,-1.948142,-1.470008,0.354134,0.813466,-0.041725,0.673933,1.279431,0.078499,-0.458134,-2.568979,0.172627,-0.475354,-5.240560,-3.366947,0.130415,-0.069142,0.000000,-0.256207,0.045243,0.000000
0.760000,-2.743361,-1.939944,-1.470421,0.360851,0.826131,-0.040932,0.669333,1.253486,0.080062,-0.461460,-2.619087,0.140136,-0.187887,-4.713618,-3.247445,0.127823,-0.068683,0.000000,-0.261957,0.045840,0.000000
0.770000,-2.739719,-1.931620,-1.470827,0.367521,0.838534,-0.040125,0.664713,1.227072,0.081297,-0.461877,-2.662649,0.106644,0.101657,-4.067183,-3.331690,0.125178,-0.068219,0.000000,-0.267046,0.046146,0.000000
0.780000,-2.736011,-1.923174,-1.471224,0.374145,0.850671,-0.039307,0.660104,1.200247,0.082205,-0.459487,-2.701867,0.075999,0.375849,-3.780237,-2.790850,0.122484,-0.067754,0.000000,-0.271643,0.046142,0.000000
0.790000,-2.732236,-1.914608,-1.471613,0.380723,0.862538,-0.038482,0.655533,1.173048,0.082828,-0.454327,-2.736939,0.048539,0.657642,-3.168605,-2.815454,0.119746,-0.067290,0.000000,-0.275767,0.045831,-0.000000
0.800000,-2.728396,-1.905924,-1.471994,0.387256,0.874131,-0.037652,0.651027,1.145530,0.083173,-0.446366,-2.765850,0.020735,0.930932,-2.682924,-2.625892,0.116971,-0.066831,0.000000,-0.279253,0.045232,0.000000
0.810000,-2.724491,-1.897126,-1.472366,0.393744,0.885448,-0.036820,0.646614,1.117744,0.083254,-0.435807,-2.790674,-0.004170,1.196788,-2.213218,-2.421710,0.114163,-0.066380,0.000000,-0.282273,0.044346,0.000000
0.820000,-2.720522,-1.888216,-1.472730,0.400188,0.896485,-0.035988,0.642321,1.089738,0.083091,-0.422297,-2.809505,-0.028291,1.487818,-1.623965,-2.333743,0.111328,-0.065940,0.000000,-0.284658,0.043149,-0.000000
0.830000,-2.716488,-1.879197,-1.473086,0.406591,0.907242,-0.035158,0.638176,1.061565,0.082698,-0.406417,-2.824641,-0.049402,1.686339,-1.407590,-1.884640,0.108471,-0.065513,0.000000,-0.286614,0.041687,0.000000
0.840000,-2.712390,-1.870072,-1.473433,0.412952,0.917716,-0.034334,0.634200,1.033256,0.082114,-0.388265,-2.836312,-0.067307,1.959145,-0.859576,-1.762366,0.105597,-0.065102,0.000000,-0.288166,0.039969,0.000000
0.850000,-2.708229,-1.860844,-1.473772,0.419275,0.927907,-0.033517,0.630420,1.004859,0.081355,-0.367403,-2.842469,-0.084050,2.195406,-0.443206,-1.517891,0.102710,-0.064710,0.000000,-0.289128,0.037964,-0.000000
0.860000,-2.704005,-1.851515,-1.474104,0.425562,0.937813,-0.032708,0.626859,0.976417,0.080443,-0.344446,-2.845215,-0.097928,2.421116,-0.044996,-1.270020,0.099815,-0.064339,0.000000,-0.289696,0.035723,-0.000000
0.870000,-2.699718,-1.842088,-1.474427,0.431813,0.947435,-0.031908,0.623541,0.947972,0.079404,-0.318756,-2.842860,-0.109552,2.688331,0.453880,-1.041901,0.096918,-0.063993,0.000000,-0.289707,0.033186,-0.000000
0.880000,-2.695369,-1.832567,-1.474742,0.438033,0.956773,-0.031120,0.620490,0.919570,0.078261,-0.291275,-2.837437,-0.118498,2.805224,0.626508,-0.746668,0.094022,-0.063673,0.000000,-0.289366,0.030447,0.000000
0.890000,-2.690957,-1.822954,-1.475049,0.444224,0.965827,-0.030343,0.617720,0.891233,0.077043,-0.262147,-2.829176,-0.124733,3.045719,1.083179,-0.512793,0.091132,-0.063382,0.000000,-0.288696,0.027521,0.000000
0.900000,-2.686484,-1.813252,-1.475349,0.450389,0.974598,-0.029579,0.615255,0.863002,0.075774,-0.230627,-2.816336,-0.128651,3.229074,1.422701,-0.258686,0.088250,-0.063121,0.000000,-0.287529,0.024335,0.000000
0.910000,-2.681950,-1.803463,-1.475641,0.456530,0.983087,-0.028828,0.613112,0.834915,0.074477,-0.197646,-2.800693,-0.130201,3.398448,1.746212,-0.012504,0.085382,-0.062894,0.000000,-0.286045,0.020984,0.000000
0.920000,-2.677354,-1.793591,-1.475925,0.462652,0.991297,-0.028090,0.611310,0.807003,0.073181,-0.162392,-2.781067,-0.128552,3.617923,2.134882,0.303077,0.082531,-0.062701,0.000000,-0.284120,0.017379,0.000000
0.930000,-2.672697,-1.783638,-1.476203,0.468758,0.999228,-0.027364,0.609868,0.779301,0.071913,-0.126011,-2.758920,-0.124962,3.655106,2.290638,0.412688,0.079700,-0.062545,0.000000,-0.281916,0.013647,-0.000000
0.940000,-2.667978,-1.773607,-1.476473,0.474851,1.006883,-0.026651,0.608793,0.751831,0.070687,-0.088678,-2.734461,-0.119549,3.842063,2.640642,0.707100,0.076893,-0.062428,0.000000,-0.279458,0.009805,0.000000
0.950000,-2.663200,-1.763501,-1.476736,0.480935,1.014265,-0.025950,0.608101,0.724625,0.069532,-0.049497,-2.706510,-0.111180,3.959672,2.904937,0.926911,0.074113,-0.062349,0.000000,-0.276618,0.005756,0.000000
0.960000,-2.658360,-1.753323,-1.476992,0.487014,1.021377,-0.025260,0.607805,0.697708,0.068468,-0.009553,-2.676303,-0.101287,4.061809,3.154794,1.130025,0.071362,-0.062312,0.000000,-0.273536,0.001619,0.000000
0.970000,-2.653459,-1.743074,-1.477241,0.493092,1.028221,-0.024581,0.607916,0.671108,0.067519,0.032014,-2.643270,-0.087882,4.215174,3.429249,1.471202,0.068643,-0.062318,0.000000,-0.270142,-0.002706,-0.000000
0.980000,-2.648498,-1.732759,-1.477483,0.499174,1.034800,-0.023910,0.608447,0.644850,0.066713,0.073991,-2.608191,-0.073536,4.176843,3.583618,1.393275,0.065960,-0.062367,0.000000,-0.266535,-0.007080,0.000000
0.990000,-2.643476,-1.722379,-1.477719,0.505263,1.041119,-0.023246,0.609397,0.618951,0.066050,0.116188,-2.571235,-0.058491,4.294373,3.825662,1.691715,0.063313,-0.062460,0.000000,-0.262736,-0.011481,0.000000
1.000000,-2.638393,-1.711938,-1.477948,0.511363,1.047180,-0.022588,0.610775,0.593433,0.065555,0.159536,-2.531895,-0.040418,4.338906,4.019500,1.842188,0.060706,-0.062597,0.000000,-0.258678,-0.016019,-0.000000
1.010000,-2.633248,-1.701437,-1.478171,0.517480,1.052989,-0.021934,0.612587,0.568318,0.065243,0.202909,-2.490787,-0.021867,4.367102,4.200914,1.970097,0.058140,-0.062781,0.000000,-0.254443,-0.020565,0.000000
1.020000,-2.628043,-1.690879,-1.478387,0.523616,1.058548,-0.021282,0.614836,0.543624,0.065130,0.247140,-2.447910,-0.000107,4.443714,4.371299,2.277302,0.055617,-0.063010,0.000000,-0.250016,-0.025221,0.000000
1.030000,-2.622776,-1.680266,-1.478596,0.529778,1.063863,-0.020631,0.617528,0.519366,0.065239,0.291042,-2.403429,0.021486,4.333236,4.522672,2.035254,0.053140,-0.063286,0.000000,-0.245433,-0.029844,-0.000000
1.040000,-2.617447,-1.669602,-1.478799,0.535968,1.068937,-0.019977,0.620655,0.495560,0.065557,0.334420,-2.357475,0.042595,4.372917,4.667156,2.286157,0.050709,-0.063607,0.000000,-0.240710,-0.034413,-0.000000
1.050000,-2.612057,-1.658888,-1.478996,0.542192,1.073776,-0.019319,0.624219,0.472221,0.066101,0.378172,-2.310143,0.066280,4.341558,4.796675,2.345000,0.048326,-0.063975,0.000000,-0.235842,-0.039041,-0.000000
1.060000,-2.606603,-1.648127,-1.479186,0.548454,1.078383,-0.018654,0.628216,0.449361,0.066880,0.421200,-2.261516,0.089354,4.293582,4.915410,2.378962,0.045993,-0.064389,0.000000,-0.230852,-0.043594,0.000000
1.070000,-2.601087,-1.637322,-1.479369,0.554758,1.082764,-0.017980,0.632643,0.426993,0.067898,0.464289,-2.211978,0.114830,4.290548,5.001090,2.604157,0.043710,-0.064848,0.000000,-0.225766,-0.048174,0.000000
1.080000,-2.595508,-1.626473,-1.479545,0.561108,1.086925,-0.017295,0.637498,0.405126,0.069171,0.506310,-2.161307,0.139085,4.110251,5.131551,2.240228,0.041478,-0.065353,0.000000,-0.220578,-0.052642,-0.000000
1.090000,-2.589865,-1.615584,-1.479715,0.567509,1.090869,-0.016596,0.642765,0.383771,0.070674,0.547073,-2.109606,0.161778,4.071309,5.195769,2.405404,0.039298,-0.065901,0.000000,-0.215299,-0.056975,-0.000000
1.100000,-2.584158,-1.604656,-1.479877,0.573965,1.094602,-0.015881,0.648439,0.362935,0.072415,0.587424,-2.057339,0.186187,3.964943,5.266727,2.364478,0.037172,-0.066493,0.000000,-0.209962,-0.061284,0.000000
1.110000,-2.578386,-1.593692,-1.480032,0.580480,1.098129,-0.015147,0.654508,0.342627,0.074391,0.626321,-2.004283,0.209010,3.842767,5.327301,2.300848,0.035099,-0.067127,0.000000,-0.204556,-0.065440,0.000000
1.120000,-2.572548,-1.582694,-1.480180,0.587057,1.101456,-0.014392,0.660963,0.322850,0.076601,0.664516,-1.950972,0.233100,3.764076,5.347983,2.413294,0.033081,-0.067803,0.000000,-0.199126,-0.069539,0.000000
1.130000,-2.566644,-1.571664,-1.480320,0.593700,1.104588,-0.013614,0.667793,0.303609,0.079046,0.700930,-1.897051,0.255101,3.515588,5.434783,1.980931,0.031117,-0.068518,0.000000,-0.193646,-0.073448,0.000000
1.140000,-2.560674,-1.560603,-1.480452,0.600414,1.107530,-0.012811,0.674975,0.284911,0.081694,0.735386,-1.842613,0.274700,3.403641,5.435980,2.037897,0.029208,-0.069272,0.000000,-0.188124,-0.077147,-0.000000
1.150000,-2.554636,-1.549514,-1.480576,0.607201,1.110288,-0.011980,0.682497,0.266757,0.084544,0.768703,-1.788239,0.294939,3.227495,5.451605,1.905910,0.027355,-0.070061,0.000000,-0.182610,-0.080741,0.000000
1.160000,-2.548529,-1.538398,-1.480692,0.614065,1.112867,-0.011119,0.690342,0.249147,0.087584,0.799897,-1.733666,0.312850,3.037408,5.455752,1.755636,0.025556,-0.070886,0.000000,-0.177083,-0.084107,0.000000
1.170000,-2.542354,-1.527257,-1.480799,0.621009,1.115273,-0.010228,0.698491,0.232083,0.090802,0.829671,-1.679210,0.330758,2.887938,5.438881,1.744007,0.023813,-0.071744,0.000000,-0.171570,-0.087334,0.000000
1.180000,-2.536109,-1.516093,-1.480896,0.628035,1.117510,-0.009303,0.706927,0.215563,0.094190,0.857039,-1.624815,0.346012,2.582914,5.438455,1.302083,0.022125,-0.072632,0.000000,-0.166069,-0.090302,-0.000000
1.190000,-2.529793,-1.504908,-1.480985,0.635148,1.119586,-0.008343,0.715623,0.199586,0.097712,0.881847,-1.570583,0.358367,2.404476,5.401001,1.247374,0.020491,-0.073549,0.000000,-0.160590,-0.092991,-0.000000
1.200000,-2.523406,-1.493702,-1.481063,0.642349,1.121504,-0.007348,0.724558,0.184149,0.101357,0.904857,-1.516786,0.370238,2.168087,5.361846,1.044635,0.018913,-0.074492,0.000000,-0.155155,-0.095498,-0.000000
1.210000,-2.516946,-1.482478,-1.481131,0.649640,1.123271,-0.006316,0.733711,0.169249,0.105107,0.925170,-1.463432,0.379372,1.920066,5.310911,0.830981,0.017388,-0.075459,0.000000,-0.149767,-0.097712,-0.000000
1.220000,-2.510413,-1.471237,-1.481189,0.657024,1.124891,-0.005246,0.743056,0.154879,0.108941,0.943477,-1.410575,0.387299,1.713183,5.255559,0.703394,0.015917,-0.076446,0.000000,-0.144429,-0.099715,-0.000000
1.230000,-2.503805,-1.459981,-1.481236,0.664502,1.126370,-0.004137,0.752570,0.141035,0.112843,0.958847,-1.358421,0.392370,1.358368,5.173379,0.308082,0.014499,-0.077452,0.000000,-0.139163,-0.101398,-0.000000
1.240000,-2.497122,-1.448710,-1.481272,0.672075,1.127713,-0.002989,0.762222,0.127708,0.116778,0.971151,-1.307080,0.394442,1.127912,5.096269,0.155296,0.013134,-0.078473,0.000000,-0.133978,-0.102744,0.000000
1.250000,-2.490363,-1.437427,-1.481296,0.679746,1.128926,-0.001801,0.771986,0.114891,0.120728,0.981155,-1.256555,0.395033,0.844377,5.003672,-0.087964,0.011819,-0.079506,0.000000,-0.128873,-0.103844,-0.000000
1.260000,-2.483527,-1.426132,-1.481308,0.687515,1.130013,-0.000574,0.781834,0.102573,0.124669,0.988028,-1.207115,0.392849,0.552347,4.899033,-0.333941,0.010556,-0.080549,0.000000,-0.123876,-0.104600,0.000000
1.270000,-2.476613,-1.414827,-1.481307,0.695383,1.130979,0.000692,0.791739,0.090746,0.128578,0.992393,-1.158456,0.388486,0.297087,4.815120,-0.553954,0.009342,-0.081598,0.000000,-0.118955,-0.105079,0.000000
1.280000,-2.469619,-1.403513,-1.481294,0.703350,1.131829,0.001997,0.801671,0.079399,0.132430,0.993476,-1.111182,0.381451,-0.082179,4.637384,-0.853617,0.008176,-0.082649,0.000000,-0.114170,-0.105197,0.000000
1.290000,-2.462545,-1.392191,-1.481267,0.711417,1.132568,0.003340,0.811597,0.068517,0.136198,0.991189,-1.065417,0.371715,-0.353148,4.530327,-1.078333,0.007058,-0.083700,0.000000,-0.109534,-0.104944,-0.000000
1.300000,-2.455390,-1.380862,-1.481227,0.719582,1.133201,0.004721,0.821486,0.058088,0.139857,0.986198,-1.020745,0.359763,-0.667868,4.386243,-1.327190,0.005985,-0.084747,0.000000,-0.105004,-0.104389,0.000000
1.310000,-2.448153,-1.369527,-1.481173,0.727846,1.133732,0.006137,0.831309,0.048096,0.143385,0.977856,-0.977813,0.345374,-0.986266,4.230213,-1.570280,0.004957,-0.085787,0.000000,-0.100646,-0.103464,0.000000
1.320000,-2.440833,-1.358187,-1.481104,0.736208,1.134164,0.007588,0.841034,0.038529,0.146755,0.966600,-0.935881,0.328183,-1.279795,4.124052,-1.847464,0.003972,-0.086816,0.000000,-0.096384,-0.102209,-0.000000
1.330000,-2.433429,-1.346844,-1.481021,0.744666,1.134504,0.009072,0.850630,0.029372,0.149941,0.951949,-0.896004,0.308857,-1.651177,3.848785,-2.016140,0.003029,-0.087830,0.000000,-0.092325,-0.100580,0.000000
1.340000,-2.425939,-1.335498,-1.480922,0.753220,1.134753,0.010586,0.860061,0.020601,0.152925,0.933864,-0.858314,0.287482,-1.951222,3.718870,-2.277559,0.002125,-0.088826,0.000000,-0.088484,-0.098572,-0.000000
1.350000,-2.418364,-1.324149,-1.480809,0.761867,1.134917,0.012129,0.869297,0.012202,0.155682,0.912796,-0.821914,0.263501,-2.276803,3.528569,-2.497429,0.001259,-0.089800,0.000000,-0.084768,-0.096225,-0.000000
1.360000,-2.410702,-1.312800,-1.480680,0.770605,1.134998,0.013699,0.878306,0.004155,0.158190,0.888373,-0.787784,0.237741,-2.601778,3.328721,-2.703960,0.000429,-0.090749,0.000000,-0.081278,-0.093509,0.000000
1.370000,-2.402952,-1.301450,-1.480535,0.779432,1.135001,0.015292,0.887055,-0.003558,0.160426,0.860818,-0.755064,0.208985,-2.914634,3.182569,-2.995920,-0.000367,-0.091669,0.000000,-0.077925,-0.090435,-0.000000
1.380000,-2.395113,-1.290100,-1.480374,0.788345,1.134928,0.016906,0.895511,-0.010955,0.162365,0.829966,-0.724821,0.178900,-3.255593,2.863965,-3.017677,-0.001131,-0.092557,0.000000,-0.074820,-0.087000,-0.000000
1.390000,-2.387184,-1.278751,-1.480197,0.797341,1.134783,0.018539,0.903643,-0.018064,0.164000,0.795832,-0.697165,0.147670,-3.564988,2.698078,-3.276162,-0.001864,-0.093408,0.000000,-0.071974,-0.083208,-0.000000
1.400000,-2.379166,-1.267404,-1.480003,0.806417,1.134568,0.020185,0.911418,-0.024903,0.165309,0.758628,-0.671148,0.113839,-3.880697,2.472324,-3.437278,-0.002571,-0.094220,0.000000,-0.069289,-0.079067,-0.000000
1.410000,-2.371056,-1.256060,-1.479793,0.815568,1.134286,0.021844,0.918805,-0.031496,0.166275,0.718290,-0.647730,0.079109,-4.191046,2.240018,-3.579344,-0.003251,-0.094988,0.000000,-0.066866,-0.074587,-0.000000
1.420000,-2.362854,-1.244719,-1.479566,0.824792,1.133939,0.023510,0.925773,-0.037863,0.166881,0.674780,-0.626092,0.041630,-4.505287,2.058325,-3.843151,-0.003908,-0.095710,0.000000,-0.064619,-0.069746,-0.000000
1.430000,-2.354560,-1.233382,-1.479323,0.834082,1.133529,0.025180,0.932291,-0.044027,0.167107,0.628304,-0.607179,0.003782,-4.788664,1.722756,-3.721571,-0.004544,-0.096382,0.000000,-0.062646,-0.064591,-0.000000
1.440000,-2.346172,-1.222049,-1.479063,0.843436,1.133059,0.026851,0.938329,-0.050016,0.166957,0.578934,-0.591068,-0.034180,-5.088844,1.527942,-3.939651,-0.005162,-0.097001,0.000000,-0.060957,-0.059131,0.000000
1.450000,-2.337691,-1.210721,-1.478786,0.852847,1.132529,0.028518,0.943859,-0.055854,0.166415,0.526594,-0.576874,-0.074349,-5.372919,1.281610,-4.020181,-0.005764,-0.097564,0.000000,-0.059458,-0.053339,0.000000
1.460000,-2.329115,-1.199398,-1.478492,0.862311,1.131942,0.030177,0.948853,-0.061563,0.165471,0.471602,-0.565402,-0.114441,-5.647348,1.032459,-4.078944,-0.006352,-0.098067,0.000000,-0.058235,-0.047273,-0.000000
1.470000,-2.320445,-1.188082,-1.478182,0.871822,1.131298,0.031826,0.953280,-0.067169,0.164117,0.413437,-0.556057,-0.156638,-5.959363,0.817969,-4.276719,-0.006930,-0.098508,0.000000,-0.057224,-0.040857,-0.000000
1.480000,-2.311679,-1.176772,-1.477856,0.881375,1.130599,0.033458,0.957114,-0.072694,0.162341,0.352966,-0.549431,-0.198215,-6.132534,0.506708,-4.033220,-0.007498,-0.098883,0.000000,-0.056489,-0.034210,-0.000000
1.490000,-2.302817,-1.165470,-1.477513,0.890963,1.129845,0.035071,0.960333,-0.078167,0.160157,0.290322,-0.545549,-0.238883,-6.419213,0.288307,-4.179241,-0.008060,-0.099191,0.000000,-0.056031,-0.027350,0.000000
1.500000,-2.293859,-1.154176,-1.477154,0.900579,1.129036,0.036660,0.962910,-0.083611,0.157557,0.224834,-0.543819,-0.281046,-6.652136,0.039445,-4.168791,-0.008619,-0.099429,0.000000,-0.055789,-0.020187,0.000000
1.510000,-2.284805,-1.142890,-1.476780,0.910219,1.128172,0.038221,0.964823,-0.089052,0.154540,0.157369,-0.544672,-0.322182,-6.871387,-0.206663,-4.136796,-0.009177,-0.099595,0.000000,-0.055809,-0.012835,0.000000
1.520000,-2.275655,-1.131612,-1.476390,0.919874,1.127255,0.039750,0.966048,-0.094513,0.151108,0.087148,-0.547917,-0.364471,-7.139203,-0.444674,-4.239255,-0.009736,-0.099685,0.000000,-0.056067,-0.005196,0.000000
1.530000,-2.266408,-1.120345,-1.475985,0.929537,1.126282,0.041242,0.966561,-0.100018,0.147256,0.015292,-0.553613,-0.405252,-7.228663,-0.694036,-3.911590,-0.010299,-0.099698,0.000000,-0.056574,0.002587,-0.000000
1.540000,-2.257064,-1.109087,-1.475565,0.939202,1.125254,0.042693,0.966349,-0.105593,0.143009,-0.058021,-0.561726,-0.444243,-7.463646,-0.925018,-3.963354,-0.010868,-0.099633,0.000000,-0.057325,0.010490,-0.000000
1.550000,-2.247624,-1.097840,-1.475131,0.948862,1.124170,0.044101,0.965392,-0.111260,0.138368,-0.133664,-0.572121,-0.483783,-7.630606,-1.155790,-3.862924,-0.011446,-0.099487,0.000000,-0.058303,0.018626,0.000000
1.560000,-2.238087,-1.086604,-1.474684,0.958508,1.123028,0.045459,0.963672,-0.117043,0.133341,-0.210580,-0.584726,-0.521491,-7.781735,-1.379024,-3.743762,-0.012035,-0.099260,0.000000,-0.059504,0.026860,0.000000
1.570000,-2.228454,-1.075379,-1.474222,0.968133,1.121828,0.046766,0.961173,-0.122963,0.127937,-0.289539,-0.599814,-0.559229,-7.976999,-1.623220,-3.735415,-0.012637,-0.098949,0.000000,-0.060953,0.035288,-0.000000
1.580000,-2.218724,-1.064167,-1.473748,0.977728,1.120569,0.048017,0.957878,-0.129046,0.122164,-0.369428,-0.616868,-0.594767,-7.997316,-1.785720,-3.367690,-0.013255,-0.098554,0.000000,-0.062598,0.043772,0.000000
1.590000,-2.208899,-1.052968,-1.473262,0.987287,1.119247,0.049208,0.953782,-0.135307,0.116051,-0.450051,-0.635791,-0.627864,-8.155562,-2.011917,-3.315610,-0.013890,-0.098074,0.000000,-0.064431,0.052287,0.000000
1.600000,-2.198979,-1.041783,-1.472764,0.996801,1.117862,0.050337,0.948872,-0.141769,0.109607,-0.532230,-0.656955,-0.660472,-8.246224,-2.205079,-3.137172,-0.014544,-0.097508,0.000000,-0.066485,0.060937,-0.000000
1.610000,-2.188963,-1.030611,-1.472256,1.006262,1.116411,0.051399,0.943137,-0.148451,0.102850,-0.614841,-0.679785,-0.690658,-8.317629,-2.386888,-2.944297,-0.015220,-0.096855,0.000000,-0.068705,0.069587,0.000000
1.620000,-2.178854,-1.019455,-1.471737,1.015661,1.114892,0.052393,0.936569,-0.155373,0.095797,-0.698938,-0.704912,-0.719744,-8.456023,-2.610096,-2.825839,-0.015919,-0.096115,0.000000,-0.071153,0.078355,0.000000
1.630000,-2.168650,-1.008314,-1.471208,1.024991,1.113303,0.053314,0.929158,-0.162554,0.088464,-0.783000,-0.731394,-0.746188,-8.352321,-2.683757,-2.459695,-0.016644,-0.095288,0.000000,-0.073734,0.087071,0.000000
1.640000,-2.158354,-0.997189,-1.470671,1.034242,1.111640,0.054161,0.920910,-0.170005,0.080883,-0.866803,-0.759088,-0.769815,-8.449147,-2.880095,-2.309506,-0.017394,-0.094374,0.000000,-0.076433,0.095711,0.000000
1.650000,-2.147966,-0.986081,-1.470125,1.043406,1.109901,0.054931,0.911818,-0.177743,0.073072,-0.951556,-0.788729,-0.791956,-8.455384,-3.019294,-2.071929,-0.018173,-0.093373,0.000000,-0.079324,0.104410,-0.000000
1.660000,-2.137486,-0.974991,-1.469572,1.052475,1.108084,0.055622,0.901881,-0.185782,0.065053,-1.035863,-0.819341,-0.811347,-8.443487,-3.143518,-1.826023,-0.018981,-0.092286,0.000000,-0.082309,0.113014,0.000000
1.670000,-2.126917,-0.963920,-1.469013,1.061441,1.106185,0.056232,0.891099,-0.194137,0.056852,-1.120742,-0.851947,-0.828644,-8.490486,-3.334527,-1.611483,-0.019820,-0.091112,0.000000,-0.085491,0.121634,-0.000000
1.680000,-2.116258,-0.952868,-1.468448,1.070294,1.104200,0.056759,0.879469,-0.202823,0.048490,-1.204796,-0.885126,-0.843124,-8.316506,-3.297723,-1.282932,-0.020691,-0.089853,0.000000,-0.088727,0.130121,0.000000
1.690000,-2.105511,-0.941836,-1.467878,1.079028,1.102127,0.057201,0.867006,-0.211840,0.039999,-1.287809,-0.918690,-0.854696,-8.322782,-3.454261,-1.051148,-0.021594,-0.088510,0.000000,-0.091997,0.138453,0.000000
1.700000,-2.094678,-0.930825,-1.467304,1.087632,1.099962,0.057558,0.853712,-0.221202,0.031403,-1.370863,-0.953813,-0.863956,-8.245948,-3.526795,-0.779533,-0.022532,-0.087083,0.000000,-0.095421,0.146748,-0.000000
1.710000,-2.083759,-0.919837,-1.466727,1.096099,1.097702,0.057829,0.839594,-0.230917,0.022729,-1.452728,-0.989174,-0.870388,-8.152416,-3.584307,-0.504379,-0.023503,-0.085575,0.000000,-0.098865,0.154876,-0.000000
1.720000,-2.072756,-0.908872,-1.466148,1.104421,1.095343,0.058013,0.824659,-0.240991,0.014005,-1.534110,-1.025845,-0.873991,-8.094608,-3.706509,-0.219578,-0.024509,-0.083985,0.000000,-0.102439,0.162913,0.000000
1.730000,-2.061671,-0.897931,-1.465567,1.112590,1.092881,0.058109,0.808917,-0.251433,0.005259,-1.614009,-1.062397,-0.874851,-7.881800,-3.600359,0.047847,-0.025552,-0.082316,0.000000,-0.105999,0.170758,-0.000000
1.740000,-2.050505,-0.887015,-1.464986,1.120597,1.090313,0.058118,0.792385,-0.262238,-0.003483,-1.692234,-1.098634,-0.872955,-7.787647,-3.685999,0.335250,-0.026629,-0.080570,0.000000,-0.109525,0.178396,-0.000000
1.750000,-2.039260,-0.876125,-1.464405,1.128435,1.087635,0.058039,0.775075,-0.273409,-0.012191,-1.769484,-1.135719,-0.868176,-7.632936,-3.687309,0.616581,-0.027743,-0.078747,0.000000,-0.113137,0.185897,-0.000000
1.760000,-2.027937,-0.865262,-1.463826,1.136096,1.084843,0.057874,0.757001,-0.284950,-0.020837,-1.844879,-1.172339,-0.860738,-7.463020,-3.672730,0.894794,-0.028892,-0.076851,0.000000,-0.116701,0.193178,0.000000
1.770000,-2.016538,-0.854428,-1.463248,1.143572,1.081935,0.057623,0.738181,-0.296859,-0.029394,-1.918875,-1.209480,-0.850066,-7.315020,-3.715929,1.216083,-0.030077,-0.074883,0.000000,-0.120322,0.200283,0.000000
1.780000,-2.005066,-0.843624,-1.462673,1.150857,1.078905,0.057287,0.718631,-0.309137,-0.037831,-1.990737,-1.245826,-0.836910,-7.054491,-3.549658,1.413846,-0.031298,-0.072844,0.000000,-0.123864,0.207146,0.000000
1.790000,-1.993522,-0.832851,-1.462103,1.157942,1.075751,0.056867,0.698374,-0.321771,-0.046124,-2.060301,-1.281183,-0.821331,-6.874969,-3.557088,1.724730,-0.032554,-0.070739,0.000000,-0.127308,0.213755,0.000000
1.800000,-1.981908,-0.822109,-1.461536,1.164822,1.072468,0.056365,0.677431,-0.334761,-0.054246,-2.128029,-1.316598,-0.802628,-6.649758,-3.486433,1.991873,-0.033844,-0.068568,0.000000,-0.130766,0.220154,0.000000
1.810000,-1.970226,-0.811402,-1.460975,1.171489,1.069054,0.055783,0.655822,-0.348099,-0.062170,-2.193302,-1.350852,-0.781587,-6.411900,-3.400292,2.251666,-0.035169,-0.066334,0.000000,-0.134111,0.226290,-0.000000
1.820000,-1.958479,-0.800729,-1.460421,1.177936,1.065505,0.055122,0.633572,-0.361778,-0.069867,-2.256310,-1.384912,-0.757280,-6.178631,-3.372274,2.573685,-0.036526,-0.064040,0.000000,-0.137448,0.232179,-0.000000
1.830000,-1.946668,-0.790092,-1.459873,1.184158,1.061818,0.054386,0.610705,-0.375792,-0.077308,-2.316648,-1.417472,-0.730873,-5.886797,-3.136524,2.705577,-0.037917,-0.061688,0.000000,-0.140641,0.237792,-0.000000
1.840000,-1.934796,-0.779493,-1.459333,1.190148,1.057988,0.053577,0.587249,-0.390122,-0.084478,-2.374186,-1.448351,-0.702480,-5.627860,-3.074598,3.007377,-0.039339,-0.059282,0.000000,-0.143674,0.243119,-0.000000
1.850000,-1.922866,-0.768933,-1.458802,1.195901,1.054014,0.052698,0.563230,-0.404758,-0.091347,-2.429092,-1.478605,-0.671055,-5.342430,-2.936510,3.241244,-0.040790,-0.056823,0.000000,-0.146659,0.248174,0.000000
1.860000,-1.910879,-0.758413,-1.458280,1.201411,1.049892,0.051751,0.538677,-0.419687,-0.097893,-2.481044,-1.507090,-0.637717,-5.046629,-2.785469,3.465014,-0.042271,-0.054315,0.000000,-0.149478,0.252936,0.000000
1.870000,-1.898839,-0.747935,-1.457767,1.206673,1.045620,0.050741,0.513619,-0.434896,-0.104091,-2.529994,-1.534523,-0.601415,-4.741237,-2.672947,3.755106,-0.043780,-0.051761,0.000000,-0.152210,0.257396,0.000000
1.880000,-1.886747,-0.737501,-1.457265,1.211682,1.041194,0.049670,0.488087,-0.450371,-0.109916,-2.575825,-1.559962,-0.563461,-4.423371,-2.412176,3.832890,-0.045315,-0.049163,0.000000,-0.154756,0.261554,0.000000
1.890000,-1.874606,-0.727112,-1.456774,1.216433,1.036611,0.048544,0.462113,-0.466088,-0.115356,-2.618438,-1.583259,-0.524003,-4.098076,-2.271806,4.096338,-0.046874,-0.046525,0.000000,-0.157102,0.265403,-0.000000
1.900000,-1.862419,-0.716769,-1.456294,1.220923,1.031871,0.047365,0.435729,-0.482032,-0.120387,-2.657754,-1.605138,-0.481895,-3.762976,-2.076070,4.283830,-0.048456,-0.043850,0.000000,-0.159329,0.268933,-0.000000
1.910000,-1.850188,-0.706475,-1.455827,1.225147,1.026970,0.046138,0.408969,-0.498183,-0.124989,-2.693696,-1.624785,-0.438349,-3.419453,-1.869916,4.459398,-0.050060,-0.041141,0.000000,-0.161350,0.272145,-0.000000
1.920000,-1.837917,-0.696231,-1.455372,1.229101,1.021907,0.044866,0.381867,-0.514522,-0.129145,-2.726074,-1.642673,-0.392414,-3.059042,-1.688436,4.691210,-0.051683,-0.038402,0.000000,-0.163219,0.275019,-0.000000
1.930000,-1.825607,-0.686037,-1.454930,1.232783,1.016679,0.043556,0.354460,-0.531029,-0.132834,-2.754943,-1.658150,-0.345288,-2.713561,-1.404950,4.730917,-0.053324,-0.035635,0.000000,-0.164868,0.277568,-0.000000
1.940000,-1.813262,-0.675898,-1.454501,1.236189,1.011286,0.042211,0.326781,-0.547677,-0.136048,-2.780231,-1.671103,-0.297131,-2.338405,-1.202250,4.933580,-0.054980,-0.032843,0.000000,-0.166285,0.279787,-0.000000
1.950000,-1.800884,-0.665812,-1.454085,1.239318,1.005725,0.040837,0.298868,-0.564444,-0.138769,-2.801724,-1.682016,-0.246952,-1.963487,-0.961189,5.065445,-0.056649,-0.030032,0.000000,-0.167526,0.281654,0.000000
1.960000,-1.788477,-0.655784,-1.453684,1.242166,0.999996,0.039438,0.270758,-0.581308,-0.140984,-2.819480,-1.690355,-0.195799,-1.581767,-0.712995,5.186446,-0.058329,-0.027203,0.000000,-0.168532,0.283180,0.000000
1.970000,-1.776042,-0.645813,-1.453297,1.244733,0.994099,0.038019,0.242491,-0.598244,-0.142679,-2.833285,-1.696324,-0.143021,-1.183392,-0.472257,5.342524,-0.060019,-0.024360,0.000000,-0.169330,0.284344,0.000000
1.980000,-1.763583,-0.635902,-1.452924,1.247016,0.988031,0.036586,0.214106,-0.615226,-0.143842,-2.843240,-1.699624,-0.089504,-0.806747,-0.186449,5.358153,-0.061715,-0.021507,0.000000,-0.169886,0.285160,0.000000
1.990000,-1.751103,-0.626053,-1.452565,1.249014,0.981794,0.035144,0.185639,-0.632227,-0.144467,-2.849293,-1.700184,-0.035400,-0.397524,0.067838,5.485503,-0.063416,-0.018647,0.000000,-0.170193,0.285624,-0.000000
2.000000,-1.738604,-0.616267,-1.452221,1.250728,0.975387,0.033698,0.157134,-0.649221,-0.144545,-2.851218,-1.698189,0.019960,0.008039,0.339722,5.559149,-0.065118,-0.015784,0.000000,-0.170274,0.285714,0.000000
2.010000,-1.726089,-0.606546,-1.451891,1.252157,0.968810,0.032255,0.128629,-0.666181,-0.144067,-2.849097,-1.693417,0.075809,0.418857,0.615721,5.620832,-0.066820,-0.012921,0.000000,-0.170104,0.285440,-0.000000
2.020000,-1.713561,-0.596891,-1.451576,1.253301,0.962063,0.030819,0.100166,-0.683080,-0.143026,-2.842809,-1.685858,0.132448,0.837778,0.896387,5.693164,-0.068519,-0.010063,0.000000,-0.169684,0.284790,0.000000
2.030000,-1.701024,-0.587305,-1.451275,1.254161,0.955149,0.029396,0.071786,-0.699889,-0.141417,-2.832363,-1.675486,0.189384,1.252037,1.178453,5.691782,-0.070213,-0.007214,0.000000,-0.169009,0.283766,-0.000000
2.040000,-1.688479,-0.577789,-1.450988,1.254737,0.948066,0.027992,0.043532,-0.716580,-0.139238,-2.817719,-1.662272,0.246482,1.679127,1.465216,5.737525,-0.071899,-0.004375,0.000000,-0.168075,0.282364,0.000000
2.050000,-1.675930,-0.568344,-1.450715,1.255032,0.940817,0.026613,0.015446,-0.733125,-0.136486,-2.798782,-1.646177,0.303994,2.107093,1.753588,5.751127,-0.073574,-0.001553,0.000000,-0.166882,0.280575,-0.000000
2.060000,-1.663379,-0.558973,-1.450455,1.255047,0.933404,0.025265,-0.012429,-0.749494,-0.133158,-2.775522,-1.627179,0.361518,2.538824,2.043746,5.752532,-0.075236,0.001250,0.000000,-0.165422,0.278394,-0.000000
2.070000,-1.650830,-0.549677,-1.450209,1.254784,0.925828,0.023952,-0.040050,-0.765659,-0.129255,-2.748068,-1.605328,0.418999,2.959792,2.329489,5.741743,-0.076881,0.004029,0.000000,-0.163703,0.275834,0.000000
2.080000,-1.638285,-0.540457,-1.449976,1.254247,0.918092,0.022681,-0.067375,-0.781591,-0.124779,-2.716165,-1.580527,0.476316,3.421474,2.630846,5.719576,-0.078509,0.006782,0.000000,-0.161712,0.272869,-0.000000
2.090000,-1.625746,-0.531315,-1.449756,1.253438,0.910197,0.021458,-0.094359,-0.797260,-0.119730,-2.679779,-1.552770,0.533345,3.848666,2.917517,5.684045,-0.080115,0.009502,0.000000,-0.159447,0.269493,-0.000000
2.100000,-1.613217,-0.522254,-1.449547,1.252361,0.902148,0.020289,-0.120957,-0.812637,-0.114113,-2.639120,-1.522155,0.589960,4.290355,3.208365,5.636712,-0.081697,0.012188,0.000000,-0.156917,0.265726,0.000000
2.110000,-1.600700,-0.513273,-1.449350,1.251020,0.893946,0.019178,-0.147126,-0.827693,-0.107932,-2.593964,-1.488545,0.646082,4.733687,3.499272,5.577617,-0.083252,0.014833,0.000000,-0.154108,0.261542,-0.000000
2.120000,-1.588197,-0.504375,-1.449163,1.249420,0.885595,0.018132,-0.172822,-0.842399,-0.101194,-2.544511,-1.452305,0.701399,5.164308,3.761947,5.491380,-0.084778,0.017435,0.000000,-0.151051,0.256960,0.000000
2.130000,-1.575712,-0.495562,-1.448987,1.247565,0.877099,0.017156,-0.198001,-0.856729,-0.093907,-2.490527,-1.413029,0.756027,5.632712,4.093224,5.432277,-0.086272,0.019990,0.000000,-0.147705,0.251954,-0.000000
2.140000,-1.563247,-0.486834,-1.448820,1.245462,0.868462,0.016256,-0.222617,-0.870650,-0.086076,-2.432000,-1.370727,0.809849,6.065529,4.352753,5.322443,-0.087731,0.022492,0.000000,-0.144071,0.246518,0.000000
2.150000,-1.550804,-0.478193,-1.448661,1.243115,0.859687,0.015436,-0.246627,-0.884135,-0.077714,-2.369157,-1.325870,0.862493,6.510223,4.631622,5.212458,-0.089153,0.024938,0.000000,-0.140189,0.240672,-0.000000
2.160000,-1.538385,-0.469640,-1.448511,1.240531,0.850780,0.014703,-0.269985,-0.897157,-0.068830,-2.301719,-1.278013,0.914055,6.956065,4.908329,5.090159,-0.090534,0.027323,0.000000,-0.136015,0.234384,-0.000000
2.170000,-1.525994,-0.461178,-1.448367,1.237718,0.841746,0.014061,-0.292648,-0.909689,-0.059438,-2.230233,-1.228004,0.964183,7.361344,5.122164,4.940637,-0.091872,0.029643,0.000000,-0.131629,0.227705,-0.000000
2.180000,-1.513632,-0.452806,-1.448229,1.234681,0.832588,0.013516,-0.314574,-0.921707,-0.049551,-2.154070,-1.174965,1.012979,7.871546,5.485548,4.816646,-0.093166,0.031895,0.000000,-0.126941,0.220567,-0.000000
2.190000,-1.501301,-0.444526,-1.448096,1.231429,0.823314,0.013072,-0.335714,-0.933178,-0.039183,-2.073223,-1.118920,1.060323,8.276840,5.692171,4.642364,-0.094410,0.034072,0.000000,-0.121950,0.212965,0.000000
2.200000,-1.489004,-0.436340,-1.447967,1.227969,0.813927,0.012734,-0.356025,-0.944079,-0.028351,-1.988364,-1.060894,1.105843,8.714504,5.941758,4.467142,-0.095604,0.036172,0.000000,-0.116753,0.204961,-0.000000
2.210000,-1.476742,-0.428248,-1.447841,1.224311,0.804434,0.012506,-0.375466,-0.954384,-0.017072,-1.899033,-0.999703,1.149571,9.147665,6.191961,4.277870,-0.096744,0.038189,0.000000,-0.111228,0.196503,0.000000
2.220000,-1.464518,-0.420252,-1.447717,1.220463,0.794841,0.012394,-0.393992,-0.964073,-0.005366,-1.805455,-0.938034,1.191371,9.570505,6.239889,4.078198,-0.097828,0.040119,0.000000,-0.105643,0.187609,-0.000000
2.230000,-1.452334,-0.412352,-1.447593,1.216435,0.785155,0.012400,-0.411561,-0.973132,0.006748,-1.707569,-0.872850,1.231053,10.006185,6.797999,3.855990,-0.098856,0.041957,0.000000,-0.099686,0.178265,0.000000
2.240000,-1.440190,-0.404549,-1.447468,1.212235,0.775381,0.012530,-0.428129,-0.981517,0.019248,-1.605415,-0.804134,1.268478,10.420296,6.842275,3.628295,-0.099821,0.043700,0.000000,-0.093351,0.168471,0.000000
2.250000,-1.428089,-0.396844,-1.447342,1.207875,0.765527,0.012787,-0.443655,-0.989216,0.032110,-1.499159,-0.735196,1.303561,10.833947,7.043082,3.383929,-0.100723,0.045342,0.000000,-0.086968,0.158237,0.000000
2.260000,-1.416033,-0.389238,-1.447212,1.203366,0.755599,0.013173,-0.458073,-0.996261,0.045310,-1.382947,-0.674930,1.335998,11.356728,7.002956,3.123066,-0.101564,0.046877,0.000000,-0.081435,0.146959,0.000000
2.270000,-1.404023,-0.381732,-1.447078,1.198718,0.745604,0.013694,-0.471382,-1.002554,0.058823,-1.281726,-0.576812,1.366177,9.904192,10.684567,2.889110,-0.102335,0.048303,0.000000,-0.072028,0.137172,-0.000000
2.280000,-1.392059,-0.374327,-1.446938,1.193942,0.735551,0.014351,-0.483643,-1.007889,0.072623,-1.163523,-0.501876,1.393286,13.764844,4.242899,2.529749,-0.103014,0.049628,0.000000,-0.064928,0.125616,-0.000000
2.290000,-1.380144,-0.367022,-1.446791,1.189049,0.725448,0.015147,-0.494584,-1.012693,0.086678,-1.027122,-0.452770,1.417155,12.482348,7.534568,2.263185,-0.103644,0.050822,0.000000,-0.060415,0.112152,-0.000000
2.300000,-1.368279,-0.359818,-1.446635,1.184054,0.715299,0.016085,-0.504252,-1.016791,0.100958,-0.905238,-0.367716,1.438318,12.914485,7.532509,1.945927,-0.104206,0.051890,0.000000,-0.052198,0.100113,0.000000
2.310000,-1.356463,-0.352716,-1.446468,1.178968,0.705115,0.017167,-0.512743,-1.019907,0.115431,-0.794909,-0.250203,1.455796,12.839492,8.503960,1.609239,-0.104673,0.052840,0.000000,-0.040602,0.089196,0.000000
2.320000,-1.344699,-0.345716,-1.446291,1.173804,0.694904,0.018394,-0.519853,-1.022369,0.130067,-0.614558,-0.266331,1.471026,19.643873,-4.484102,1.374468,-0.105077,0.053653,0.000000,-0.042623,0.071049,0.000000
2.330000,-1.332987,-0.338818,-1.446100,1.168577,0.684667,0.019769,-0.525204,-1.024865,0.144837,-0.477320,-0.187797,1.481979,7.690311,20.411805,0.812082,-0.105488,0.054287,0.000000,-0.034914,0.057228,-0.000000
2.340000,-1.321328,-0.332022,-1.445895,1.163303,0.674412,0.021291,-0.529588,-1.025720,0.159691,-0.388264,-0.004866,1.488439,13.739355,8.847317,0.538320,-0.105733,0.054823,0.000000,-0.016405,0.048280,-0.000000
2.350000,-1.309722,-0.325329,-1.445674,1.157990,0.664156,0.022963,-0.532686,-1.025513,0.174598,-0.233214,0.051002,1.492184,13.667980,9.602873,0.148584,-0.105872,0.055228,0.000000,-0.010858,0.032483,0.000000
2.360000,-1.298168,-0.318739,-1.445435,1.152654,0.653904,0.024783,-0.534188,-1.024815,0.189519,-0.062734,0.080462,1.491403,14.506336,8.438747,-0.255244,-0.105962,0.055469,0.000000,-0.007959,0.014998,-0.000000
2.370000,-1.286668,-0.312251,-1.445178,1.147311,0.643663,0.026753,-0.534394,-1.022956,0.204417,0.002453,0.331396,1.487513,4.282013,29.928617,-0.574691,-0.105934,0.055576,0.000000,0.017828,0.008288,-0.000000
2.380000,-1.275222,-0.305866,-1.444900,1.141968,0.633453,0.028872,-0.533843,-1.018779,0.219253,0.143633,0.430922,1.478822,24.132830,-10.401667,-1.166850,-0.105666,0.055605,0.000000,0.028153,-0.006338,0.000000
2.390000,-1.263829,-0.299582,-1.444600,1.136641,0.623285,0.031138,-0.531196,-1.014992,0.233976,0.368747,0.362074,1.465151,15.081479,8.547708,-1.518723,-0.105438,0.055415,0.000000,0.021148,-0.029762,0.000000
2.400000,-1.252489,-0.293400,-1.444276,1.131350,0.613156,0.033551,-0.526901,-1.010638,0.248546,0.494439,0.500664,1.447986,15.835723,7.292440,-1.966292,-0.105150,0.055051,0.000000,0.035652,-0.042996,0.000000
2.410000,-1.241202,-0.287319,-1.443928,1.126108,0.603076,0.036108,-0.521222,-1.005120,0.262917,0.640067,0.606772,1.425531,15.877942,7.542296,-2.430429,-0.104739,0.054541,0.000000,0.046909,-0.058395,-0.000000
2.420000,-1.229967,-0.281338,-1.443554,1.120931,0.593056,0.038808,-0.513888,-0.999013,0.277048,0.835681,0.592853,1.400236,20.712600,-4.111732,-2.723323,-0.104264,0.053854,0.000000,0.045779,-0.079081,-0.000000
2.430000,-1.218783,-0.275458,-1.443151,1.115837,0.583095,0.041648,-0.504628,-0.992963,0.290902,1.001155,0.655016,1.369081,12.291147,16.748023,-3.511738,-0.103792,0.052963,0.000000,0.052624,-0.096752,0.000000
2.440000,-1.207650,-0.269676,-1.442720,1.110843,0.573201,0.044625,-0.494000,-0.985580,0.304409,1.132248,0.802478,1.331868,16.459454,6.489756,-3.837514,-0.103177,0.051923,0.000000,0.068466,-0.110938,-0.000000
2.450000,-1.196566,-0.263993,-1.442259,1.105962,0.563386,0.047735,-0.481788,-0.977395,0.317530,1.308467,0.838198,1.291513,16.234341,6.908393,-4.328210,-0.102473,0.050711,0.000000,0.072746,-0.129916,0.000000
2.460000,-1.185530,-0.258408,-1.441765,1.101212,0.553656,0.050974,-0.468046,-0.968450,0.330219,1.435314,0.957194,1.245396,15.401425,7.960663,-4.824643,-0.101683,0.049333,0.000000,0.085823,-0.143822,0.000000
2.470000,-1.174541,-0.252920,-1.441239,1.096607,0.544019,0.054338,-0.452600,-0.958942,0.342427,1.674064,0.915244,1.195665,26.250467,-7.683525,-5.190641,-0.100828,0.047769,0.000000,0.082119,-0.169529,0.000000
2.480000,-1.163597,-0.247527,-1.440678,1.092168,0.534475,0.057821,-0.434878,-0.949707,0.354113,1.832332,0.985435,1.140131,5.209825,21.983683,-5.918492,-0.099995,0.045958,0.000000,0.090232,-0.186896,-0.000000
2.490000,-1.152697,-0.242230,-1.440082,1.087912,0.525031,0.061418,-0.416299,-0.938753,0.365210,1.901476,1.179278,1.078693,14.770542,8.015767,-6.299324,-0.098973,0.044049,0.000000,0.111442,-0.194952,-0.000000
2.500000,-1.141838,-0.237026,-1.439449,1.083847,0.515704,0.065123,-0.396391,-0.926786,0.375675,2.075619,1.219645,1.013559,13.935498,8.756514,-6.796314,-0.097836,0.041991,0.000000,0.116609,-0.214085,0.000000
2.510000,-1.131019,-0.231916,-1.438779,1.079990,0.506497,0.068929,-0.374661,-0.914605,0.385461,2.277880,1.203456,0.942648,14.837236,6.702998,-7.295253,-0.096666,0.039733,0.000000,0.115890,-0.236237,0.000000
2.520000,-1.120238,-0.226896,-1.438070,1.076358,0.497415,0.072830,-0.351753,-0.901266,0.394519,2.264972,1.525481,0.868500,-6.073872,39.512906,-7.620556,-0.095365,0.037342,0.000000,0.150856,-0.235706,-0.000000
2.530000,-1.109492,-0.221967,-1.437322,1.072954,0.488483,0.076817,-0.328803,-0.885015,0.402810,2.394563,1.611894,0.788428,32.346746,-22.812279,-8.395229,-0.093746,0.034938,0.000000,0.161112,-0.250206,-0.000000
2.540000,-1.098778,-0.217126,-1.436534,1.069791,0.479709,0.080883,-0.303244,-0.870044,0.410267,2.682431,1.436591,0.702392,13.772247,6.088811,-8.722011,-0.092250,0.032250,0.000000,0.143767,-0.281466,-0.000000
2.550000,-1.088095,-0.212372,-1.435704,1.066894,0.471083,0.085020,-0.276032,-0.854908,0.416849,2.767056,1.577913,0.613278,14.553880,3.896603,-9.186871,-0.090725,0.029378,0.000000,0.159868,-0.291209,0.000000
2.560000,-1.077439,-0.207704,-1.434833,1.064274,0.462614,0.089217,-0.247817,-0.838680,0.422514,2.870589,1.673794,0.518859,13.683640,4.161379,-9.638996,-0.089073,0.026392,0.000000,0.171220,-0.302912,0.000000
2.570000,-1.066808,-0.203119,-1.433920,1.061943,0.454310,0.093467,-0.218037,-0.822327,0.427216,3.109836,1.558993,0.421060,26.827126,-16.309480,-9.971850,-0.087395,0.023234,0.000000,0.160275,-0.328959,-0.000000
2.580000,-1.056199,-0.198617,-1.432964,1.059921,0.446163,0.097758,-0.185994,-0.806986,0.430918,3.253065,1.574611,0.318351,1.574274,19.783113,-10.568601,-0.085813,0.019828,0.000000,0.163135,-0.344760,-0.000000
2.590000,-1.045609,-0.194195,-1.431964,1.058224,0.438176,0.102081,-0.153391,-0.790262,0.433567,3.289167,1.736409,0.210844,13.024664,1.684401,-10.874889,-0.084072,0.016358,0.000000,0.181497,-0.349092,0.000000
2.600000,-1.035034,-0.189853,-1.430922,1.056858,0.430359,0.106426,-0.119664,-0.773105,0.435127,3.450514,1.701086,0.100468,11.863166,2.128804,-11.250861,-0.082273,0.012764,0.000000,0.178949,-0.366619,0.000000
2.610000,-1.024471,-0.185588,-1.429836,1.055835,0.422714,0.110780,-0.084614,-0.755972,0.435564,3.557220,1.725851,-0.013649,10.944390,2.012778,-11.595903,-0.080464,0.009026,0.000000,0.182747,-0.378214,-0.000000
2.620000,-1.013916,-0.181398,-1.428706,1.055169,0.415240,0.115133,-0.048432,-0.738658,0.434840,3.682814,1.733922,-0.131614,12.735423,0.398291,-11.965714,-0.078625,0.005166,0.000000,0.184745,-0.391675,0.000000
2.630000,-1.003366,-0.177282,-1.427533,1.054871,0.407941,0.119473,-0.011057,-0.721259,0.432922,3.781746,1.750527,-0.252307,7.001422,2.949784,-12.166960,-0.076766,0.001179,0.000000,0.187605,-0.402140,0.000000
2.640000,-0.992817,-0.173239,-1.426317,1.054950,0.400816,0.123788,0.027096,-0.703608,0.429787,3.851741,1.776903,-0.375391,8.441092,1.525133,-12.471523,-0.074869,-0.002889,0.000000,0.191444,-0.409355,0.000000
2.650000,-0.982266,-0.169265,-1.425058,1.055415,0.393869,0.128065,0.066058,-0.685786,0.425404,3.938274,1.787815,-0.501398,7.424799,1.453663,-12.697411,-0.072944,-0.007039,0.000000,0.193587,-0.418141,0.000000
2.660000,-0.971708,-0.165361,-1.423756,1.056274,0.387101,0.132292,0.105879,-0.667845,0.419754,4.026858,1.800005,-0.628950,6.885372,1.282406,-12.881378,-0.070997,-0.011275,0.000000,0.195793,-0.426946,0.000000
2.670000,-0.961139,-0.161523,-1.422412,1.057535,0.380513,0.136455,0.146300,-0.649768,0.412814,4.044661,1.816150,-0.759580,-0.016096,1.649016,-13.166614,-0.069027,-0.015567,0.000000,0.198344,-0.428028,-0.000000
2.680000,-0.950556,-0.157750,-1.421027,1.059201,0.374106,0.140543,0.186909,-0.631543,0.404562,4.096003,1.826725,-0.890651,10.389533,0.449950,-13.038783,-0.067033,-0.019870,0.000000,0.200215,-0.432467,0.000000
2.690000,-0.939953,-0.154040,-1.419602,1.061276,0.367882,0.144542,0.228374,-0.613257,0.395002,4.185573,1.830916,-1.021669,4.186565,0.675291,-13.230233,-0.065025,-0.024252,0.000000,0.201321,-0.440739,-0.000000
2.700000,-0.929329,-0.150392,-1.418137,1.063770,0.361841,0.148439,0.270338,-0.594911,0.384121,4.208095,1.837539,-1.154500,3.646217,0.345130,-13.256991,-0.063005,-0.028673,0.000000,0.202588,-0.441686,-0.000000
2.710000,-0.918677,-0.146803,-1.416633,1.066684,0.355983,0.152220,0.312591,-0.576684,0.371917,4.241219,1.802587,-1.286105,2.899054,-0.753616,-13.226049,-0.060993,-0.033108,0.000000,0.199363,-0.443546,-0.000000
2.720000,-0.907994,-0.143271,-1.415093,1.070022,0.350307,0.155873,0.355131,-0.558361,0.358387,4.265327,1.882958,-1.420432,1.997353,10.427377,-13.467274,-0.058966,-0.037556,0.000000,0.208214,-0.444232,0.000000
2.730000,-0.897275,-0.139796,-1.413516,1.073787,0.344819,0.159384,0.397876,-0.539361,0.343519,4.282730,1.876788,-1.551847,1.483377,-11.862988,-12.802978,-0.056864,-0.042005,0.000000,0.207804,-0.444015,-0.000000
2.740000,-0.886516,-0.136374,-1.411905,1.077980,0.339517,0.162739,0.440764,-0.521194,0.327363,4.293404,1.775077,-1.679663,0.571781,-2.020588,-12.918424,-0.054849,-0.046448,0.000000,0.197253,-0.442906,0.000000
2.750000,-0.875714,-0.133005,-1.410262,1.082603,0.334394,0.165927,0.483711,-0.503386,0.309919,4.294756,1.781648,-1.808643,-0.227634,-3.093644,-12.704867,-0.052870,-0.050873,0.000000,0.198007,-0.440622,0.000000
2.760000,-0.864863,-0.129686,-1.408587,1.087655,0.329449,0.168933,0.526603,-0.485629,0.291208,4.281345,1.771852,-1.933145,-1.192420,-3.217066,-12.427840,-0.050896,-0.055266,0.000000,0.196925,-0.436639,0.000000
2.770000,-0.853959,-0.126415,-1.406884,1.093135,0.324680,0.171747,0.569408,-0.468306,0.271247,4.282486,1.677400,-2.059253,0.189555,-11.429217,-12.552692,-0.048969,-0.059623,0.000000,0.186941,-0.434000,0.000000
2.780000,-0.842999,-0.123192,-1.405153,1.099043,0.320079,0.174354,0.612163,-0.451885,0.250045,4.259298,1.632378,-2.179144,-4.868125,2.569638,-11.410380,-0.047137,-0.063947,0.000000,0.182047,-0.428703,-0.000000
2.790000,-0.831977,-0.120013,-1.403398,1.105376,0.315643,0.176744,0.654497,-0.435438,0.227689,4.209918,1.643417,-2.292023,-3.770309,-4.622348,-11.393043,-0.045305,-0.068197,0.000000,0.182879,-0.420609,-0.000000
2.800000,-0.820890,-0.116878,-1.401619,1.112131,0.311369,0.178904,0.696425,-0.419351,0.204201,4.173327,1.576472,-2.404851,-4.784683,-4.494363,-10.930263,-0.043514,-0.072374,0.000000,0.175562,-0.413740,0.000000
2.810000,-0.809733,-0.113785,-1.399820,1.119303,0.307254,0.180824,0.737859,-0.403683,0.179619,4.110651,1.560704,-2.510400,-5.926443,-3.978918,-10.410612,-0.041771,-0.076468,0.000000,0.173474,-0.404142,0.000000
2.820000,-0.798502,-0.110733,-1.398003,1.126887,0.303294,0.182493,0.778748,-0.388552,0.153991,4.071600,1.448028,-2.615112,-3.651742,-13.378227,-10.293026,-0.040088,-0.080475,0.000000,0.161364,-0.396920,-0.000000
2.830000,-0.787194,-0.107719,-1.396171,1.134877,0.299479,0.183900,0.819171,-0.374462,0.127347,4.000511,1.401817,-2.711259,-10.617353,4.300390,-8.922158,-0.038517,-0.084401,0.000000,0.156080,-0.386419,0.000000
