time,x,y,z,vx,vy,vz,ax,ay,az,jx,jy,jz,sx,sy,sz,roll,pitch,yaw,p,q,r
0.000000,-2.217184,-2.173872,-1.475166,0.016439,-0.010242,-0.000740,-0.718883,0.431646,-0.072998,18.324210,-14.291683,1.609034,-341.343689,400.831533,-36.492336,0.043533,0.072611,0.000000,-1.426672,-1.830840,0.000000
0.010000,-2.217053,-2.173955,-1.475176,0.010112,-0.006576,-0.001396,-0.551864,0.307777,-0.058639,15.161946,-10.578921,1.271929,-291.937949,342.709303,-31.022191,0.031129,0.055863,0.000000,-1.062603,-1.523664,0.000000
0.020000,-2.216977,-2.174007,-1.475193,0.005305,-0.003972,-0.001923,-0.414079,0.218228,-0.047386,12.469279,-7.418225,0.986764,-247.383738,290.368878,-26.099735,0.022115,0.041982,0.000000,-0.748142,-1.258234,0.000000
0.030000,-2.216943,-2.174037,-1.475214,0.001748,-0.002114,-0.002352,-0.301071,0.157761,-0.038748,10.198904,-4.753265,0.748203,-207.439628,243.512265,-21.696588,0.016010,0.030560,0.000000,-0.480556,-1.032134,0.000000
0.040000,-2.216939,-2.174051,-1.475240,-0.000786,-0.000736,-0.002706,-0.208843,0.121688,-0.032284,8.305925,-2.530693,0.551196,-171.864211,201.841449,-17.784430,0.012360,0.021216,0.000000,-0.256114,-0.842270,-0.000000
0.050000,-2.216956,-2.174052,-1.475268,-0.002486,0.000387,-0.003004,-0.133836,0.105841,-0.027602,6.747866,-0.700139,0.390978,-140.415638,165.058802,-14.334283,0.010757,0.013604,0.000000,-0.070627,-0.685219,0.000000
0.060000,-2.216986,-2.174043,-1.475300,-0.003510,0.001436,-0.003262,-0.072903,0.106537,-0.024357,5.484661,0.785784,0.263065,-112.852949,132.865940,-11.318389,0.010832,0.007413,0.000000,0.080225,-0.557442,0.000000
0.070000,-2.217024,-2.174023,-1.475334,-0.003982,0.002562,-0.003495,-0.023286,0.120556,-0.022247,4.478660,1.971486,0.163259,-88.934494,104.965041,-8.708091,0.012261,0.002368,0.000000,0.200698,-0.455431,0.000000
0.080000,-2.217064,-2.173991,-1.475370,-0.004005,0.003883,-0.003710,0.017410,0.145105,-0.021011,3.694629,2.898398,0.087646,-68.418787,81.058108,-6.474963,0.014759,-0.001771,0.000000,0.294879,-0.375787,-0.000000
0.090000,-2.217103,-2.173945,-1.475408,-0.003657,0.005491,-0.003917,0.051237,0.177790,-0.020425,3.099747,3.604968,0.032597,-51.064303,60.847098,-4.590553,0.018083,-0.005212,0.000000,0.366621,-0.315279,-0.000000
0.100000,-2.217136,-2.173880,-1.475448,-0.002997,0.007459,-0.004120,0.079934,0.216588,-0.020302,2.663604,4.126671,-0.005235,-36.630118,44.034505,-3.026623,0.022028,-0.008131,0.000000,0.419513,-0.270871,0.000000
0.110000,-2.217162,-2.173794,-1.475490,-0.002070,0.009838,-0.004324,0.104945,0.259816,-0.020483,2.358214,4.495993,-0.028909,-24.874116,30.321809,-1.754548,0.026422,-0.010675,0.000000,0.456862,-0.239746,0.000000
0.120000,-2.217177,-2.173682,-1.475534,-0.000907,0.012665,-0.004531,0.127448,0.306099,-0.020842,2.157999,4.742447,-0.041204,-15.555094,19.411250,-0.745988,0.031124,-0.012963,0.000000,0.481679,-0.219316,-0.000000
0.130000,-2.217179,-2.173539,-1.475581,0.000473,0.015966,-0.004741,0.148378,0.354344,-0.021277,2.039794,4.892565,-0.044613,-8.431594,11.004873,0.027457,0.036023,-0.015091,0.000000,0.496675,-0.207230,0.000000
0.140000,-2.217167,-2.173361,-1.475629,0.002058,0.019756,-0.004956,0.168448,0.403708,-0.021712,1.982853,4.969899,-0.041344,-3.262109,4.804736,0.594156,0.041033,-0.017131,0.000000,0.504258,-0.201379,0.000000
0.150000,-2.217137,-2.173143,-1.475680,0.003841,0.024042,-0.005175,0.188178,0.453568,-0.022088,1.968844,4.995021,-0.033324,0.195007,0.512902,0.982422,0.046090,-0.019137,0.000000,0.506529,-0.199896,-0.000000
0.160000,-2.217089,-2.172879,-1.475733,0.005822,0.028827,-0.005398,0.207915,0.503493,-0.022368,1.981844,4.985518,-0.022187,2.180397,-2.169110,1.221483,0.051152,-0.021143,0.000000,0.505280,-0.201162,0.000000
0.170000,-2.217020,-2.172564,-1.475788,0.008000,0.034111,-0.005622,0.227859,0.553212,-0.022526,2.008352,4.956010,-0.009296,2.936385,-3.538560,1.338739,0.056189,-0.023170,0.000000,0.502000,-0.203802,-0.000000
0.180000,-2.216929,-2.172195,-1.475845,0.010380,0.039890,-0.005848,0.248089,0.602586,-0.022552,2.037278,4.918128,0.004278,2.704126,-3.893683,1.362987,0.061189,-0.025226,0.000000,0.497867,-0.206689,-0.000000
0.190000,-2.216812,-2.171765,-1.475905,0.012963,0.046161,-0.006073,0.268584,0.651576,-0.022441,2.059945,4.880525,0.017748,1.725043,-3.532418,1.322666,0.066147,-0.027309,0.000000,0.493758,-0.208940,-0.000000
0.200000,-2.216669,-2.171270,-1.475967,0.015752,0.052921,-0.006296,0.289246,0.700216,-0.022199,2.070095,4.848873,0.030610,0.240692,-2.752854,1.246131,0.071066,-0.029410,0.000000,0.490246,-0.209921,-0.000000
0.210000,-2.216496,-2.170705,-1.476031,0.018750,0.060161,-0.006516,0.310807,0.747271,-0.021696,2.264224,4.526017,0.073766,2.452747,-7.780151,1.777039,0.075823,-0.031602,0.000000,0.457496,-0.229644,-0.000000
0.220000,-2.216293,-2.170065,-1.476097,0.021967,0.067867,-0.006730,0.331668,0.794960,-0.021161,1.786461,5.190493,0.014553,-63.009706,88.268357,-8.180243,0.080640,-0.033724,0.000000,0.523866,-0.180967,-0.000000
0.230000,-2.216056,-2.169346,-1.476165,0.025367,0.076084,-0.006941,0.348229,0.848480,-0.021134,1.738966,5.190931,0.024373,54.591447,-89.817954,10.313989,0.086038,-0.035406,0.000000,0.523458,-0.176096,0.000000
0.240000,-2.215785,-2.168542,-1.476236,0.028946,0.084812,-0.007150,0.368318,0.895909,-0.020376,2.169603,4.454531,0.110767,-3.826470,-4.544509,1.471877,0.090822,-0.037450,0.000000,0.449367,-0.219906,0.000000
0.250000,-2.215477,-2.167648,-1.476308,0.032734,0.093998,-0.007348,0.388879,0.941603,-0.019337,1.962605,4.650707,0.100431,-2.328202,-8.967919,1.934099,0.095430,-0.039542,0.000000,0.468703,-0.198851,0.000000
0.260000,-2.215130,-2.166660,-1.476383,0.036721,0.103645,-0.007536,0.408570,0.987581,-0.018236,1.979872,4.541455,0.119895,-2.204101,-10.266378,2.026674,0.100062,-0.041547,0.000000,0.457456,-0.200598,0.000000
0.270000,-2.214742,-2.165574,-1.476459,0.040904,0.113746,-0.007712,0.427831,1.032601,-0.016931,1.845070,4.469555,0.141562,-17.007714,-6.631759,2.235899,0.104596,-0.043509,0.000000,0.450089,-0.187000,-0.000000
0.280000,-2.214311,-2.164384,-1.476537,0.045273,0.124294,-0.007874,0.445835,1.076815,-0.015406,1.802429,4.355939,0.163124,8.725060,-16.160088,2.071568,0.109048,-0.045345,0.000000,0.438527,-0.182729,-0.000000
0.290000,-2.213836,-2.163086,-1.476616,0.049823,0.135277,-0.008019,0.464285,1.119552,-0.013670,1.862921,4.197710,0.184320,-4.443656,-12.922691,2.233807,0.113350,-0.047227,0.000000,0.422468,-0.188878,-0.000000
0.300000,-2.213314,-2.161677,-1.476697,0.054557,0.146681,-0.008147,0.482480,1.160935,-0.011713,1.780072,4.076027,0.207155,-4.324220,-13.947240,2.261352,0.117515,-0.049084,0.000000,0.410220,-0.180582,-0.000000
0.310000,-2.212744,-2.160151,-1.476779,0.059470,0.158491,-0.008253,0.500095,1.200999,-0.009531,1.743580,3.935819,0.229034,-4.503671,-14.673480,2.258148,0.121547,-0.050885,0.000000,0.396126,-0.176973,0.000000
0.320000,-2.212124,-2.158506,-1.476862,0.064558,0.170696,-0.008336,0.517221,1.239581,-0.007121,1.675982,3.777385,0.253597,-7.522669,-16.431003,2.509565,0.125430,-0.052637,0.000000,0.380313,-0.170257,-0.000000
0.330000,-2.211452,-2.156736,-1.476946,0.069813,0.183278,-0.008395,0.533680,1.276552,-0.004467,1.624478,3.619414,0.276185,-2.726561,-15.133812,2.000278,0.129154,-0.054323,0.000000,0.364569,-0.165169,-0.000000
0.340000,-2.210727,-2.154839,-1.477030,0.075230,0.196222,-0.008425,0.549784,1.311980,-0.001606,1.591438,3.463386,0.296407,-5.379283,-16.637112,2.184151,0.132723,-0.055975,0.000000,0.349026,-0.161942,0.000000
0.350000,-2.209947,-2.152811,-1.477114,0.080806,0.209512,-0.008426,0.565387,1.345758,0.001470,1.529751,3.291790,0.318589,-5.455268,-17.096820,2.106093,0.136128,-0.057579,0.000000,0.332026,-0.155856,-0.000000
0.360000,-2.209110,-2.150648,-1.477198,0.086536,0.223131,-0.008395,0.580415,1.377819,0.004756,1.475741,3.119699,0.338322,-5.573682,-17.507115,1.999964,0.139364,-0.059125,0.000000,0.314990,-0.150541,-0.000000
0.370000,-2.208216,-2.148347,-1.477282,0.092413,0.237062,-0.008330,0.594879,1.408124,0.008246,1.416237,2.940050,0.360021,-6.098478,-18.221957,2.179026,0.142426,-0.060617,0.000000,0.297282,-0.144699,-0.000000
0.380000,-2.207262,-2.145906,-1.477365,0.098431,0.251287,-0.008229,0.608747,1.436618,0.011945,1.358568,2.759459,0.378532,-5.424101,-17.880560,1.515358,0.145309,-0.062050,0.000000,0.279482,-0.139034,0.000000
0.390000,-2.206247,-2.143320,-1.477447,0.104586,0.265789,-0.008091,0.622060,1.463314,0.015803,1.303293,2.578780,0.393460,-5.853826,-18.437811,1.626568,0.148015,-0.063428,0.000000,0.261661,-0.133598,0.000000
0.400000,-2.205170,-2.140589,-1.477527,0.110871,0.280548,-0.007913,0.634794,1.488171,0.019821,1.243489,2.392519,0.409657,-5.877174,-18.613575,1.451416,0.150540,-0.064749,0.000000,0.243345,-0.127723,0.000000
0.410000,-2.204029,-2.137709,-1.477605,0.117280,0.295546,-0.007694,0.646935,1.511163,0.023984,1.184624,2.205624,0.422556,-5.893892,-18.749003,1.256420,0.152882,-0.066012,0.000000,0.224950,-0.121929,-0.000000
0.420000,-2.202824,-2.134677,-1.477680,0.123807,0.310765,-0.007433,0.658486,1.532281,0.028276,1.125663,2.017779,0.435938,-5.893708,-18.819139,1.291092,0.155039,-0.067217,0.000000,0.206499,-0.116136,-0.000000
0.430000,-2.201552,-2.131493,-1.477753,0.130448,0.326185,-0.007128,0.669448,1.551517,0.032689,1.066837,1.829249,0.445676,-5.868570,-18.879114,0.650672,0.157012,-0.068363,0.000000,0.187949,-0.110337,0.000000
0.440000,-2.200214,-2.128153,-1.477823,0.137194,0.341789,-0.006779,0.679824,1.568865,0.037175,1.008322,1.640502,0.451473,-5.833170,-18.855311,0.634719,0.158798,-0.069451,0.000000,0.169335,-0.104545,-0.000000
0.450000,-2.198808,-2.124656,-1.477889,0.144042,0.357556,-0.006384,0.689616,1.584328,0.041721,0.950234,1.452228,0.457255,-5.780318,-18.799691,0.392248,0.160399,-0.070481,0.000000,0.150782,-0.098799,-0.000000
0.460000,-2.197333,-2.121001,-1.477950,0.150985,0.373469,-0.005944,0.698830,1.597911,0.046308,0.892580,1.264465,0.459588,-5.716771,-18.705816,0.141749,0.161814,-0.071452,0.000000,0.132235,-0.093072,0.000000
0.470000,-2.195788,-2.117187,-1.478007,0.158017,0.389508,-0.005458,0.707473,1.609625,0.050910,0.836231,1.078617,0.460697,-5.581472,-18.496298,0.012637,0.163044,-0.072367,0.000000,0.113862,-0.087468,-0.000000
0.480000,-2.194172,-2.113211,-1.478059,0.165132,0.405655,-0.004926,0.715556,1.619487,0.055510,0.780348,0.893844,0.458428,-5.594141,-18.453233,-0.469303,0.164091,-0.073225,0.000000,0.095543,-0.081885,0.000000
0.490000,-2.192485,-2.109073,-1.478106,0.172326,0.421892,-0.004348,0.723081,1.627506,0.060066,0.725001,0.710465,0.452646,-5.442868,-18.177190,-0.620459,0.164955,-0.074027,0.000000,0.077300,-0.076327,-0.000000
0.500000,-2.190726,-2.104773,-1.478146,0.179592,0.438199,-0.003725,0.730062,1.633707,0.064559,0.671263,0.530073,0.445447,-5.334279,-17.934398,-0.886549,0.165638,-0.074773,0.000000,0.059323,-0.070916,0.000000
0.510000,-2.188893,-2.100309,-1.478180,0.186926,0.454560,-0.003057,0.736509,1.638114,0.068965,0.618306,0.351928,0.435291,-5.219494,-17.659784,-1.147741,0.166142,-0.075465,0.000000,0.041509,-0.065558,0.000000
0.520000,-2.186987,-2.095681,-1.478207,0.194321,0.470956,-0.002346,0.742435,1.640757,0.073256,0.567230,0.177251,0.422470,-5.029758,-17.299474,-1.412777,0.166469,-0.076104,0.000000,0.023981,-0.060363,-0.000000
0.530000,-2.185007,-2.090890,-1.478227,0.201773,0.487369,-0.001592,0.747856,1.641669,0.077406,0.516995,0.005432,0.407115,-5.017339,-17.060584,-1.657342,0.166622,-0.076690,0.000000,0.006679,-0.055228,0.000000
0.540000,-2.182951,-2.085934,-1.478239,0.209276,0.503783,-0.000798,0.752777,1.640876,0.081390,0.467611,-0.163291,0.389279,-4.823238,-16.650752,-1.912012,0.166604,-0.077224,0.000000,-0.010374,-0.050153,-0.000000
0.550000,-2.180821,-2.080814,-1.478243,0.216827,0.520181,0.000035,0.757215,1.638418,0.085183,0.420246,-0.327750,0.368928,-4.684707,-16.265426,-2.153661,0.166416,-0.077707,0.000000,-0.027065,-0.045255,0.000000
0.560000,-2.178615,-2.075530,-1.478238,0.224419,0.536546,0.000905,0.761185,1.634333,0.088762,0.373898,-0.488480,0.346595,-4.544879,-15.857153,-2.378829,0.166063,-0.078142,0.000000,-0.043438,-0.040438,-0.000000
0.570000,-2.176332,-2.070083,-1.478224,0.232049,0.552863,0.001809,0.764701,1.628664,0.092102,0.329720,-0.644640,0.320765,-4.328622,-15.390507,-2.719758,0.165549,-0.078528,0.000000,-0.059434,-0.035805,0.000000
0.580000,-2.173974,-2.064473,-1.478202,0.239711,0.569115,0.002746,0.767782,1.621454,0.095174,0.286528,-0.796628,0.293620,-4.310650,-15.004692,-2.704997,0.164876,-0.078868,0.000000,-0.075056,-0.031255,-0.000000
0.590000,-2.171538,-2.058701,-1.478169,0.247403,0.585287,0.003712,0.770435,1.612745,0.097972,0.244285,-0.944285,0.265382,-4.099209,-14.504458,-3.006426,0.164049,-0.079162,0.000000,-0.090283,-0.026785,0.000000
0.600000,-2.169025,-2.052768,-1.478127,0.255119,0.601365,0.004704,0.772676,1.602586,0.100470,0.204217,-1.086828,0.234105,-3.952832,-14.020865,-3.180322,0.163072,-0.079412,0.000000,-0.105069,-0.022504,-0.000000
0.610000,-2.166436,-2.046674,-1.478075,0.262855,0.617334,0.005720,0.774522,1.591024,0.102652,0.165186,-1.224673,0.202095,-3.809540,-13.524211,-3.330348,0.161949,-0.079619,0.000000,-0.119413,-0.018317,0.000000
0.620000,-2.163768,-2.040422,-1.478013,0.270608,0.633181,0.006756,0.775988,1.578111,0.104498,0.128415,-1.357077,0.166514,-3.586601,-12.974998,-3.673444,0.160685,-0.079784,0.000000,-0.133286,-0.014323,-0.000000
0.630000,-2.161023,-2.034011,-1.477940,0.278374,0.648892,0.007809,0.777093,1.563899,0.105983,0.092575,-1.484567,0.130982,-3.582961,-12.521959,-3.426402,0.159285,-0.079909,0.000000,-0.146679,-0.010420,0.000000
0.640000,-2.158201,-2.027444,-1.477857,0.286149,0.664454,0.008875,0.777842,1.548436,0.107120,0.057591,-1.607069,0.095837,-3.372110,-11.956198,-3.709829,0.157753,-0.079995,0.000000,-0.159574,-0.006601,0.000000
0.650000,-2.155300,-2.020723,-1.477763,0.293929,0.679856,0.009950,0.778253,1.531777,0.107889,0.024768,-1.723841,0.057789,-3.235029,-11.417661,-3.786355,0.156095,-0.080043,0.000000,-0.171950,-0.002975,0.000000
0.660000,-2.152322,-2.013848,-1.477658,0.301713,0.695086,0.011031,0.778340,1.513976,0.108279,-0.007146,-1.835470,0.020328,-3.103249,-10.874955,-3.834913,0.154316,-0.080056,0.000000,-0.183804,0.000558,-0.000000
0.670000,-2.149266,-2.006822,-1.477542,0.309495,0.710132,0.012114,0.778118,1.495088,0.108283,-0.036895,-1.941027,-0.020058,-2.890810,-10.267093,-4.110300,0.152421,-0.080033,0.000000,-0.195095,0.003898,-0.000000
0.680000,-2.146132,-1.999646,-1.477415,0.317274,0.724984,0.013196,0.777604,1.475172,0.107883,-0.065889,-2.041457,-0.059112,-2.910008,-9.819364,-3.693140,0.150416,-0.079977,0.000000,-0.205848,0.007151,-0.000000
0.690000,-2.142921,-1.992323,-1.477278,0.325046,0.739633,0.014271,0.776802,1.454276,0.107108,-0.094226,-2.136775,-0.096449,-2.714005,-9.212521,-3.900251,0.148306,-0.079888,0.000000,-0.216056,0.010325,0.000000
0.700000,-2.139631,-1.984854,-1.477130,0.332809,0.754067,0.015336,0.775727,1.432458,0.105945,-0.120562,-2.225974,-0.135946,-2.597251,-8.658730,-3.866514,0.146097,-0.079769,0.000000,-0.225673,0.013314,-0.000000
0.710000,-2.136265,-1.977242,-1.476971,0.340560,0.768279,0.016388,0.774392,1.409773,0.104396,-0.146197,-2.310048,-0.173694,-2.486795,-8.108964,-3.806112,0.143794,-0.079620,0.000000,-0.234738,0.016218,-0.000000
0.720000,-2.132820,-1.969489,-1.476802,0.348296,0.782260,0.017423,0.772810,1.386279,0.102463,-0.169910,-2.387725,-0.213163,-2.298983,-7.472809,-3.961646,0.141404,-0.079442,0.000000,-0.243172,0.018939,-0.000000
0.730000,-2.129299,-1.961598,-1.476623,0.356015,0.796002,0.018436,0.770996,1.362035,0.100141,-0.193085,-2.460480,-0.250283,-2.338271,-7.080200,-3.455192,0.138932,-0.079237,0.000000,-0.251058,0.021585,-0.000000
0.740000,-2.125700,-1.953570,-1.476434,0.363715,0.809498,0.019425,0.768950,1.337085,0.097468,-0.215831,-2.528416,-0.284685,-2.168736,-6.461496,-3.545732,0.136385,-0.079006,0.000000,-0.258404,0.024163,-0.000000
0.750000,-2.122024,-1.945408,-1.476235,0.371394,0.822741,0.020385,0.766686,1.311488,0.094442,-0.236839,-2.590120,-0.320087,-2.076598,-5.926831,-3.407634,0.133766,-0.078750,0.000000,-0.265117,0.026571,-0.000000
0.760000,-2.118272,-1.937116,-1.476026,0.379048,0.835726,0.021312,0.764214,1.285298,0.091076,-0.257365,-2.647061,-0.352881,-1.990877,-5.402799,-3.248020,0.131084,-0.078470,0.000000,-0.271293,0.028905,0.000000
0.770000,-2.114444,-1.928695,-1.475808,0.386677,0.848446,0.022205,0.761544,1.258569,0.087382,-0.276316,-2.697651,-0.385908,-1.837579,-4.774617,-3.257705,0.128343,-0.078167,0.000000,-0.276810,0.031079,0.000000
0.780000,-2.110539,-1.920148,-1.475582,0.394279,0.860896,0.023059,0.758689,1.231359,0.083368,-0.294920,-2.743802,-0.415950,-1.884968,-4.458931,-2.745013,0.125549,-0.077844,0.000000,-0.281816,0.033190,0.000000
0.790000,-2.106558,-1.911478,-1.475347,0.401850,0.873071,0.023871,0.755646,1.203707,0.079075,-0.313272,-2.785686,-0.442716,-1.748393,-3.861015,-2.703581,0.122708,-0.077499,0.000000,-0.286328,0.035245,-0.000000
0.800000,-2.102502,-1.902687,-1.475105,0.409391,0.884968,0.024640,0.752428,1.175667,0.074513,-0.330225,-2.821555,-0.469141,-1.680408,-3.372925,-2.482164,0.119825,-0.077134,0.000000,-0.290207,0.037152,-0.000000
0.810000,-2.098370,-1.893779,-1.474855,0.416898,0.896583,0.025361,0.749043,1.147289,0.069703,-0.346857,-2.853231,-0.492501,-1.617253,-2.899496,-2.247754,0.116906,-0.076750,0.000000,-0.293602,0.038999,-0.000000
0.820000,-2.094164,-1.884757,-1.474598,0.424371,0.907913,0.026033,0.745496,1.118623,0.064667,-0.362314,-2.878988,-0.514608,-1.503137,-2.316707,-2.113855,0.113955,-0.076349,0.000000,-0.296364,0.040712,0.000000
0.830000,-2.089883,-1.875622,-1.474334,0.431808,0.918955,0.026653,0.741797,1.089721,0.059422,-0.377529,-2.900927,-0.533524,-1.541321,-2.075280,-1.665944,0.110980,-0.075931,0.000000,-0.298683,0.042372,-0.000000
0.840000,-2.085528,-1.866379,-1.474065,0.439207,0.929707,0.027221,0.737945,1.060616,0.054008,-0.392576,-2.919264,-0.549074,-1.440028,-1.530803,-1.501211,0.107983,-0.075496,0.000000,-0.300581,0.043986,-0.000000
0.850000,-2.081099,-1.857029,-1.473790,0.446566,0.940167,0.027733,0.733949,1.031355,0.048445,-0.406584,-2.932127,-0.563026,-1.390720,-1.107331,-1.229668,0.104970,-0.075047,0.000000,-0.301893,0.045478,-0.000000
0.860000,-2.076597,-1.847576,-1.473510,0.453885,0.950334,0.028189,0.729815,1.001984,0.042758,-0.420323,-2.941459,-0.573881,-1.342756,-0.700693,-0.954900,0.101946,-0.074582,0.000000,-0.302800,0.046916,-0.000000
0.870000,-2.072022,-1.838023,-1.473226,0.461162,0.960206,0.028588,0.725546,0.972544,0.036975,-0.433287,-2.945636,-0.582257,-1.266584,-0.195524,-0.704609,0.098916,-0.074104,0.000000,-0.303147,0.048254,0.000000
0.880000,-2.067374,-1.828373,-1.472939,0.468396,0.969785,0.028928,0.721149,0.943082,0.031123,-0.446001,-2.946644,-0.587646,-1.277030,-0.010318,-0.372337,0.095885,-0.073612,0.000000,-0.303134,0.049541,0.000000
0.890000,-2.062654,-1.818629,-1.472648,0.475585,0.979068,0.029210,0.716626,0.913621,0.025232,-0.458506,-2.944710,-0.590005,-1.207682,0.453623,-0.114742,0.092855,-0.073108,0.000000,-0.302786,0.050782,0.000000
0.900000,-2.057862,-1.808793,-1.472355,0.482728,0.988057,0.029433,0.711982,0.884204,0.019331,-0.470294,-2.938120,-0.589810,-1.166825,0.802874,0.168716,0.089831,-0.072593,0.000000,-0.301939,0.051930,-0.000000
0.910000,-2.052999,-1.798868,-1.472060,0.489824,0.996752,0.029597,0.707221,0.854868,0.013445,-0.481770,-2.928652,-0.586857,-1.126084,1.135564,0.446752,0.086817,-0.072066,0.000000,-0.300772,0.053024,0.000000
0.920000,-2.048066,-1.788859,-1.471763,0.496872,1.005155,0.029702,0.702348,0.825646,0.007605,-0.492794,-2.915024,-0.580652,-1.081044,1.541634,0.769095,0.083817,-0.071528,0.000000,-0.299157,0.054048,-0.000000
0.930000,-2.043062,-1.778766,-1.471466,0.503871,1.013266,0.029749,0.697367,0.796575,0.001840,-0.503441,-2.898832,-0.572005,-1.048446,1.692732,0.958663,0.080835,-0.070981,0.000000,-0.297265,0.055016,0.000000
0.940000,-2.037989,-1.768594,-1.471168,0.510819,1.021087,0.029739,0.692281,0.767676,-0.003827,-0.513713,-2.880291,-0.561001,-1.003476,2.059331,1.265797,0.077872,-0.070425,0.000000,-0.295120,0.055929,-0.000000
0.950000,-2.032846,-1.758345,-1.470871,0.517716,1.028620,0.029673,0.687094,0.738982,-0.009369,-0.523523,-2.858089,-0.546921,-0.961273,2.332456,1.524069,0.074933,-0.069859,0.000000,-0.292590,0.056774,-0.000000
0.960000,-2.027634,-1.748023,-1.470575,0.524560,1.035867,0.029552,0.681812,0.710522,-0.014759,-0.532857,-2.833611,-0.530733,-0.916620,2.590396,1.769145,0.072021,-0.069286,0.000000,-0.289823,0.057557,-0.000000
0.970000,-2.022355,-1.737629,-1.470280,0.531352,1.042831,0.029379,0.676438,0.682321,-0.019971,-0.541954,-2.806056,-0.511043,-0.891506,2.889334,2.111657,0.069138,-0.068705,0.000000,-0.286732,0.058294,-0.000000
0.980000,-2.017008,-1.727167,-1.469988,0.538089,1.049515,0.029154,0.670975,0.654407,-0.024975,-0.550450,-2.776480,-0.489700,-0.806936,3.022600,2.153487,0.066287,-0.068118,0.000000,-0.283441,0.058961,-0.000000
0.990000,-2.011593,-1.716640,-1.469697,0.544771,1.055920,0.028880,0.665431,0.626797,-0.029761,-0.558307,-2.745067,-0.466890,-0.775346,3.286747,2.462483,0.063470,-0.067524,0.000000,-0.279970,0.059556,-0.000000
1.000000,-2.006112,-1.706050,-1.469410,0.551397,1.062052,0.028559,0.659810,0.599515,-0.034301,-0.565851,-2.711040,-0.440969,-0.722042,3.487264,2.663772,0.060689,-0.066924,0.000000,-0.276232,0.060101,0.000000
1.010000,-2.000566,-1.695400,-1.469126,0.557967,1.067912,0.028195,0.654116,0.572582,-0.038576,-0.572670,-2.675283,-0.413791,-0.664095,3.674383,2.846615,0.057946,-0.066320,0.000000,-0.272332,0.060569,-0.000000
1.020000,-1.994953,-1.684692,-1.468846,0.564479,1.073505,0.027789,0.648356,0.546016,-0.042565,-0.579331,-2.637484,-0.383376,-0.645385,3.871048,3.159266,0.055243,-0.065711,0.000000,-0.268227,0.061003,-0.000000
1.030000,-1.989276,-1.673930,-1.468571,0.570934,1.078834,0.027344,0.642533,0.519837,-0.046242,-0.585104,-2.598159,-0.352226,-0.508060,3.991334,3.065785,0.052582,-0.065098,0.000000,-0.263986,0.061348,-0.000000
1.040000,-1.983535,-1.663116,-1.468300,0.577330,1.083903,0.026865,0.636658,0.494058,-0.049609,-0.589926,-2.557457,-0.320599,-0.477877,4.159006,3.332461,0.049964,-0.064483,0.000000,-0.259626,0.061598,-0.000000
1.050000,-1.977730,-1.652253,-1.468033,0.583667,1.088716,0.026353,0.630735,0.468694,-0.052644,-0.594454,-2.515127,-0.286274,-0.405621,4.293030,3.454730,0.047390,-0.063865,0.000000,-0.255111,0.061807,-0.000000
1.060000,-1.971862,-1.641343,-1.467773,0.589944,1.093278,0.025813,0.624772,0.443759,-0.055334,-0.597973,-2.471571,-0.251630,-0.327670,4.415354,3.555791,0.044862,-0.063246,0.000000,-0.250494,0.061918,0.000000
1.070000,-1.965931,-1.630388,-1.467517,0.596162,1.097593,0.025248,0.618776,0.419266,-0.057666,-0.601271,-2.426867,-0.214437,-0.301921,4.524116,3.797823,0.042380,-0.062625,0.000000,-0.245774,0.061996,0.000000
1.080000,-1.959939,-1.619392,-1.467268,0.602320,1.101665,0.024661,0.612751,0.395225,-0.059624,-0.603383,-2.381116,-0.177452,-0.118896,4.624078,3.593707,0.039946,-0.062005,0.000000,-0.240973,0.061963,0.000000
1.090000,-1.953885,-1.608356,-1.467024,0.608417,1.105499,0.024057,0.606713,0.371647,-0.061218,-0.604226,-2.334437,-0.140962,-0.078437,4.709179,3.784217,0.037561,-0.061386,0.000000,-0.236104,0.061811,0.000000
1.100000,-1.947770,-1.597283,-1.466787,0.614454,1.109099,0.023438,0.600667,0.348539,-0.062435,-0.604692,-2.286973,-0.102536,0.016037,4.783225,3.816245,0.035225,-0.060768,0.000000,-0.231171,0.061616,0.000000
1.110000,-1.941596,-1.586175,-1.466555,0.620430,1.112471,0.022809,0.594623,0.325910,-0.063271,-0.603869,-2.238770,-0.064708,0.116793,4.847078,3.827160,0.032938,-0.060153,0.000000,-0.226189,0.061301,-0.000000
1.120000,-1.935362,-1.575034,-1.466330,0.626347,1.115619,0.022174,0.588591,0.303765,-0.063723,-0.602639,-2.190144,-0.025308,0.161257,4.884278,3.971595,0.030701,-0.059541,0.000000,-0.221181,0.060942,-0.000000
1.130000,-1.929069,-1.563863,-1.466112,0.632202,1.118548,0.021536,0.582576,0.282109,-0.063782,-0.599970,-2.140952,0.013019,0.374244,4.952581,3.688461,0.028514,-0.058934,0.000000,-0.216140,0.060451,0.000000
1.140000,-1.922718,-1.552664,-1.465900,0.637998,1.121263,0.020899,0.576596,0.260948,-0.063468,-0.595777,-2.091291,0.049990,0.433245,4.969702,3.782118,0.026378,-0.058332,0.000000,-0.211076,0.059821,0.000000
1.150000,-1.916309,-1.541438,-1.465694,0.643734,1.123769,0.020268,0.570661,0.240283,-0.062777,-0.591017,-2.041521,0.087935,0.550451,4.990295,3.724790,0.024293,-0.057737,0.000000,-0.206017,0.059133,-0.000000
1.160000,-1.909844,-1.530189,-1.465494,0.649412,1.126070,0.019645,0.564782,0.220118,-0.061714,-0.584749,-1.991540,0.124473,0.672604,5.000358,3.648341,0.022258,-0.057150,0.000000,-0.200958,0.058308,0.000000
1.170000,-1.903321,-1.518918,-1.465301,0.655030,1.128173,0.019035,0.558968,0.200453,-0.060285,-0.577840,-1.941585,0.161475,0.740100,4.992885,3.683229,0.020273,-0.056571,0.000000,-0.195917,0.057421,0.000000
1.180000,-1.896743,-1.507626,-1.465114,0.660591,1.130081,0.018441,0.553230,0.181286,-0.058491,-0.569302,-1.891635,0.196699,0.968844,4.995601,3.356971,0.018339,-0.056002,0.000000,-0.190896,0.056385,0.000000
1.190000,-1.890110,-1.496317,-1.464932,0.666095,1.131800,0.017866,0.547588,0.162620,-0.056358,-0.559064,-1.841783,0.229902,1.048867,4.969323,3.347979,0.016455,-0.055444,0.000000,-0.185902,0.055193,0.000000
1.200000,-1.883422,-1.484991,-1.464756,0.671543,1.133335,0.017315,0.542051,0.144450,-0.053892,-0.548057,-1.792246,0.263045,1.183370,4.940289,3.211779,0.014621,-0.054898,0.000000,-0.180952,0.053928,0.000000
1.210000,-1.876679,-1.473651,-1.464586,0.676937,1.134691,0.016789,0.536633,0.126774,-0.051105,-0.535421,-1.743029,0.294161,1.320789,4.901081,3.060031,0.012836,-0.054365,0.000000,-0.176048,0.052513,0.000000
1.220000,-1.869883,-1.462298,-1.464420,0.682276,1.135872,0.016294,0.531345,0.109587,-0.048010,-0.521849,-1.694272,0.324655,1.416562,4.850265,2.988667,0.011100,-0.053848,0.000000,-0.171201,0.051010,-0.000000
1.230000,-1.863034,-1.450934,-1.464260,0.687564,1.136884,0.015830,0.526201,0.092886,-0.044620,-0.506608,-1.646023,0.352884,1.632634,4.798100,2.653808,0.009412,-0.053346,0.000000,-0.166416,0.049353,-0.000000
1.240000,-1.856132,-1.439561,-1.464104,0.692801,1.137732,0.015402,0.521219,0.076665,-0.040961,-0.489652,-1.598369,0.378667,1.735867,4.729737,2.549650,0.007771,-0.052861,0.000000,-0.161700,0.047538,-0.000000
1.250000,-1.849178,-1.428180,-1.463952,0.697989,1.138419,0.015012,0.516411,0.060917,-0.037049,-0.471691,-1.551445,0.403426,1.878984,4.655203,2.352566,0.006178,-0.052395,0.000000,-0.157064,0.045627,0.000000
1.260000,-1.842172,-1.416793,-1.463803,0.703130,1.138951,0.014662,0.511791,0.045633,-0.032901,-0.452116,-1.505338,0.425791,2.022408,4.571384,2.146472,0.004630,-0.051949,0.000000,-0.152516,0.043566,0.000000
1.270000,-1.835115,-1.405401,-1.463658,0.708225,1.139333,0.014354,0.507373,0.030807,-0.028538,-0.431367,-1.459983,0.446581,2.140526,4.491796,1.983510,0.003127,-0.051524,0.000000,-0.148047,0.041394,0.000000
1.280000,-1.828008,-1.394007,-1.463516,0.713278,1.139569,0.014092,0.503169,0.016430,-0.023978,-0.409032,-1.415665,0.464876,2.326683,4.370252,1.673612,0.001669,-0.051122,0.000000,-0.143686,0.039073,0.000000
1.290000,-1.820850,-1.382610,-1.463376,0.718290,1.139663,0.013875,0.499197,0.002490,-0.019249,-0.385102,-1.372473,0.480572,2.446074,4.273442,1.491535,0.000253,-0.050743,0.000000,-0.139439,0.036602,0.000000
1.300000,-1.813642,-1.371214,-1.463238,0.723263,1.139620,0.013707,0.495471,-0.011023,-0.014372,-0.360007,-1.330279,0.494459,2.586127,4.157853,1.258402,-0.001121,-0.050390,0.000000,-0.135292,0.034019,0.000000
1.310000,-1.806385,-1.359818,-1.463102,0.728200,1.139444,0.013588,0.492002,-0.024120,-0.009369,-0.333439,-1.289412,0.505843,2.723899,4.033245,1.022251,-0.002453,-0.050063,0.000000,-0.131278,0.031297,-0.000000
1.320000,-1.799078,-1.348425,-1.462966,0.733104,1.139139,0.013520,0.488806,-0.036813,-0.004263,-0.305567,-1.249463,0.514935,2.853192,3.936901,0.791275,-0.003746,-0.049765,0.000000,-0.127353,0.028451,0.000000
1.330000,-1.791723,-1.337036,-1.462831,0.737977,1.138709,0.013503,0.485895,-0.049115,0.000922,-0.276320,-1.211082,0.521570,2.995904,3.737767,0.535231,-0.005001,-0.049495,0.000000,-0.123583,0.025473,0.000000
1.340000,-1.784319,-1.325651,-1.462696,0.742823,1.138158,0.013539,0.483284,-0.061041,0.006160,-0.245724,-1.174358,0.525724,3.119492,3.624347,0.299874,-0.006219,-0.049256,0.000000,-0.119976,0.022366,0.000000
1.350000,-1.776867,-1.314273,-1.462560,0.747644,1.137490,0.013627,0.480985,-0.072605,0.011428,-0.213917,-1.138772,0.527531,3.244408,3.473398,0.057060,-0.007401,-0.049048,0.000000,-0.116477,0.019142,-0.000000
1.360000,-1.769366,-1.302902,-1.462423,0.752443,1.136707,0.013767,0.479010,-0.083822,0.016703,-0.180921,-1.104923,0.526984,3.363708,3.315578,-0.182863,-0.008549,-0.048873,0.000000,-0.113148,0.015804,-0.000000
1.370000,-1.761818,-1.291539,-1.462285,0.757225,1.135814,0.013961,0.477371,-0.094707,0.021959,-0.146571,-1.072294,0.523727,3.496113,3.189792,-0.452026,-0.009664,-0.048732,0.000000,-0.109934,0.012335,-0.000000
1.380000,-1.754222,-1.280186,-1.462144,0.761992,1.134814,0.014206,0.476082,-0.105275,0.027170,-0.111212,-1.041552,0.518292,3.574441,2.957316,-0.634020,-0.010748,-0.048627,0.000000,-0.106903,0.008769,-0.000000
1.390000,-1.746578,-1.268843,-1.462001,0.766748,1.133710,0.014504,0.475150,-0.115545,0.032318,-0.074912,-1.012770,0.510733,3.693954,2.817899,-0.893293,-0.011803,-0.048557,0.000000,-0.104063,0.005111,0.000000
1.400000,-1.738887,-1.257512,-1.461854,0.771496,1.132504,0.014852,0.474587,-0.125534,0.037376,-0.037436,-0.985373,0.500577,3.791083,2.641151,-1.120467,-0.012830,-0.048525,0.000000,-0.101353,0.001340,-0.000000
1.410000,-1.731148,-1.246194,-1.461703,0.776241,1.131200,0.015251,0.474404,-0.135259,0.042323,0.000818,-0.959966,0.488444,3.879976,2.459683,-1.339245,-0.013830,-0.048531,0.000000,-0.098835,-0.002506,0.000000
1.420000,-1.723362,-1.234889,-1.461549,0.780986,1.129800,0.015699,0.474608,-0.144738,0.047135,0.040336,-0.936006,0.473500,4.001780,2.312299,-1.615326,-0.014807,-0.048575,0.000000,-0.096453,-0.006473,0.000000
1.430000,-1.715528,-1.223598,-1.461389,0.785734,1.128306,0.016193,0.475212,-0.153987,0.051788,0.080394,-0.914135,0.456855,4.007979,2.061019,-1.711480,-0.015760,-0.048660,0.000000,-0.094274,-0.010492,0.000000
1.440000,-1.707647,-1.212323,-1.461225,0.790491,1.126721,0.016734,0.476218,-0.163028,0.056267,0.120889,-0.894402,0.438628,4.110397,1.904770,-1.965776,-0.016693,-0.048785,0.000000,-0.092302,-0.014553,0.000000
1.450000,-1.699718,-1.201064,-1.461054,0.795260,1.125046,0.017318,0.477634,-0.171879,0.060551,0.162397,-0.876211,0.417851,4.169125,1.713741,-2.154954,-0.017607,-0.048952,0.000000,-0.090476,-0.018709,-0.000000
1.460000,-1.691742,-1.189822,-1.460878,0.800045,1.123284,0.017944,0.479467,-0.180559,0.064620,0.204256,-0.860103,0.395651,4.219914,1.521480,-2.331183,-0.018503,-0.049160,0.000000,-0.088851,-0.022897,-0.000000
1.470000,-1.683717,-1.178598,-1.460695,0.804851,1.121435,0.018610,0.481722,-0.189087,0.068455,0.246966,-0.845654,0.370836,4.300394,1.354668,-2.584931,-0.019384,-0.049410,0.000000,-0.087382,-0.027163,0.000000
1.480000,-1.675645,-1.167394,-1.460506,0.809681,1.119502,0.019312,0.484406,-0.197479,0.072033,0.289810,-0.833292,0.344936,4.266391,1.117369,-2.591809,-0.020252,-0.049703,0.000000,-0.086116,-0.031439,0.000000
1.490000,-1.667524,-1.156209,-1.460309,0.814540,1.117486,0.020049,0.487518,-0.205760,0.075351,0.332672,-0.823031,0.318122,4.324866,0.948643,-2.814841,-0.021107,-0.050039,0.000000,-0.085055,-0.035713,0.000000
1.500000,-1.659354,-1.145044,-1.460105,0.819433,1.115388,0.020818,0.491062,-0.213945,0.078388,0.376109,-0.814433,0.289067,4.340045,0.757965,-2.948827,-0.021953,-0.050418,0.000000,-0.084150,-0.040035,0.000000
1.510000,-1.651135,-1.133901,-1.459893,0.824363,1.113208,0.021616,0.495039,-0.222055,0.081130,0.419395,-0.807811,0.259234,4.343849,0.569827,-3.068103,-0.022791,-0.050840,0.000000,-0.083438,-0.044338,-0.000000
1.520000,-1.642866,-1.122780,-1.459672,0.829335,1.110947,0.022440,0.499452,-0.230108,0.083564,0.463213,-0.802999,0.227265,4.390802,0.390020,-3.272998,-0.023622,-0.051305,0.000000,-0.082897,-0.048682,-0.000000
1.530000,-1.634548,-1.111683,-1.459444,0.834354,1.108606,0.023286,0.504302,-0.238121,0.085674,0.506607,-0.800063,0.194882,4.285603,0.197659,-3.199763,-0.024449,-0.051813,0.000000,-0.082538,-0.052978,-0.000000
1.540000,-1.626179,-1.100609,-1.459207,0.839423,1.106184,0.024152,0.509582,-0.246115,0.087462,0.549445,-0.798973,0.162285,4.307977,0.024172,-3.368878,-0.025274,-0.052365,0.000000,-0.082358,-0.057212,0.000000
1.550000,-1.617759,-1.089559,-1.458961,0.844547,1.103683,0.025034,0.515292,-0.254106,0.088913,0.592496,-0.799592,0.127982,4.273682,-0.150110,-3.438241,-0.026097,-0.052958,0.000000,-0.082341,-0.061454,-0.000000
1.560000,-1.609288,-1.078535,-1.458706,0.849730,1.101102,0.025929,0.521429,-0.262112,0.090021,0.634832,-0.801887,0.093577,4.227731,-0.318052,-3.491986,-0.026921,-0.053594,0.000000,-0.082485,-0.065616,-0.000000
1.570000,-1.600765,-1.067537,-1.458442,0.854977,1.098441,0.026834,0.527990,-0.270151,0.090779,0.677348,-0.806027,0.057713,4.239133,-0.499295,-3.628775,-0.027747,-0.054271,0.000000,-0.082805,-0.069781,-0.000000
1.580000,-1.592188,-1.056567,-1.458169,0.860291,1.095699,0.027744,0.534973,-0.278238,0.091177,0.718854,-0.811646,0.022093,4.059415,-0.623144,-3.491399,-0.028578,-0.054990,0.000000,-0.083267,-0.073836,0.000000
1.590000,-1.583559,-1.045624,-1.457887,0.865677,1.092876,0.028656,0.542363,-0.286388,0.091223,0.759208,-0.818666,-0.013082,4.044861,-0.789517,-3.591822,-0.029413,-0.055748,0.000000,-0.083865,-0.077767,-0.000000
1.600000,-1.574875,-1.034709,-1.457596,0.871140,1.089971,0.029567,0.550157,-0.294617,0.090911,0.799421,-0.827328,-0.049266,3.961510,-0.931795,-3.593297,-0.030256,-0.056545,0.000000,-0.084617,-0.081667,0.000000
1.610000,-1.566136,-1.023825,-1.457296,0.876682,1.086983,0.030473,0.558347,-0.302938,0.090240,0.838479,-0.837211,-0.084917,3.869137,-1.064591,-3.580261,-0.031106,-0.057381,0.000000,-0.085486,-0.085440,0.000000
1.620000,-1.557341,-1.012970,-1.456987,0.882308,1.083912,0.031371,0.566925,-0.311367,0.089210,0.876964,-0.848785,-0.121248,3.806401,-1.228371,-3.639602,-0.031966,-0.058255,0.000000,-0.086515,-0.089139,-0.000000
1.630000,-1.548489,-1.002147,-1.456668,0.888022,1.080756,0.032256,0.575882,-0.319917,0.087818,0.914159,-0.861322,-0.156740,3.630517,-1.276749,-3.455450,-0.032837,-0.059165,0.000000,-0.087634,-0.092698,0.000000
1.640000,-1.539580,-0.991355,-1.456341,0.893827,1.077513,0.033126,0.585203,-0.328596,0.086079,0.949950,-0.874702,-0.191209,3.546416,-1.418300,-3.480938,-0.033719,-0.060109,0.000000,-0.088832,-0.096106,-0.000000
1.650000,-1.530612,-0.980597,-1.456006,0.899727,1.074183,0.033976,0.594879,-0.337416,0.083992,0.984894,-0.889482,-0.225942,3.420456,-1.515413,-3.419063,-0.034614,-0.061088,0.000000,-0.090160,-0.099411,0.000000
1.660000,-1.521585,-0.969872,-1.455662,0.905726,1.070764,0.034805,0.604896,-0.346388,0.081564,1.018360,-0.904886,-0.259596,3.285995,-1.599721,-3.344520,-0.035522,-0.062098,0.000000,-0.091545,-0.102558,-0.000000
1.670000,-1.512497,-0.959182,-1.455310,0.911826,1.067255,0.035607,0.615242,-0.355520,0.078800,1.050723,-0.921773,-0.293116,3.171149,-1.740917,-3.323970,-0.036445,-0.063140,0.000000,-0.093069,-0.105578,0.000000
1.680000,-1.503348,-0.948527,-1.454950,0.918031,1.063653,0.036379,0.625905,-0.364824,0.075706,1.081462,-0.938936,-0.325329,2.974996,-1.688859,-3.115825,-0.037384,-0.064211,0.000000,-0.094614,-0.108425,0.000000
1.690000,-1.494136,-0.937909,-1.454582,0.924345,1.059958,0.037120,0.636866,-0.374298,0.072299,1.110485,-0.956220,-0.356082,2.842649,-1.801288,-3.067207,-0.038337,-0.065309,0.000000,-0.096165,-0.111091,-0.000000
1.700000,-1.484861,-0.927328,-1.454208,0.930770,1.056167,0.037824,0.648111,-0.383952,0.068585,1.138170,-0.974626,-0.386350,2.678945,-1.842862,-2.950765,-0.039307,-0.066434,0.000000,-0.097820,-0.113608,0.000000
1.710000,-1.475521,-0.916786,-1.453826,0.937308,1.052278,0.038490,0.659623,-0.393790,0.064577,1.164079,-0.993012,-0.415138,2.510380,-1.870868,-2.825616,-0.040294,-0.067582,0.000000,-0.099467,-0.115940,-0.000000
1.720000,-1.466114,-0.906283,-1.453438,0.943963,1.048290,0.039115,0.671387,-0.403817,0.060285,1.188472,-1.012355,-0.443038,2.356207,-1.958879,-2.731903,-0.041297,-0.068754,0.000000,-0.101202,-0.118108,-0.000000
1.730000,-1.456641,-0.895820,-1.453044,0.950737,1.044201,0.039695,0.683386,-0.414036,0.055722,1.210950,-1.031373,-0.469306,2.137976,-1.841579,-2.519794,-0.042318,-0.069946,0.000000,-0.102899,-0.120077,0.000000
1.740000,-1.447099,-0.885399,-1.452644,0.957631,1.040009,0.040229,0.695600,-0.424442,0.050905,1.231440,-1.049898,-0.493836,1.970491,-1.898764,-2.406294,-0.043355,-0.071157,0.000000,-0.104540,-0.121843,-0.000000
1.750000,-1.437488,-0.875021,-1.452240,0.964649,1.035712,0.040713,0.708010,-0.435037,0.045848,1.250249,-1.068991,-0.517219,1.779176,-1.880815,-2.248942,-0.044409,-0.072384,0.000000,-0.106233,-0.123432,0.000000
1.760000,-1.427806,-0.864685,-1.451830,0.971792,1.031308,0.041145,0.720598,-0.445819,0.040567,1.267062,-1.087464,-0.538856,1.583819,-1.849426,-2.086022,-0.045479,-0.073627,0.000000,-0.107858,-0.124819,0.000000
1.770000,-1.418052,-0.854395,-1.451417,0.979062,1.026795,0.041523,0.733344,-0.456788,0.035076,1.281923,-1.106288,-0.558999,1.386634,-1.876931,-1.933311,-0.046566,-0.074883,0.000000,-0.109515,-0.126007,-0.000000
1.780000,-1.408224,-0.844150,-1.451000,0.986460,1.022171,0.041846,0.746230,-0.467942,0.029393,1.294756,-1.124196,-0.577331,1.179337,-1.701663,-1.731971,-0.047669,-0.076149,0.000000,-0.111077,-0.126992,0.000000
1.790000,-1.398322,-0.833952,-1.450580,0.993987,1.017435,0.042110,0.759233,-0.479268,0.023536,1.305523,-1.141023,-0.593791,0.974596,-1.698850,-1.567729,-0.048787,-0.077425,0.000000,-0.112527,-0.127772,0.000000
1.800000,-1.388344,-0.823802,-1.450158,1.001645,1.012585,0.042316,0.772333,-0.490763,0.017522,1.314231,-1.157822,-0.608604,0.765076,-1.622186,-1.385565,-0.049920,-0.078707,0.000000,-0.113974,-0.128347,-0.000000
1.810000,-1.378289,-0.813700,-1.449734,1.009434,1.007619,0.042460,0.785510,-0.502420,0.011370,1.320855,-1.173404,-0.621553,0.553452,-1.532500,-1.200847,-0.051066,-0.079994,0.000000,-0.115298,-0.128719,0.000000
1.820000,-1.368155,-0.803650,-1.449309,1.017355,1.002536,0.042543,0.798743,-0.514231,0.005098,1.325240,-1.188804,-0.632583,0.328766,-1.506990,-1.007699,-0.052226,-0.081284,0.000000,-0.116605,-0.128873,-0.000000
1.830000,-1.357941,-0.793650,-1.448883,1.025409,0.997334,0.042562,0.812008,-0.526191,-0.001276,1.327541,-1.202694,-0.641763,0.131376,-1.267961,-0.828054,-0.053398,-0.082575,0.000000,-0.117762,-0.128827,0.000000
1.840000,-1.347646,-0.783703,-1.448458,1.033595,0.992012,0.042517,0.825287,-0.538279,-0.007731,1.327749,-1.214916,-0.649079,-0.095659,-1.214115,-0.631945,-0.054580,-0.083864,0.000000,-0.118754,-0.128581,-0.000000
1.850000,-1.337269,-0.773810,-1.448033,1.041914,0.986568,0.042407,0.838556,-0.550488,-0.014250,1.325670,-1.226610,-0.654425,-0.314510,-1.084080,-0.440074,-0.055773,-0.085149,0.000000,-0.119699,-0.128118,0.000000
1.860000,-1.326808,-0.763972,-1.447610,1.050366,0.981002,0.042232,0.851793,-0.562805,-0.020814,1.321482,-1.236609,-0.657930,-0.533443,-0.944050,-0.249042,-0.056974,-0.086429,0.000000,-0.120480,-0.127458,-0.000000
1.870000,-1.316261,-0.754191,-1.447189,1.058950,0.975312,0.041991,0.864977,-0.575218,-0.027402,1.314905,-1.245736,-0.659297,-0.772114,-0.850988,-0.036058,-0.058182,-0.087702,0.000000,-0.121182,-0.126576,-0.000000
1.880000,-1.305628,-0.744466,-1.446770,1.067665,0.969497,0.041684,0.878084,-0.587713,-0.033994,1.306247,-1.252994,-0.658896,-0.959230,-0.598367,0.115753,-0.059397,-0.088965,0.000000,-0.121704,-0.125502,0.000000
1.890000,-1.294907,-0.734801,-1.446355,1.076511,0.963557,0.041311,0.891095,-0.600271,-0.040574,1.295519,-1.258262,-0.656753,-1.196248,-0.483205,0.324113,-0.060615,-0.090216,0.000000,-0.122036,-0.124239,-0.000000
1.900000,-1.284097,-0.725196,-1.445944,1.085487,0.957492,0.040873,0.903987,-0.612875,-0.047122,1.282409,-1.262390,-0.652518,-1.415945,-0.311605,0.510925,-0.061837,-0.091453,0.000000,-0.122268,-0.122759,-0.000000
1.910000,-1.273197,-0.715652,-1.445538,1.094591,0.951300,0.040369,0.916737,-0.625511,-0.053619,1.267217,-1.264519,-0.646577,-1.634451,-0.132830,0.694084,-0.063060,-0.092675,0.000000,-0.122311,-0.121092,0.000000
1.920000,-1.262205,-0.706170,-1.445137,1.103821,0.944982,0.039800,0.929323,-0.638161,-0.060046,1.249610,-1.265207,-0.638486,-1.874944,0.015302,0.906692,-0.064283,-0.093879,0.000000,-0.122227,-0.119210,0.000000
1.930000,-1.251120,-0.696752,-1.444742,1.113176,0.938537,0.039168,0.941722,-0.650808,-0.066383,1.229970,-1.263794,-0.628806,-2.052625,0.268658,1.028201,-0.065504,-0.095063,0.000000,-0.121948,-0.117147,-0.000000
1.940000,-1.239941,-0.687400,-1.444354,1.122655,0.931965,0.038473,0.953915,-0.663430,-0.072617,1.208323,-1.260203,-0.617595,-2.288384,0.431115,1.230298,-0.066721,-0.096226,0.000000,-0.121466,-0.114906,-0.000000
1.950000,-1.228667,-0.678114,-1.443973,1.132254,0.925268,0.037716,0.965880,-0.676007,-0.078728,1.184308,-1.254994,-0.604358,-2.502381,0.630492,1.399551,-0.067933,-0.097366,0.000000,-0.120844,-0.112459,0.000000
1.960000,-1.217296,-0.668895,-1.443600,1.141972,0.918445,0.036899,0.977595,-0.688522,-0.084700,1.158273,-1.247658,-0.589649,-2.714658,0.832681,1.562305,-0.069137,-0.098480,0.000000,-0.120027,-0.109835,0.000000
1.970000,-1.205827,-0.659745,-1.443235,1.151805,0.911498,0.036023,0.989038,-0.700954,-0.090514,1.129917,-1.238376,-0.572955,-2.945543,1.028851,1.756832,-0.070333,-0.099567,0.000000,-0.119040,-0.107010,-0.000000
1.980000,-1.194259,-0.650665,-1.442880,1.161751,0.904427,0.035089,1.000187,-0.713283,-0.096154,1.099595,-1.226974,-0.554926,-3.118243,1.252049,1.847355,-0.071518,-0.100625,0.000000,-0.117861,-0.104016,0.000000
1.990000,-1.182592,-0.641657,-1.442534,1.171808,0.897233,0.034100,1.011023,-0.725486,-0.101609,1.067342,-1.213425,-0.535645,-3.342749,1.453255,2.026987,-0.072689,-0.101652,0.000000,-0.116489,-0.100854,0.000000
2.000000,-1.170823,-0.632721,-1.442198,1.181971,0.889918,0.033058,1.021526,-0.737545,-0.106861,1.032841,-1.197865,-0.514574,-3.546386,1.663619,2.167828,-0.073847,-0.102647,0.000000,-0.114942,-0.097501,0.000000
2.010000,-1.158952,-0.623859,-1.441873,1.192237,0.882482,0.031964,1.031674,-0.749437,-0.111897,0.996410,-1.180228,-0.492316,-3.747416,1.873079,2.301597,-0.074988,-0.103607,0.000000,-0.113211,-0.093982,-0.000000
2.020000,-1.146978,-0.615072,-1.441559,1.202603,0.874929,0.030821,1.041447,-0.761142,-0.116701,0.957829,-1.160318,-0.468389,-3.960550,2.099869,2.464293,-0.076110,-0.104531,0.000000,-0.111281,-0.090281,0.000000
2.030000,-1.134899,-0.606361,-1.441256,1.213065,0.867260,0.029631,1.050824,-0.772637,-0.121261,0.917369,-1.138424,-0.443442,-4.130859,2.278418,2.523405,-0.077213,-0.105418,0.000000,-0.109176,-0.086419,0.000000
2.040000,-1.122716,-0.597727,-1.440966,1.223618,0.859477,0.028396,1.059788,-0.783904,-0.125567,0.875067,-1.114570,-0.417571,-4.336643,2.501270,2.668186,-0.078293,-0.106264,0.000000,-0.106900,-0.082398,0.000000
2.050000,-1.110427,-0.589172,-1.440689,1.234259,0.851583,0.027120,1.068319,-0.794921,-0.129607,0.830712,-1.088483,-0.390261,-4.526087,2.706760,2.773917,-0.079350,-0.107070,0.000000,-0.104430,-0.078203,-0.000000
2.060000,-1.098031,-0.580696,-1.440424,1.244983,0.843580,0.025805,1.076396,-0.805667,-0.133370,0.784532,-1.060473,-0.362118,-4.713146,2.908447,2.871085,-0.080381,-0.107833,0.000000,-0.101792,-0.073850,-0.000000
2.070000,-1.085527,-0.572300,-1.440173,1.255785,0.835471,0.024454,1.084003,-0.816122,-0.136845,0.736412,-1.030204,-0.332709,-4.905584,3.131994,2.992716,-0.081385,-0.108551,0.000000,-0.098956,-0.069333,0.000000
2.080000,-1.072915,-0.563987,-1.439935,1.266661,0.827259,0.023069,1.091119,-0.826265,-0.140022,0.686530,-0.998114,-0.302641,-5.070001,3.285013,3.019024,-0.082360,-0.109224,0.000000,-0.095963,-0.064662,-0.000000
2.090000,-1.060193,-0.555756,-1.439711,1.277606,0.818947,0.021654,1.097728,-0.836079,-0.142896,0.634928,-0.964259,-0.272018,-5.254657,3.498236,3.120938,-0.083304,-0.109848,0.000000,-0.092816,-0.059840,-0.000000
2.100000,-1.047362,-0.547608,-1.439502,1.288614,0.810538,0.020212,1.103811,-0.845543,-0.145459,0.581489,-0.928275,-0.240389,-5.427718,3.684940,3.186295,-0.084216,-0.110424,0.000000,-0.089484,-0.054860,0.000000
2.110000,-1.034421,-0.539545,-1.439307,1.299680,0.802037,0.018746,1.109352,-0.854639,-0.147703,0.526300,-0.890560,-0.208314,-5.598629,3.866336,3.242441,-0.085093,-0.110949,0.000000,-0.086000,-0.049723,0.000000
2.120000,-1.021369,-0.531568,-1.439127,1.310799,0.793447,0.017259,1.114332,-0.863347,-0.149622,0.469630,-0.850882,-0.175430,-5.745271,4.059277,3.318374,-0.085935,-0.111422,0.000000,-0.082345,-0.044459,0.000000
2.130000,-1.008205,-0.523676,-1.438962,1.321965,0.784771,0.015755,1.118738,-0.871651,-0.151211,0.411184,-0.809581,-0.142284,-5.943545,4.199616,3.308910,-0.086740,-0.111841,0.000000,-0.078547,-0.039033,-0.000000
2.140000,-0.994929,-0.515872,-1.438812,1.333172,0.776015,0.014236,1.122550,-0.879534,-0.152467,0.350988,-0.766732,-0.108983,-6.084337,4.378107,3.364686,-0.087506,-0.112205,0.000000,-0.074612,-0.033444,-0.000000
2.150000,-0.981541,-0.508156,-1.438677,1.344414,0.767182,0.012707,1.125754,-0.886979,-0.153388,0.289420,-0.722119,-0.075150,-6.239063,4.534324,3.386147,-0.088231,-0.112512,0.000000,-0.070522,-0.027732,-0.000000
2.160000,-0.968041,-0.500529,-1.438558,1.355685,0.758277,0.011169,1.128333,-0.893971,-0.153971,0.226204,-0.676011,-0.041289,-6.390132,4.683881,3.398458,-0.088916,-0.112761,0.000000,-0.066297,-0.021865,-0.000000
2.170000,-0.954427,-0.492991,-1.438454,1.366979,0.749304,0.009628,1.130274,-0.900495,-0.154213,0.161756,-0.628487,-0.007084,-6.511540,4.821578,3.427672,-0.089557,-0.112951,0.000000,-0.061947,-0.015884,0.000000
2.180000,-0.940701,-0.485543,-1.438365,1.378288,0.740269,0.008086,1.131563,-0.906536,-0.154113,0.095717,-0.579565,0.026955,-6.695916,4.961436,3.378234,-0.090154,-0.113079,0.000000,-0.057468,-0.009747,0.000000
2.190000,-0.926862,-0.478186,-1.438292,1.389608,0.731175,0.006547,1.132183,-0.912082,-0.153675,0.028117,-0.529329,0.060722,-6.809948,5.082220,3.387078,-0.090706,-0.113146,0.000000,-0.052867,-0.003455,0.000000
2.200000,-0.912909,-0.470920,-1.438234,1.400930,0.722029,0.005014,1.132122,-0.917119,-0.152898,-0.040578,-0.477936,0.094551,-6.941061,5.196972,3.364055,-0.091211,-0.113148,0.000000,-0.048161,0.002944,0.000000
2.210000,-0.898843,-0.463745,-1.438192,1.412248,0.712834,0.003490,1.131366,-0.921635,-0.151785,-0.110862,-0.425007,0.127963,-7.070491,5.310198,3.331546,-0.091668,-0.113086,0.000000,-0.043306,0.009507,0.000000
2.220000,-0.884664,-0.456663,-1.438165,1.423555,0.703598,0.001979,1.129904,-0.925622,-0.150339,-0.181561,-0.372476,0.161287,-7.111233,5.268863,3.317731,-0.092077,-0.112957,0.000000,-0.038494,0.016115,0.000000
2.230000,-0.870372,-0.449674,-1.438152,1.434844,0.694324,0.000485,1.127728,-0.929078,-0.148562,-0.253966,-0.318101,0.193989,-7.369935,5.606365,3.220698,-0.092438,-0.112762,0.000000,-0.033499,0.022903,-0.000000
2.240000,-0.855967,-0.442777,-1.438155,1.446107,0.685018,-0.000991,1.124818,-0.931977,-0.146462,-0.328069,-0.261900,0.225961,-7.406162,5.556387,3.186617,-0.092747,-0.112497,0.000000,-0.028319,0.029875,0.000000
2.250000,-0.841450,-0.435973,-1.438172,1.457337,0.675686,-0.002444,1.121167,-0.934319,-0.144043,-0.402433,-0.206378,0.257570,-7.508468,5.620818,3.119594,-0.093004,-0.112162,0.000000,-0.023204,0.036885,-0.000000
2.260000,-0.826821,-0.429263,-1.438204,1.468528,0.666333,-0.003871,1.116790,-0.936151,-0.141313,-0.472454,-0.161367,0.288395,-7.490823,5.440066,3.044929,-0.093215,-0.111758,0.000000,-0.019115,0.043485,-0.000000
2.270000,-0.812080,-0.422647,-1.438249,1.479671,0.656965,-0.005269,1.111637,-0.937386,-0.138278,-0.561401,-0.078641,0.318450,-9.331790,9.105718,2.963763,-0.093371,-0.111280,0.000000,-0.011301,0.051976,0.000000
2.280000,-0.797227,-0.416124,-1.438309,1.490758,0.647588,-0.006635,1.105607,-0.937823,-0.134947,-0.638799,-0.021215,0.347622,-6.118029,2.318342,2.869249,-0.093451,-0.110718,0.000000,-0.005965,0.059351,0.000000
2.290000,-0.782265,-0.409695,-1.438382,1.501781,0.638210,-0.007967,1.098912,-0.937919,-0.131329,-0.703330,0.008209,0.375828,-7.765237,5.587562,2.771445,-0.093501,-0.110093,0.000000,-0.003376,0.065478,0.000000
2.300000,-0.767192,-0.403360,-1.438468,1.512733,0.628832,-0.009261,1.091464,-0.937504,-0.127434,-0.785852,0.073476,0.403014,-7.768592,5.458829,2.663669,-0.093503,-0.109395,0.000000,0.002763,0.073414,0.000000
2.310000,-0.752010,-0.397118,-1.438567,1.523607,0.619462,-0.010515,1.083125,-0.936313,-0.123274,-0.884707,0.170067,0.428711,-8.260583,6.321154,2.540741,-0.093432,-0.108611,0.000000,0.012018,0.083004,-0.000000
2.320000,-0.736720,-0.390971,-1.438678,1.534393,0.610107,-0.011725,1.074057,-0.934687,-0.118858,-0.916638,0.130551,0.454412,-1.757291,-6.906833,2.533955,-0.093321,-0.107756,0.000000,0.007846,0.085983,0.000000
2.330000,-0.721323,-0.384916,-1.438801,1.545087,0.600767,-0.012891,1.064607,-0.933333,-0.114193,-0.996084,0.185530,0.478017,-14.242729,18.126850,2.183847,-0.093239,-0.106865,0.000000,0.013026,0.093710,-0.000000
2.340000,-0.705819,-0.378955,-1.438936,1.555681,0.591446,-0.014009,1.053932,-0.930571,-0.109306,-1.127937,0.344904,0.499366,-8.455911,6.350413,2.149756,-0.093020,-0.105853,0.000000,0.028569,0.106689,-0.000000
2.350000,-0.690209,-0.373087,-1.439081,1.566163,0.582158,-0.015076,1.042324,-0.926995,-0.104206,-1.196210,0.375025,0.520438,-8.845760,7.022961,1.999142,-0.092723,-0.104750,0.000000,0.031354,0.113389,0.000000
2.360000,-0.674496,-0.367312,-1.439237,1.576525,0.572907,-0.016092,1.030061,-0.923190,-0.098902,-1.252495,0.377444,0.540004,-8.297726,5.762393,1.853368,-0.092405,-0.103581,0.000000,0.031417,0.118936,0.000000
2.370000,-0.658679,-0.361629,-1.439403,1.586761,0.563697,-0.017054,1.016814,-0.918489,-0.093415,-1.416242,0.603308,0.556938,-18.725090,27.446246,1.590355,-0.091999,-0.102315,0.000000,0.053669,0.135226,-0.000000
2.380000,-0.642761,-0.356038,-1.439578,1.596856,0.554545,-0.017960,1.002022,-0.911726,-0.087766,-1.506786,0.675222,0.573007,0.799632,-13.444392,1.624449,-0.091391,-0.100893,0.000000,0.060713,0.144284,0.000000
2.390000,-0.626743,-0.350538,-1.439762,1.606801,0.545459,-0.018809,0.986995,-0.905649,-0.081957,-1.515900,0.576125,0.588238,-8.395349,5.690032,1.362428,-0.090851,-0.099448,0.000000,0.050789,0.145259,-0.000000
2.400000,-0.610626,-0.345128,-1.439954,1.616593,0.536433,-0.019598,0.971268,-0.899294,-0.076011,-1.625652,0.686599,0.600735,-7.800100,4.382223,1.194238,-0.090284,-0.097932,0.000000,0.061716,0.156315,0.000000
2.410000,-0.594411,-0.339809,-1.440154,1.626223,0.527476,-0.020328,0.954562,-0.892057,-0.069949,-1.716910,0.764647,0.611319,-7.875611,4.626470,1.007084,-0.089630,-0.096317,0.000000,0.069470,0.165580,-0.000000
2.420000,-0.578102,-0.334579,-1.440361,1.635682,0.518593,-0.020997,0.937136,-0.884529,-0.063784,-1.759519,0.718528,0.621629,-3.153944,-7.423534,0.972601,-0.088948,-0.094628,0.000000,0.064870,0.170013,0.000000
2.430000,-0.561698,-0.329437,-1.440574,1.644965,0.509783,-0.021604,0.919252,-0.877377,-0.057527,-1.832649,0.751110,0.629046,-11.555853,14.152697,0.507582,-0.088302,-0.092891,0.000000,0.068143,0.177545,-0.000000
2.440000,-0.545203,-0.324383,-1.440792,1.654063,0.501050,-0.022147,0.900349,-0.869162,-0.051214,-1.940107,0.872048,0.633417,-7.414413,3.570613,0.448328,-0.087550,-0.091050,0.000000,0.080292,0.188574,-0.000000
2.450000,-0.528618,-0.319415,-1.441016,1.662969,0.492402,-0.022628,0.880644,-0.860433,-0.044859,-2.002516,0.877759,0.637300,-7.592427,4.039282,0.246181,-0.086746,-0.089125,0.000000,0.080957,0.195122,-0.000000
2.460000,-0.511944,-0.314534,-1.441245,1.671674,0.483843,-0.023045,0.860088,-0.851233,-0.038477,-2.113031,0.968645,0.638785,-8.324420,5.149251,0.047212,-0.085893,-0.087111,0.000000,0.090170,0.206544,0.000000
2.470000,-0.495185,-0.309738,-1.441477,1.680168,0.475378,-0.023397,0.838861,-0.841753,-0.032090,-2.112091,0.898060,0.638208,2.507554,-10.537484,-0.159688,-0.085012,-0.085027,0.000000,0.083279,0.206814,0.000000
2.480000,-0.478342,-0.305026,-1.441712,1.688451,0.467005,-0.023686,0.817543,-0.832829,-0.025719,-2.188919,0.941101,0.635652,-18.055646,19.411807,-0.351777,-0.084183,-0.082929,0.000000,0.087762,0.214922,-0.000000
2.490000,-0.461417,-0.300398,-1.441951,1.696514,0.458727,-0.023912,0.794750,-0.822444,-0.019384,-2.351553,1.109501,0.631108,-8.397617,5.441370,-0.560196,-0.083207,-0.080679,0.000000,0.104857,0.231721,-0.000000
2.500000,-0.444412,-0.295852,-1.442191,1.704343,0.450558,-0.024074,0.770971,-0.811304,-0.013104,-2.408095,1.124378,0.624468,-8.939032,6.294760,-0.764057,-0.082153,-0.078325,0.000000,0.106612,0.237881,-0.000000
2.510000,-0.427331,-0.291386,-1.442432,1.711931,0.442501,-0.024174,0.746729,-0.800193,-0.006902,-2.432098,1.085174,0.615592,-7.681548,4.383173,-0.971975,-0.081099,-0.075919,0.000000,0.102953,0.240784,-0.000000
2.520000,-0.410174,-0.287001,-1.442674,1.719274,0.434557,-0.024213,0.721411,-0.788160,-0.000796,-2.670319,1.382193,0.605391,-28.464213,37.009042,-1.105903,-0.079949,-0.073400,0.000000,0.133139,0.265355,-0.000000
2.530000,-0.392946,-0.282695,-1.442916,1.726351,0.426748,-0.024191,0.693903,-0.773455,0.005197,-2.760008,1.447256,0.592683,10.894296,-24.571266,-1.436498,-0.078527,-0.070654,0.000000,0.140079,0.274986,0.000000
2.540000,-0.375648,-0.278466,-1.443157,1.733155,0.419082,-0.024109,0.666851,-0.760216,0.011049,-2.684663,1.254607,0.577436,-7.417220,4.202992,-1.574155,-0.077248,-0.067949,0.000000,0.121038,0.267918,0.000000
2.550000,-0.358284,-0.274313,-1.443398,1.739687,0.411545,-0.023970,0.639339,-0.746996,0.016742,-2.809886,1.377092,0.560884,-6.071845,2.192974,-1.773689,-0.075968,-0.065191,0.000000,0.133782,0.281166,-0.000000
2.560000,-0.340856,-0.270234,-1.443637,1.745938,0.404145,-0.023775,0.610767,-0.732859,0.022259,-2.908531,1.456697,0.542155,-6.313046,2.633526,-1.967240,-0.074591,-0.062320,0.000000,0.142242,0.291751,0.000000
2.570000,-0.323366,-0.266229,-1.443873,1.751900,0.396888,-0.023526,0.581757,-0.718748,0.027579,-2.868664,1.327845,0.521594,7.146269,-17.612895,-2.148147,-0.073213,-0.059400,0.000000,0.129630,0.288279,0.000000
2.580000,-0.305818,-0.262296,-1.444107,1.757575,0.389765,-0.023224,0.553052,-0.705782,0.032685,-2.915513,1.331000,0.499123,-16.745782,18.594053,-2.345114,-0.071946,-0.056505,0.000000,0.130358,0.293601,-0.000000
2.590000,-0.288216,-0.258434,-1.444337,1.762957,0.382777,-0.022873,0.523066,-0.691551,0.037556,-3.059404,1.481938,0.474796,-4.836975,0.724418,-2.515159,-0.070547,-0.053474,0.000000,0.146094,0.308807,-0.000000
2.600000,-0.270560,-0.254640,-1.444564,1.768034,0.375935,-0.022474,0.492423,-0.676983,0.042175,-3.073499,1.438097,0.448810,-5.164353,1.363246,-2.685104,-0.069109,-0.050370,0.000000,0.142093,0.310804,-0.000000
2.610000,-0.252856,-0.250914,-1.444787,1.772804,0.369237,-0.022030,0.461401,-0.662517,0.046528,-3.131499,1.455566,0.421491,-5.186610,1.432578,-2.840159,-0.067678,-0.047223,0.000000,0.144309,0.317258,-0.000000
2.620000,-0.235105,-0.247255,-1.445005,1.777260,0.362685,-0.021544,0.429893,-0.647926,0.050595,-3.165733,1.460375,0.391457,-2.872433,0.216438,-3.104283,-0.066229,-0.044021,0.000000,0.145253,0.321280,0.000000
2.630000,-0.217312,-0.243660,-1.445218,1.781400,0.356279,-0.021019,0.398029,-0.633274,0.054355,-3.214383,1.474303,0.360713,-6.892690,2.592888,-3.041052,-0.064769,-0.040777,0.000000,0.147114,0.326749,0.000000
2.640000,-0.199478,-0.240129,-1.445425,1.785219,0.350020,-0.020458,0.365543,-0.618400,0.057808,-3.278964,1.498440,0.329435,-4.793714,1.545231,-3.274557,-0.063282,-0.037466,0.000000,0.150006,0.333823,0.000000
2.650000,-0.181608,-0.236659,-1.445627,1.788710,0.343911,-0.019864,0.332548,-0.603355,0.060935,-3.320533,1.511051,0.295777,-4.733624,1.662822,-3.394037,-0.061774,-0.034098,0.000000,0.151732,0.338524,-0.000000
2.660000,-0.163705,-0.233250,-1.445822,1.791869,0.337954,-0.019241,0.299197,-0.588165,0.063720,-3.346845,1.526892,0.261098,-4.146179,1.698710,-3.511000,-0.060246,-0.030689,0.000000,0.153781,0.341631,0.000000
2.670000,-0.145772,-0.229900,-1.446011,1.794692,0.332149,-0.018591,0.265337,-0.572801,0.066155,-3.436652,1.546746,0.225849,-10.289509,2.075625,-3.564398,-0.058697,-0.027225,0.000000,0.156217,0.351202,-0.000000
2.680000,-0.127813,-0.226607,-1.446194,1.797172,0.326498,-0.017919,0.230649,-0.557240,0.068232,-3.478622,1.564267,0.189274,2.012441,1.415340,-3.749656,-0.057123,-0.023672,0.000000,0.158417,0.355842,0.000000
2.690000,-0.109830,-0.223369,-1.446370,1.799305,0.321004,-0.017227,0.195969,-0.541527,0.069936,-3.467443,1.578756,0.151448,-3.322145,1.666339,-3.785801,-0.055529,-0.020117,0.000000,0.160299,0.354993,-0.000000
2.700000,-0.091828,-0.220186,-1.446538,1.801091,0.315668,-0.016521,0.161043,-0.525653,0.071261,-3.514799,1.595758,0.113364,-2.604125,1.531180,-3.856393,-0.053916,-0.016535,0.000000,0.162411,0.360094,-0.000000
2.710000,-0.073809,-0.217055,-1.446700,1.802525,0.310491,-0.015804,0.125779,-0.509784,0.072202,-3.537012,1.573037,0.074748,-2.064365,0.604611,-3.907586,-0.052299,-0.012916,0.000000,0.160439,0.362569,-0.000000
2.720000,-0.055778,-0.213976,-1.446854,1.803606,0.305473,-0.015078,0.090303,-0.493680,0.072751,-3.558146,1.669231,0.034863,-1.938459,12.136657,-4.025564,-0.050655,-0.009274,0.000000,0.170628,0.364883,0.000000
2.730000,-0.037738,-0.210945,-1.447002,1.804330,0.300621,-0.014350,0.054645,-0.476734,0.072900,-3.571092,1.679387,-0.004845,-0.643300,-10.311205,-3.912368,-0.048921,-0.005612,0.000000,0.171982,0.366304,-0.000000
2.740000,-0.019693,-0.207963,-1.447141,1.804698,0.295936,-0.013622,0.018911,-0.460461,0.072656,-3.575507,1.594303,-0.044179,-0.464630,-0.151275,-3.994091,-0.047253,-0.001942,0.000000,0.163546,0.366793,0.000000
2.750000,-0.001646,-0.205026,-1.447274,1.804709,0.291411,-0.012898,-0.016864,-0.444362,0.072013,-3.578506,1.620786,-0.084316,0.086740,-1.078580,-3.989763,-0.045600,0.001732,0.000000,0.166517,0.367081,0.000000
2.760000,0.016400,-0.202134,-1.447399,1.804361,0.287049,-0.012183,-0.052666,-0.428111,0.070972,-3.581847,1.631729,-0.123706,0.473697,-1.060850,-3.964884,-0.043929,0.005408,0.000000,0.167864,0.367349,0.000000
2.770000,0.034440,-0.199285,-1.447518,1.803655,0.282849,-0.011480,-0.088388,-0.412078,0.069533,-3.557759,1.559864,-0.164294,3.146182,-9.093498,-4.073351,-0.042279,0.009074,0.000000,0.160702,0.364746,-0.000000
2.780000,0.052472,-0.196476,-1.447629,1.802594,0.278805,-0.010793,-0.123865,-0.396714,0.067692,-3.544070,1.538431,-0.203510,-0.448846,4.949368,-3.765047,-0.040695,0.012713,0.000000,0.158675,0.363156,-0.000000
2.790000,0.070491,-0.193708,-1.447734,1.801178,0.274915,-0.010127,-0.159320,-0.381087,0.065469,-3.542630,1.573936,-0.241100,1.939691,-2.085931,-3.828192,-0.039083,0.016348,0.000000,0.162450,0.362772,-0.000000
2.800000,0.088494,-0.190978,-1.447832,1.799408,0.271183,-0.009485,-0.194611,-0.365564,0.062866,-3.515585,1.533013,-0.279365,2.263717,-1.852218,-3.745125,-0.037480,0.019963,0.000000,0.158369,0.359710,0.000000
2.810000,0.106478,-0.188284,-1.447923,1.797287,0.267604,-0.008871,-0.229693,-0.350200,0.059889,-3.501625,1.543570,-0.315814,2.435497,-1.251000,-3.641602,-0.035892,0.023554,0.000000,0.159530,0.357944,-0.000000
2.820000,0.124439,-0.185625,-1.448009,1.794815,0.264178,-0.008289,-0.264483,-0.335096,0.056545,-3.449343,1.460079,-0.353066,6.166797,-10.374426,-3.710042,-0.034331,0.027110,0.000000,0.151037,0.352205,-0.000000
2.830000,0.142373,-0.183000,-1.448089,1.791999,0.260899,-0.007742,-0.298761,-0.320741,0.052836,-3.417204,1.442550,-0.387944,0.203339,7.028275,-3.260361,-0.032845,0.030610,0.000000,0.149272,0.348493,-0.000000
2.840000,0.160278,-0.180407,-1.448164,1.788840,0.257765,-0.007233,-0.332917,-0.305962,0.048796,-3.407771,1.498098,-0.420182,3.555752,-1.038316,-3.282584,-0.031316,0.034093,0.000000,0.154953,0.347071,-0.000000
