time,x,y,z,vx,vy,vz,ax,ay,az,jx,jy,jz,sx,sy,sz,roll,pitch,yaw,p,q,r
0.000000,-2.524508,-1.634569,-1.461624,0.016614,-0.009932,-0.002123,-0.730528,0.411272,-0.024812,18.685757,-13.658152,0.100374,-350.393635,386.035514,8.784604,0.041679,0.074144,0.000000,-1.376270,-1.887141,0.000000
0.010000,-2.524375,-1.634650,-1.461646,0.010187,-0.006441,-0.002365,-0.560323,0.293038,-0.023385,15.439770,-10.081711,0.183375,-299.655333,330.199776,7.825783,0.029743,0.056920,0.000000,-1.019484,-1.563305,0.000000
0.020000,-2.524299,-1.634701,-1.461671,0.005308,-0.003962,-0.002588,-0.420125,0.207870,-0.021175,12.676033,-7.035692,0.257091,-253.902306,279.903455,6.927461,0.021122,0.042708,0.000000,-0.712967,-1.285618,0.000000
0.030000,-2.524265,-1.634732,-1.461698,0.001700,-0.002190,-0.002786,-0.305357,0.150736,-0.018272,10.345934,-4.466127,0.322118,-212.886145,234.861447,6.087521,0.015328,0.031059,0.000000,-0.453088,-1.050515,-0.000000
0.040000,-2.524261,-1.634747,-1.461727,-0.000870,-0.000868,-0.002952,-0.211915,0.117130,-0.014760,8.403348,-2.321899,0.379029,-176.358439,194.788649,5.303845,0.011919,0.021566,0.000000,-0.235564,-0.854033,-0.000000
0.050000,-2.524279,-1.634750,-1.461757,-0.002597,0.000218,-0.003080,-0.136144,0.103042,-0.010717,6.804632,-0.554740,0.428376,-144.070782,159.399956,4.574313,0.010491,0.013862,0.000000,-0.055917,-0.692110,-0.000000
0.060000,-2.524311,-1.634742,-1.461788,-0.003641,0.001246,-0.003165,-0.074814,0.104930,-0.006216,5.508627,0.880764,0.470689,-115.774762,128.410266,3.896810,0.010689,0.007621,0.000000,0.090271,-0.560746,0.000000
0.070000,-2.524350,-1.634725,-1.461820,-0.004132,0.002359,-0.003203,-0.025092,0.119694,-0.001325,4.476659,2.027178,0.506478,-91.221971,101.534473,3.269216,0.012199,0.002557,0.000000,0.207229,-0.456106,0.000000
0.080000,-2.524392,-1.634695,-1.461852,-0.004173,0.003673,-0.003190,0.015479,0.144643,0.003893,3.672538,2.924216,0.536233,-70.164000,78.487475,2.689413,0.014749,-0.001578,0.000000,0.298936,-0.374560,-0.000000
0.090000,-2.524433,-1.634650,-1.461884,-0.003846,0.005278,-0.003124,0.049006,0.177470,0.009381,3.062558,3.608740,0.560419,-52.352440,58.984168,2.155284,0.018106,-0.005000,0.000000,0.369097,-0.312713,0.000000
0.100000,-2.524468,-1.634588,-1.461914,-0.003211,0.007242,-0.003002,0.077273,0.216223,0.015085,2.615496,4.114761,0.579483,-37.538881,42.739447,1.664711,0.022071,-0.007889,0.000000,0.421133,-0.267411,0.000000
0.110000,-2.524496,-1.634504,-1.461943,-0.002313,0.009617,-0.002822,0.101763,0.259274,0.020955,2.302615,4.473440,0.593851,-25.474914,29.468210,1.215574,0.026479,-0.010395,0.000000,0.458180,-0.235746,-0.000000
0.120000,-2.524514,-1.634394,-1.461971,-0.001184,0.012438,-0.002582,0.123685,0.305295,0.026948,2.097661,4.713087,0.603926,-15.912131,18.885351,0.805758,0.031194,-0.012642,0.000000,0.483093,-0.215059,0.000000
0.130000,-2.524519,-1.634254,-1.461995,0.000155,0.015729,-0.002282,0.143996,0.353224,0.033021,1.976863,4.859158,0.610090,-8.602122,10.705768,0.433143,0.036109,-0.014727,0.000000,0.498442,-0.202938,0.000000
0.140000,-2.524510,-1.634078,-1.462016,0.001693,0.019506,-0.001922,0.163431,0.402242,0.039137,1.918937,4.934262,0.612706,-3.296478,4.644356,0.095611,0.041139,-0.016725,0.000000,0.506514,-0.197220,-0.000000
0.150000,-2.524484,-1.633862,-1.462033,0.003423,0.023776,-0.001500,0.182522,0.451739,0.045264,1.905080,4.958156,0.612113,0.253210,0.416012,-0.208955,0.046221,-0.018690,0.000000,0.509313,-0.195992,0.000000
0.160000,-2.524441,-1.633601,-1.462046,0.005343,0.028541,-0.001016,0.201625,0.501291,0.051370,1.918976,4.947743,0.608630,2.295352,-2.264368,-0.482673,0.051313,-0.020658,0.000000,0.508556,-0.197588,-0.000000
0.170000,-2.524377,-1.633289,-1.462053,0.007456,0.033801,-0.000472,0.220947,0.550627,0.057428,1.946790,4.917078,0.602555,3.078356,-3.681888,-0.727663,0.056385,-0.022651,0.000000,0.505673,-0.200595,-0.000000
0.180000,-2.524291,-1.632923,-1.462055,0.009763,0.039552,0.000132,0.240569,0.599603,0.063413,1.977174,4.877364,0.594165,2.850631,-4.121652,-0.946040,0.061423,-0.024677,0.000000,0.501806,-0.203853,-0.000000
0.190000,-2.524181,-1.632497,-1.462050,0.012268,0.045791,0.000796,0.260469,0.648172,0.069305,2.001262,4.836954,0.583716,1.860588,-3.868763,-1.139924,0.066421,-0.026734,0.000000,0.497810,-0.206452,0.000000
0.200000,-2.524045,-1.632006,-1.462039,0.014973,0.052514,0.001518,0.280552,0.696358,0.075082,2.012673,4.801347,0.571441,0.356634,-3.208326,-1.311433,0.071381,-0.028811,0.000000,0.494245,-0.207736,-0.000000
0.210000,-2.523881,-1.631445,-1.462020,0.017898,0.059692,0.002297,0.299972,0.745184,0.080728,1.943383,4.861680,0.557530,0.206873,-4.660381,-1.462056,0.076407,-0.030822,0.000000,0.500438,-0.200734,0.000000
0.220000,-2.523686,-1.630810,-1.461993,0.020995,0.067386,0.003132,0.319411,0.793545,0.086228,1.943784,4.808284,0.542232,-0.158309,-6.001429,-1.594616,0.081385,-0.032837,0.000000,0.494937,-0.200848,-0.000000
0.230000,-2.523460,-1.630096,-1.461957,0.024286,0.075561,0.004021,0.338832,0.841307,0.091568,1.939666,4.741984,0.525690,-0.688834,-7.242908,-1.711309,0.086301,-0.034851,0.000000,0.488061,-0.200479,0.000000
0.240000,-2.523200,-1.629297,-1.461912,0.027771,0.084210,0.004963,0.358184,0.888345,0.096738,1.929624,4.663719,0.508052,-1.334622,-8.396257,-1.814328,0.091142,-0.036859,0.000000,0.479910,-0.199484,0.000000
0.250000,-2.522904,-1.628410,-1.461858,0.031449,0.093325,0.005955,0.377402,0.934544,0.101726,1.912756,4.574314,0.489442,-2.045593,-9.472913,-1.905870,0.095895,-0.038855,0.000000,0.470574,-0.197770,-0.000000
0.260000,-2.522570,-1.627429,-1.461793,0.035323,0.102896,0.006996,0.396267,0.979844,0.106525,1.875019,4.478883,0.470128,-2.427100,-10.595558,-1.992247,0.100554,-0.040815,0.000000,0.460587,-0.193901,-0.000000
0.270000,-2.522197,-1.626351,-1.461718,0.039379,0.112917,0.008085,0.414889,1.024085,0.111126,1.848807,4.367594,0.449806,-2.815825,-11.650764,-2.071032,0.105103,-0.042751,0.000000,0.448937,-0.191192,-0.000000
0.280000,-2.521782,-1.625169,-1.461631,0.043620,0.123374,0.009218,0.433230,1.067162,0.115519,1.818705,4.246100,0.428727,-3.203879,-12.636349,-2.143915,0.109529,-0.044659,0.000000,0.436213,-0.188067,-0.000000
0.290000,-2.521324,-1.623882,-1.461533,0.048042,0.134256,0.010395,0.451251,1.108976,0.119698,1.784758,4.115106,0.406942,-3.583376,-13.550129,-2.212587,0.113824,-0.046534,0.000000,0.422493,-0.184531,-0.000000
0.300000,-2.520821,-1.622483,-1.461423,0.052643,0.145549,0.011611,0.468913,1.149435,0.123656,1.747092,3.975344,0.384484,-3.946429,-14.389919,-2.278739,0.117976,-0.048372,0.000000,0.407858,-0.180598,0.000000
0.310000,-2.520270,-1.620969,-1.461301,0.057420,0.157240,0.012867,0.486153,1.188444,0.127389,1.703338,3.826460,0.361655,-4.220172,-15.125707,-2.351267,0.121977,-0.050167,0.000000,0.392284,-0.176028,-0.000000
0.320000,-2.519672,-1.619337,-1.461166,0.062366,0.169313,0.014158,0.502971,1.225941,0.130886,1.659869,3.671837,0.337780,-4.469653,-15.786547,-2.423773,0.125820,-0.051918,0.000000,0.376106,-0.171470,-0.000000
0.330000,-2.519023,-1.617582,-1.461017,0.067478,0.181754,0.015484,0.519342,1.261860,0.134142,1.614026,3.510975,0.313177,-4.694941,-16.373663,-2.497065,0.129497,-0.053623,0.000000,0.359285,-0.166655,-0.000000
0.340000,-2.518322,-1.615701,-1.460856,0.072751,0.194545,0.016840,0.535244,1.296142,0.137147,1.566050,3.344605,0.287834,-4.896105,-16.888279,-2.571954,0.133003,-0.055278,0.000000,0.341898,-0.161609,0.000000
0.350000,-2.517567,-1.613690,-1.460681,0.078181,0.207671,0.018226,0.550657,1.328736,0.139896,1.516184,3.173447,0.261730,-5.073214,-17.331619,-2.649246,0.136333,-0.056883,0.000000,0.324022,-0.156356,0.000000
0.360000,-2.516757,-1.611546,-1.460491,0.083763,0.221114,0.019637,0.565559,1.359593,0.142383,1.464325,2.997769,0.235141,-5.217717,-17.693871,-2.737394,0.139482,-0.058434,0.000000,0.305692,-0.150889,-0.000000
0.370000,-2.515891,-1.609267,-1.460288,0.089491,0.234857,0.021072,0.579939,1.388681,0.144596,1.411521,2.819302,0.207313,-5.339360,-17.988647,-2.828628,0.142446,-0.059930,0.000000,0.287075,-0.145310,-0.000000
0.380000,-2.514967,-1.606848,-1.460070,0.095360,0.248882,0.022528,0.593786,1.415970,0.146526,1.357610,2.638213,0.178558,-5.439268,-18.218523,-2.922817,0.145223,-0.061369,0.000000,0.268193,-0.139606,0.000000
0.390000,-2.513984,-1.604288,-1.459837,0.101365,0.263170,0.024002,0.607088,1.441438,0.148164,1.302804,2.455139,0.148847,-5.518566,-18.386075,-3.019835,0.147809,-0.062751,0.000000,0.249112,-0.133799,0.000000
0.400000,-2.512939,-1.601584,-1.459590,0.107500,0.277704,0.025491,0.619839,1.465068,0.149500,1.247304,2.270690,0.118153,-5.578379,-18.493878,-3.119554,0.150204,-0.064074,0.000000,0.229896,-0.127909,-0.000000
0.410000,-2.511833,-1.598733,-1.459327,0.113759,0.292465,0.026991,0.632033,1.486849,0.150526,1.191335,2.085388,0.086682,-5.620762,-18.542881,-3.227762,0.152407,-0.065338,0.000000,0.210599,-0.121962,-0.000000
0.420000,-2.510664,-1.595734,-1.459050,0.120138,0.307435,0.028500,0.643665,1.506775,0.151230,1.134988,1.899942,0.053856,-5.645796,-18.537486,-3.337691,0.154416,-0.066542,0.000000,0.191287,-0.115963,0.000000
0.430000,-2.509430,-1.592584,-1.458757,0.126631,0.322595,0.030014,0.654732,1.524849,0.151599,1.078473,1.714810,0.019925,-5.654492,-18.480468,-3.448488,0.156233,-0.067685,0.000000,0.172008,-0.109935,0.000000
0.440000,-2.508131,-1.589281,-1.458449,0.133231,0.337926,0.031531,0.665234,1.541074,0.151624,1.021949,1.530495,-0.015114,-5.647862,-18.374603,-3.559302,0.157857,-0.068768,0.000000,0.152814,-0.103895,0.000000
0.450000,-2.506765,-1.585825,-1.458127,0.139934,0.353410,0.033046,0.675172,1.555463,0.151293,0.965564,1.347471,-0.051258,-5.626916,-18.222664,-3.669280,0.159289,-0.069789,0.000000,0.133751,-0.097858,-0.000000
0.460000,-2.505332,-1.582213,-1.457789,0.146733,0.369029,0.034555,0.684547,1.568030,0.150597,0.909523,1.166219,-0.088378,-5.594391,-18.028271,-3.780502,0.160532,-0.070750,0.000000,0.114871,-0.091847,-0.000000
0.470000,-2.503830,-1.578444,-1.457436,0.153623,0.384765,0.036056,0.693364,1.578794,0.149522,0.853794,0.987079,-0.126728,-5.549362,-17.793252,-3.888824,0.161588,-0.071650,0.000000,0.096202,-0.085857,0.000000
0.480000,-2.502259,-1.574517,-1.457068,0.160598,0.400599,0.037545,0.701625,1.587780,0.148059,0.798575,0.810481,-0.166141,-5.492628,-17.520278,-3.993037,0.162457,-0.072490,0.000000,0.077792,-0.079910,0.000000
0.490000,-2.500618,-1.570432,-1.456685,0.167653,0.416514,0.039016,0.709337,1.595014,0.146196,0.743978,0.636791,-0.206571,-5.424991,-17.212021,-4.091928,0.163144,-0.073270,0.000000,0.059676,-0.074017,-0.000000
0.500000,-2.498906,-1.566187,-1.456287,0.174783,0.432494,0.040467,0.716507,1.600526,0.143924,0.690109,0.466349,-0.247958,-5.347249,-16.871152,-4.184286,0.163652,-0.073991,0.000000,0.041890,-0.068190,-0.000000
0.510000,-2.497122,-1.561782,-1.455875,0.181982,0.448519,0.041893,0.723143,1.604353,0.141234,0.637114,0.299530,-0.290244,-5.261467,-16.501916,-4.268570,0.163984,-0.074653,0.000000,0.024472,-0.062446,-0.000000
0.520000,-2.495266,-1.557216,-1.455449,0.189244,0.464575,0.043290,0.729252,1.606530,0.138117,0.584965,0.136473,-0.333314,-5.167026,-16.105219,-4.343939,0.164143,-0.075257,0.000000,0.007439,-0.056782,0.000000
0.530000,-2.493337,-1.552490,-1.455010,0.196565,0.480645,0.044654,0.734845,1.607096,0.134565,0.533800,-0.022491,-0.377089,-5.064571,-15.683540,-4.409224,0.164134,-0.075804,0.000000,-0.009174,-0.051214,0.000000
0.540000,-2.491334,-1.547603,-1.454557,0.203939,0.496712,0.045980,0.739932,1.606094,0.130573,0.483698,-0.177123,-0.421461,-4.954749,-15.239357,-4.463253,0.163961,-0.076295,0.000000,-0.025342,-0.045750,-0.000000
0.550000,-2.489258,-1.542556,-1.454090,0.211362,0.512761,0.047264,0.744523,1.603569,0.126134,0.434728,-0.327211,-0.466312,-4.838204,-14.775150,-4.504856,0.163628,-0.076732,0.000000,-0.041041,-0.040401,-0.000000
0.560000,-2.487107,-1.537348,-1.453611,0.218828,0.528778,0.048501,0.748631,1.599567,0.121244,0.386988,-0.472481,-0.511634,-4.716433,-14.295598,-4.529799,0.163142,-0.077115,0.000000,-0.056243,-0.035175,-0.000000
0.570000,-2.484881,-1.531981,-1.453120,0.226333,0.544748,0.049687,0.752267,1.594136,0.115901,0.340456,-0.612974,-0.556997,-4.589126,-13.800710,-4.540350,0.162505,-0.077445,0.000000,-0.070943,-0.030076,-0.000000
0.580000,-2.482580,-1.526453,-1.452618,0.233872,0.560656,0.050818,0.755444,1.587324,0.110104,0.295222,-0.748451,-0.602390,-4.456824,-13.292696,-4.535712,0.161725,-0.077725,0.000000,-0.085117,-0.025113,-0.000000
0.590000,-2.480204,-1.520768,-1.452104,0.241441,0.576490,0.051888,0.758176,1.579184,0.103854,0.251334,-0.878791,-0.647658,-4.320068,-12.773766,-4.515090,0.160805,-0.077955,0.000000,-0.098750,-0.020291,-0.000000
0.600000,-2.477751,-1.514924,-1.451580,0.249034,0.592236,0.052893,0.760475,1.569766,0.097152,0.208834,-1.003897,-0.692636,-4.179399,-12.246128,-4.477689,0.159751,-0.078136,0.000000,-0.111829,-0.015619,-0.000000
0.610000,-2.475223,-1.508923,-1.451047,0.256649,0.607881,0.053830,0.762357,1.559125,0.090000,0.167783,-1.123575,-0.737341,-4.036016,-11.714950,-4.417963,0.158570,-0.078272,0.000000,-0.124333,-0.011102,0.000000
0.620000,-2.472618,-1.502767,-1.450504,0.264280,0.623414,0.054692,0.763836,1.547312,0.082407,0.128152,-1.238049,-0.781148,-3.889721,-11.179122,-4.340447,0.157267,-0.078362,0.000000,-0.136274,-0.006742,-0.000000
0.630000,-2.469937,-1.496455,-1.449953,0.271924,0.638824,0.055476,0.764925,1.534382,0.074380,0.089997,-1.347148,-0.824090,-3.740976,-10.640492,-4.244928,0.155847,-0.078409,0.000000,-0.147635,-0.002546,-0.000000
0.640000,-2.467180,-1.489991,-1.449395,0.279577,0.654098,0.056178,0.765641,1.520387,0.065929,0.053340,-1.450855,-0.865986,-3.590239,-10.100906,-4.131190,0.154316,-0.078414,0.000000,-0.158412,0.001482,-0.000000
0.650000,-2.464346,-1.483374,-1.448830,0.287236,0.669228,0.056794,0.765997,1.505383,0.057065,0.018197,-1.549169,-0.906653,-3.437973,-9.562213,-3.999020,0.152680,-0.078379,0.000000,-0.168601,0.005339,0.000000
0.660000,-2.461435,-1.476607,-1.448259,0.294896,0.684203,0.057318,0.766010,1.489423,0.047798,-0.015391,-1.641963,-0.946110,-3.285284,-9.029944,-3.842998,0.150946,-0.078307,0.000000,-0.178190,0.009021,0.000000
0.670000,-2.458448,-1.469690,-1.447684,0.302555,0.699013,0.057748,0.765695,1.472561,0.038148,-0.047477,-1.729618,-0.983684,-3.131907,-8.501810,-3.668753,0.149118,-0.078197,0.000000,-0.187208,0.012528,-0.000000
0.680000,-2.455384,-1.462627,-1.447104,0.310209,0.713651,0.058080,0.765066,1.454848,0.028131,-0.078028,-1.812018,-1.019426,-2.978222,-7.979209,-3.476707,0.147204,-0.078054,0.000000,-0.195644,0.015856,-0.000000
0.690000,-2.452244,-1.455418,-1.446522,0.317855,0.728108,0.058310,0.764139,1.436338,0.017766,-0.107042,-1.889225,-1.053160,-2.824611,-7.463537,-3.267283,0.145207,-0.077877,0.000000,-0.203503,0.019005,-0.000000
0.700000,-2.449027,-1.448065,-1.445939,0.325491,0.742375,0.058434,0.762930,1.417081,0.007075,-0.134522,-1.961316,-1.084715,-2.671455,-6.956190,-3.040905,0.143136,-0.077670,0.000000,-0.210791,0.021973,0.000000
0.710000,-2.445734,-1.440571,-1.445354,0.333113,0.756447,0.058450,0.761454,1.397130,-0.003922,-0.160445,-2.028217,-1.114103,-2.519867,-6.462704,-2.793456,0.140994,-0.077434,0.000000,-0.217504,0.024758,0.000000
0.720000,-2.442365,-1.432937,-1.444770,0.340719,0.770316,0.058355,0.759726,1.376533,-0.015199,-0.184890,-2.090421,-1.140735,-2.369407,-5.979829,-2.530454,0.138787,-0.077171,0.000000,-0.223683,0.027365,0.000000
0.730000,-2.438920,-1.425166,-1.444187,0.348307,0.783976,0.058145,0.757761,1.355338,-0.026728,-0.207837,-2.147852,-1.164664,-2.220367,-5.508455,-2.252878,0.136522,-0.076882,0.000000,-0.229324,0.029791,-0.000000
0.740000,-2.435399,-1.417258,-1.443607,0.355873,0.797421,0.057820,0.755574,1.333591,-0.038482,-0.229303,-2.200631,-1.185747,-2.073037,-5.049470,-1.961706,0.134203,-0.076570,0.000000,-0.234441,0.032039,0.000000
0.750000,-2.431802,-1.409218,-1.443031,0.363417,0.810646,0.057375,0.753180,1.311340,-0.050433,-0.249305,-2.248886,-1.203856,-1.927710,-4.603764,-1.657918,0.131835,-0.076236,0.000000,-0.239047,0.034110,-0.000000
0.760000,-2.428130,-1.401046,-1.442460,0.370936,0.823646,0.056810,0.750593,1.288630,-0.062551,-0.267832,-2.292590,-1.218988,-1.785494,-4.176364,-1.339422,0.129423,-0.075882,0.000000,-0.243142,0.036003,0.000000
0.770000,-2.424384,-1.392746,-1.441896,0.378429,0.836417,0.056124,0.747828,1.265502,-0.074802,-0.284987,-2.332277,-1.230747,-1.645763,-3.763515,-1.010644,0.126973,-0.075510,0.000000,-0.246779,0.037727,0.000000
0.780000,-2.420562,-1.384319,-1.441338,0.385892,0.848955,0.055314,0.744898,1.241998,-0.087154,-0.300757,-2.367910,-1.239172,-1.508709,-3.365600,-0.672937,0.124489,-0.075122,0.000000,-0.249958,0.039281,-0.000000
0.790000,-2.416666,-1.375767,-1.440790,0.393326,0.861256,0.054380,0.741818,1.218157,-0.099574,-0.315170,-2.399640,-1.244180,-1.374522,-2.983002,-0.327656,0.121976,-0.074719,0.000000,-0.252696,0.040669,-0.000000
0.800000,-2.412696,-1.367094,-1.440251,0.400728,0.873317,0.053322,0.738599,1.194018,-0.112026,-0.328257,-2.427622,-1.245704,-1.243396,-2.616104,0.023843,0.119437,-0.074303,0.000000,-0.255012,0.041895,-0.000000
0.810000,-2.408651,-1.358302,-1.439724,0.408098,0.885135,0.052140,0.735257,1.169618,-0.124477,-0.340016,-2.451873,-1.243735,-1.116346,-2.268902,0.381419,0.116877,-0.073876,0.000000,-0.256913,0.042960,-0.000000
0.820000,-2.404534,-1.349392,-1.439209,0.415433,0.896708,0.050833,0.731803,1.144992,-0.136889,-0.350558,-2.472892,-1.238119,-0.992637,-1.937723,0.742356,0.114300,-0.073439,0.000000,-0.258450,0.043873,0.000000
0.830000,-2.400343,-1.340368,-1.438707,0.422733,0.908034,0.049402,0.728250,1.120171,-0.149227,-0.359881,-2.490680,-1.228882,-0.872359,-1.622507,1.105151,0.111709,-0.072993,0.000000,-0.259628,0.044638,-0.000000
0.840000,-2.396079,-1.331233,-1.438221,0.429998,0.919111,0.047849,0.724610,1.095188,-0.161455,-0.368017,-2.505396,-1.216014,-0.755604,-1.323195,1.468300,0.109108,-0.072541,0.000000,-0.260467,0.045258,0.000000
0.850000,-2.391743,-1.321987,-1.437751,0.437225,0.929938,0.046174,0.720893,1.070073,-0.173535,-0.375005,-2.517197,-1.199520,-0.642460,-1.039726,1.830299,0.106501,-0.072083,0.000000,-0.260987,0.045738,-0.000000
0.860000,-2.387335,-1.312635,-1.437298,0.444415,0.940512,0.044379,0.717113,1.044855,-0.185433,-0.380850,-2.526138,-1.179392,-0.533740,-0.774692,2.189017,0.103890,-0.071621,0.000000,-0.261198,0.046079,0.000000
0.870000,-2.382855,-1.303178,-1.436864,0.451567,0.950835,0.042466,0.713280,1.019559,-0.197111,-0.385660,-2.532624,-1.155725,-0.428724,-0.525057,2.543656,0.101278,-0.071157,0.000000,-0.261145,0.046296,0.000000
0.880000,-2.378304,-1.293619,-1.436449,0.458681,0.960903,0.040437,0.709404,0.994210,-0.208535,-0.389437,-2.536689,-1.128537,-0.327415,-0.290438,2.892790,0.098668,-0.070691,0.000000,-0.260835,0.046388,-0.000000
0.890000,-2.373681,-1.283960,-1.436055,0.465755,0.970719,0.038296,0.705495,0.968833,-0.219670,-0.392220,-2.538481,-1.097892,-0.229814,-0.070450,3.234994,0.096062,-0.070225,0.000000,-0.260289,0.046361,0.000000
0.900000,-2.368989,-1.274205,-1.435684,0.472791,0.980280,0.036045,0.701562,0.943448,-0.230482,-0.394046,-2.538145,-1.063865,-0.135923,0.135290,3.568842,0.093463,-0.069760,0.000000,-0.259524,0.046220,0.000000
0.910000,-2.364226,-1.264356,-1.435335,0.479787,0.989588,0.033688,0.697617,0.918077,-0.240936,-0.394931,-2.535765,-1.026463,-0.046258,0.325723,3.890756,0.090872,-0.069297,0.000000,-0.258553,0.045969,0.000000
0.920000,-2.359393,-1.254414,-1.435010,0.486743,0.998642,0.031228,0.693667,0.892738,-0.251001,-0.394960,-2.531611,-0.985991,0.039756,0.502854,4.201724,0.088292,-0.068837,0.000000,-0.257409,0.045617,0.000000
0.930000,-2.354491,-1.244384,-1.434711,0.493660,1.007443,0.028669,0.689721,0.867450,-0.260646,-0.394148,-2.525750,-0.942469,0.122179,0.667244,4.500584,0.085725,-0.068381,0.000000,-0.256101,0.045169,0.000000
0.940000,-2.349520,-1.234266,-1.434437,0.500537,1.015991,0.026016,0.685787,0.842229,-0.269840,-0.392529,-2.518307,-0.896023,0.201071,0.819455,4.786173,0.083171,-0.067931,0.000000,-0.254646,0.044628,0.000000
0.950000,-2.344480,-1.224065,-1.434191,0.507376,1.024287,0.023274,0.681873,0.817089,-0.278557,-0.390138,-2.509400,-0.846793,0.276494,0.960048,5.057328,0.080632,-0.067486,0.000000,-0.253060,0.043999,0.000000
0.960000,-2.339373,-1.213781,-1.433972,0.514175,1.032333,0.020447,0.677986,0.792045,-0.286766,-0.387000,-2.499133,-0.794803,0.348260,1.089337,5.309714,0.078110,-0.067048,0.000000,-0.251355,0.043287,0.000000
0.970000,-2.334197,-1.203419,-1.433782,0.520936,1.040129,0.017540,0.674135,0.767111,-0.294445,-0.383173,-2.487637,-0.740512,0.416709,1.208160,5.545729,0.075605,-0.066618,0.000000,-0.249550,0.042499,0.000000
0.980000,-2.328954,-1.192980,-1.433621,0.527658,1.047676,0.014560,0.670325,0.742296,-0.301569,-0.378677,-2.475002,-0.683946,0.481931,1.317109,5.764598,0.073119,-0.066196,0.000000,-0.247656,0.041639,0.000000
0.990000,-2.323644,-1.182466,-1.433491,0.534342,1.054975,0.011511,0.666563,0.717614,-0.308117,-0.373544,-2.461325,-0.625280,0.544017,1.416775,5.965547,0.070652,-0.065783,0.000000,-0.245686,0.040711,-0.000000
1.000000,-2.318267,-1.171881,-1.433391,0.540989,1.062028,0.008399,0.662856,0.693073,-0.314068,-0.367807,-2.446696,-0.564697,0.603058,1.507748,6.147800,0.068206,-0.065380,0.000000,-0.243650,0.039719,-0.000000
1.010000,-2.312824,-1.161226,-1.433323,0.547599,1.068837,0.005231,0.659209,0.668683,-0.319403,-0.361494,-2.431226,-0.502244,0.659157,1.591336,6.306939,0.065780,-0.064987,0.000000,-0.241562,0.038666,-0.000000
1.020000,-2.307315,-1.150505,-1.433287,0.554174,1.075403,0.002013,0.655628,0.644451,-0.324108,-0.354634,-2.414926,-0.438462,0.712391,1.667327,6.446280,0.063375,-0.064605,0.000000,-0.239427,0.037560,-0.000000
1.030000,-2.301741,-1.139719,-1.433283,0.560712,1.081727,-0.001249,0.652118,0.620387,-0.328168,-0.347255,-2.397903,-0.373386,0.762851,1.736225,6.565494,0.060991,-0.064235,0.000000,-0.237256,0.036403,-0.000000
1.040000,-2.296101,-1.128871,-1.433312,0.567216,1.087811,-0.004548,0.648685,0.596495,-0.331572,-0.339385,-2.380224,-0.307220,0.810625,1.798533,6.664255,0.058630,-0.063876,0.000000,-0.235057,0.035198,-0.000000
1.050000,-2.290397,-1.117964,-1.433374,0.573686,1.093657,-0.007878,0.645332,0.572784,-0.334310,-0.331051,-2.361953,-0.240170,0.855804,1.854755,6.742232,0.056290,-0.063530,0.000000,-0.232838,0.033949,-0.000000
1.060000,-2.284628,-1.106999,-1.433470,0.580123,1.099267,-0.011232,0.642065,0.549258,-0.336372,-0.322286,-2.343198,-0.172302,0.898684,1.906678,6.795479,0.053973,-0.063196,0.000000,-0.230611,0.032660,-0.000000
1.070000,-2.278794,-1.095979,-1.433599,0.586528,1.104643,-0.014603,0.638888,0.525922,-0.337754,-0.313095,-2.323894,-0.104169,0.939122,1.953366,6.827730,0.051678,-0.062876,0.000000,-0.228371,0.031334,-0.000000
1.080000,-2.272897,-1.084907,-1.433762,0.592901,1.109786,-0.017985,0.635804,0.502781,-0.338454,-0.303511,-2.304147,-0.035817,0.977182,1.995165,6.839100,0.049405,-0.062569,0.000000,-0.226129,0.029974,0.000000
1.090000,-2.266936,-1.073784,-1.433958,0.599244,1.114699,-0.021370,0.632819,0.479840,-0.338471,-0.293559,-2.284006,0.032544,1.012928,2.032422,6.829704,0.047155,-0.062275,0.000000,-0.223889,0.028583,-0.000000
1.100000,-2.260912,-1.062614,-1.434189,0.605558,1.119384,-0.024752,0.629934,0.457102,-0.337804,-0.283260,-2.263513,0.100708,1.046423,2.065485,6.799658,0.044928,-0.061996,0.000000,-0.221656,0.027165,-0.000000
1.110000,-2.254825,-1.051397,-1.434453,0.611843,1.123842,-0.028124,0.627155,0.434570,-0.336456,-0.272649,-2.242767,0.168595,1.078019,2.096166,6.745876,0.042722,-0.061732,0.000000,-0.219439,0.025722,-0.000000
1.120000,-2.248676,-1.040138,-1.434751,0.618101,1.128076,-0.031479,0.624483,0.412248,-0.334434,-0.261720,-2.221667,0.235701,1.107457,2.123166,6.672066,0.040539,-0.061482,0.000000,-0.217229,0.024257,0.000000
1.130000,-2.242463,-1.028837,-1.435083,0.624333,1.132088,-0.034810,0.621921,0.390138,-0.331745,-0.250507,-2.200315,0.301971,1.134767,2.146651,6.578732,0.038378,-0.061246,0.000000,-0.215036,0.022772,0.000000
1.140000,-2.236189,-1.017497,-1.435448,0.630540,1.135879,-0.038111,0.619473,0.368242,-0.328398,-0.239032,-2.178745,0.367213,1.159978,2.166790,6.466382,0.036238,-0.061026,0.000000,-0.212860,0.021270,-0.000000
1.150000,-2.229853,-1.006120,-1.435845,0.636723,1.139453,-0.041376,0.617141,0.346563,-0.324405,-0.227314,-2.156990,0.431237,1.183119,2.183748,6.335523,0.034120,-0.060821,0.000000,-0.210706,0.019754,-0.000000
1.160000,-2.223455,-0.994708,-1.436275,0.642883,1.142811,-0.044597,0.614928,0.325103,-0.319777,-0.215389,-2.135122,0.493962,1.204535,2.198747,6.184169,0.032024,-0.060631,0.000000,-0.208578,0.018226,0.000000
1.170000,-2.216995,-0.983264,-1.436737,0.649022,1.145956,-0.047769,0.612834,0.303861,-0.314531,-0.203245,-2.113072,0.554975,1.223900,2.210771,6.015625,0.029949,-0.060456,0.000000,-0.206469,0.016688,0.000000
1.180000,-2.210474,-0.971790,-1.437230,0.655141,1.148889,-0.050886,0.610863,0.282841,-0.308684,-0.190917,-2.090916,0.614220,1.241205,2.219859,5.830700,0.027894,-0.060297,0.000000,-0.204385,0.015142,-0.000000
1.190000,-2.203892,-0.960287,-1.437754,0.661240,1.151614,-0.053941,0.609016,0.262043,-0.302253,-0.178427,-2.068684,0.671537,1.256441,2.226047,5.630207,0.025861,-0.060153,0.000000,-0.202328,0.013591,-0.000000
1.200000,-2.197250,-0.948758,-1.438309,0.667321,1.154131,-0.056929,0.607295,0.241468,-0.295260,-0.165796,-2.046405,0.726774,1.269597,2.229375,5.414957,0.023848,-0.060025,0.000000,-0.200298,0.012038,0.000000
1.210000,-2.190546,-0.937205,-1.438893,0.673386,1.156444,-0.059845,0.605701,0.221115,-0.287724,-0.153049,-2.024134,0.779854,1.280826,2.230579,5.184135,0.021855,-0.059912,0.000000,-0.198298,0.010484,-0.000000
1.220000,-2.183782,-0.925630,-1.439505,0.679436,1.158554,-0.062682,0.604235,0.200985,-0.279671,-0.140193,-2.001834,0.830487,1.289936,2.228914,4.940379,0.019882,-0.059815,0.000000,-0.196325,0.008932,0.000000
1.230000,-2.176957,-0.914035,-1.440146,0.685471,1.160464,-0.065436,0.602897,0.181078,-0.271123,-0.127257,-1.979565,0.878622,1.296899,2.224330,4.684699,0.017928,-0.059733,0.000000,-0.194380,0.007383,-0.000000
1.240000,-2.170072,-0.902421,-1.440814,0.691494,1.162176,-0.068103,0.601690,0.161394,-0.262107,-0.114263,-1.957357,0.924144,1.301686,2.216781,4.418106,0.015994,-0.059667,0.000000,-0.192466,0.005842,0.000000
1.250000,-2.163127,-0.890792,-1.441508,0.697506,1.163693,-0.070677,0.600612,0.141931,-0.252649,-0.101231,-1.935240,0.966951,1.304266,2.206219,4.141611,0.014079,-0.059617,0.000000,-0.190583,0.004309,-0.000000
1.260000,-2.156122,-0.879148,-1.442227,0.703507,1.165016,-0.073154,0.599665,0.122688,-0.242777,-0.088185,-1.913248,1.006974,1.304610,2.192711,3.855536,0.012182,-0.059581,0.000000,-0.188732,0.002787,-0.000000
1.270000,-2.149057,-0.867492,-1.442971,0.709499,1.166147,-0.075531,0.598848,0.103665,-0.232519,-0.075146,-1.891401,1.044066,1.302690,2.176082,3.561664,0.010304,-0.059561,0.000000,-0.186913,0.001279,-0.000000
1.280000,-2.141932,-0.855826,-1.443737,0.715484,1.167090,-0.077804,0.598162,0.084860,-0.221905,-0.062139,-1.869737,1.078185,1.298476,2.156268,3.261091,0.008444,-0.059555,0.000000,-0.185128,-0.000213,0.000000
1.290000,-2.134748,-0.844151,-1.444526,0.721463,1.167845,-0.079968,0.597605,0.066270,-0.210966,-0.049185,-1.848287,1.109269,1.291938,2.133209,2.954910,0.006601,-0.059565,0.000000,-0.183377,-0.001687,-0.000000
1.300000,-2.127503,-0.832470,-1.445336,0.727437,1.168416,-0.082022,0.597178,0.047893,-0.199730,-0.036308,-1.827084,1.137268,1.283048,2.106843,2.644218,0.004776,-0.059589,0.000000,-0.181661,-0.003140,0.000000
1.310000,-2.120199,-0.820783,-1.446166,0.733407,1.168804,-0.083962,0.596879,0.029728,-0.188231,-0.023527,-1.806137,1.162133,1.271662,2.076500,2.330346,0.002968,-0.059628,0.000000,-0.179979,-0.004570,0.000000
1.320000,-2.112835,-0.809094,-1.447015,0.739375,1.169011,-0.085786,0.596707,0.011769,-0.176498,-0.010877,-1.785538,1.183857,1.257878,2.042800,2.014122,0.001176,-0.059680,0.000000,-0.178338,-0.005973,-0.000000
1.330000,-2.105411,-0.797404,-1.447882,0.745341,1.169040,-0.087491,0.596661,-0.005984,-0.164564,0.001623,-1.765292,1.202411,1.241682,2.005757,1.696613,-0.000599,-0.059747,0.000000,-0.176735,-0.007347,0.000000
1.340000,-2.097928,-0.785714,-1.448765,0.751308,1.168892,-0.089077,0.596739,-0.023538,-0.152461,0.013948,-1.745434,1.217788,1.223057,1.965383,1.378885,-0.002358,-0.059827,0.000000,-0.175174,-0.008691,0.000000
1.350000,-2.090385,-0.774026,-1.449663,0.757277,1.168570,-0.090540,0.596939,-0.040894,-0.140219,0.026076,-1.725996,1.229991,1.201988,1.921691,1.062003,-0.004103,-0.059921,0.000000,-0.173654,-0.010000,0.000000
1.360000,-2.082783,-0.762343,-1.450575,0.763248,1.168075,-0.091881,0.597260,-0.058059,-0.127872,0.037992,-1.706979,1.238993,1.178157,1.873877,0.748084,-0.005832,-0.060027,0.000000,-0.172173,-0.011275,0.000000
1.370000,-2.075120,-0.750666,-1.451500,0.769222,1.167409,-0.093097,0.597698,-0.075036,-0.115450,0.049644,-1.688492,1.244916,1.151888,1.822871,0.437014,-0.007546,-0.060146,0.000000,-0.170741,-0.012509,0.000000
1.380000,-2.067398,-0.738996,-1.452437,0.775202,1.166575,-0.094189,0.598252,-0.091830,-0.102984,0.061022,-1.670531,1.247746,1.123203,1.768784,0.129730,-0.009247,-0.060277,0.000000,-0.169355,-0.013702,0.000000
1.390000,-2.059616,-0.727335,-1.453383,0.781188,1.165573,-0.095157,0.598918,-0.108448,-0.090505,0.072100,-1.653126,1.247526,1.092123,1.711730,-0.172830,-0.010933,-0.060420,0.000000,-0.168017,-0.014850,0.000000
1.400000,-2.051774,-0.715685,-1.454339,0.787181,1.164406,-0.096000,0.599693,-0.124895,-0.078043,0.082856,-1.636306,1.244308,1.058672,1.651820,-0.469729,-0.012607,-0.060574,0.000000,-0.166728,-0.015951,0.000000
1.410000,-2.043873,-0.704047,-1.455303,0.793182,1.163076,-0.096718,0.600574,-0.141176,-0.065629,0.093284,-1.620062,1.238086,1.022420,1.588224,-0.758337,-0.014268,-0.060739,0.000000,-0.165484,-0.017005,0.000000
1.420000,-2.035911,-0.692424,-1.456273,0.799192,1.161583,-0.097312,0.601557,-0.157298,-0.053291,0.103317,-1.604508,1.229090,0.983895,1.522114,-1.039618,-0.015917,-0.060914,0.000000,-0.164298,-0.018006,0.000000
1.430000,-2.027889,-0.680816,-1.457249,0.805213,1.159930,-0.097784,0.602639,-0.173268,-0.041057,0.112954,-1.589627,1.217321,0.943172,1.453718,-1.312841,-0.017554,-0.061099,0.000000,-0.163164,-0.018952,-0.000000
1.440000,-2.019806,-0.669226,-1.458228,0.811246,1.158118,-0.098134,0.603815,-0.189093,-0.028954,0.122173,-1.575441,1.202863,0.900329,1.383264,-1.577278,-0.019180,-0.061293,0.000000,-0.162084,-0.019842,-0.000000
1.450000,-2.011664,-0.657654,-1.459211,0.817290,1.156149,-0.098364,0.605081,-0.204780,-0.017008,0.130954,-1.561968,1.185807,0.855442,1.310981,-1.832198,-0.020796,-0.061496,0.000000,-0.161060,-0.020673,0.000000
1.460000,-2.003461,-0.646103,-1.460195,0.823347,1.154023,-0.098475,0.606432,-0.220335,-0.005247,0.139280,-1.549194,1.166169,0.808466,1.236286,-2.074750,-0.022402,-0.061706,0.000000,-0.160087,-0.021444,-0.000000
1.470000,-1.995197,-0.634574,-1.461180,0.829419,1.151743,-0.098469,0.607865,-0.235766,0.006307,0.147122,-1.537210,1.144253,0.759615,1.160317,-2.306585,-0.023998,-0.061924,0.000000,-0.159175,-0.022152,0.000000
1.480000,-1.986872,-0.623069,-1.462164,0.835505,1.149308,-0.098349,0.609373,-0.251081,0.017631,0.154467,-1.525991,1.120075,0.708980,1.083402,-2.527234,-0.025585,-0.062149,0.000000,-0.158321,-0.022796,-0.000000
1.490000,-1.978487,-0.611588,-1.463147,0.841607,1.146721,-0.098117,0.610953,-0.266288,0.028702,0.161296,-1.515544,1.093747,0.656653,1.005869,-2.736227,-0.027165,-0.062380,0.000000,-0.157524,-0.023375,0.000000
1.500000,-1.970040,-0.600135,-1.464126,0.847724,1.143983,-0.097776,0.612597,-0.281395,0.039499,0.167595,-1.505875,1.065390,0.602726,0.928045,-2.933093,-0.028736,-0.062617,0.000000,-0.156784,-0.023886,0.000000
1.510000,-1.961532,-0.588709,-1.465102,0.853859,1.141094,-0.097328,0.614303,-0.296408,0.050002,0.173354,-1.496965,1.035038,0.547070,0.849797,-3.115091,-0.030300,-0.062858,0.000000,-0.156099,-0.024329,-0.000000
1.520000,-1.952963,-0.577313,-1.466073,0.860010,1.138055,-0.096777,0.616063,-0.311337,0.060194,0.178541,-1.488857,1.003030,0.490024,0.771969,-3.284301,-0.031858,-0.063103,0.000000,-0.155473,-0.024702,0.000000
1.530000,-1.944332,-0.565949,-1.467037,0.866180,1.134867,-0.096126,0.617872,-0.326188,0.070057,0.183151,-1.481523,0.969395,0.431706,0.694946,-3.440531,-0.033410,-0.063352,0.000000,-0.154903,-0.025003,0.000000
1.540000,-1.935639,-0.554617,-1.467995,0.872368,1.131531,-0.095377,0.619724,-0.340970,0.079577,0.187171,-1.474954,0.934263,0.372234,0.619111,-3.583588,-0.034957,-0.063603,0.000000,-0.154388,-0.025233,-0.000000
1.550000,-1.926884,-0.543319,-1.468944,0.878575,1.128048,-0.094535,0.621613,-0.355689,0.088738,0.190592,-1.469136,0.897768,0.311726,0.544848,-3.713281,-0.036498,-0.063857,0.000000,-0.153926,-0.025390,0.000000
1.560000,-1.918068,-0.532056,-1.469885,0.884800,1.124418,-0.093604,0.623534,-0.370355,0.097527,0.193421,-1.464050,0.859957,0.249849,0.472543,-3.827264,-0.038035,-0.064111,0.000000,-0.153514,-0.025475,0.000000
1.570000,-1.909188,-0.520831,-1.470816,0.891045,1.120641,-0.092586,0.625479,-0.384973,0.105934,0.195607,-1.459677,0.821171,0.187229,0.402578,-3.927763,-0.039568,-0.064366,0.000000,-0.153153,-0.025486,-0.000000
1.580000,-1.900247,-0.509644,-1.471737,0.897310,1.116718,-0.091486,0.627444,-0.399551,0.113947,0.197163,-1.455990,0.781447,0.124040,0.335337,-4.014850,-0.041098,-0.064621,0.000000,-0.152838,-0.025422,0.000000
1.590000,-1.891242,-0.498497,-1.472646,0.903594,1.112650,-0.090308,0.629420,-0.414095,0.121560,0.198086,-1.452960,0.740919,0.060454,0.271201,-4.088596,-0.042625,-0.064875,0.000000,-0.152567,-0.025284,-0.000000
1.600000,-1.882175,-0.487391,-1.473542,0.909898,1.108437,-0.089056,0.631403,-0.428612,0.128764,0.198372,-1.450554,0.699719,-0.003353,0.210557,-4.149074,-0.044150,-0.065127,0.000000,-0.152337,-0.025073,-0.000000
1.610000,-1.873044,-0.476329,-1.474427,0.916222,1.104078,-0.087734,0.633386,-0.443108,0.135552,0.198012,-1.448751,0.657908,-0.067041,0.154156,-4.194521,-0.045672,-0.065377,0.000000,-0.152146,-0.024788,-0.000000
1.620000,-1.863850,-0.465310,-1.475297,0.922566,1.099575,-0.086347,0.635361,-0.457589,0.141921,0.197024,-1.447474,0.615790,-0.130624,0.101968,-4.227067,-0.047193,-0.065623,0.000000,-0.151988,-0.024432,0.000000
1.630000,-1.854593,-0.454338,-1.476153,0.928930,1.094926,-0.084897,0.637324,-0.472059,0.147867,0.195401,-1.446696,0.573409,-0.193949,0.054330,-4.247010,-0.048712,-0.065866,0.000000,-0.151859,-0.024005,0.000000
1.640000,-1.845271,-0.443412,-1.476995,0.935313,1.090133,-0.083391,0.639267,-0.486524,0.153388,0.193146,-1.446371,0.530891,-0.256863,0.011581,-4.254645,-0.050230,-0.066104,0.000000,-0.151755,-0.023508,0.000000
1.650000,-1.835886,-0.432535,-1.477821,0.941715,1.085196,-0.081831,0.641185,-0.500988,0.158484,0.190265,-1.446447,0.488356,-0.319212,-0.025943,-4.250268,-0.051747,-0.066336,0.000000,-0.151672,-0.022943,0.000000
1.660000,-1.826437,-0.421709,-1.478631,0.948136,1.080114,-0.080223,0.643070,-0.515455,0.163155,0.186753,-1.446909,0.445871,-0.380565,-0.056944,-4.232839,-0.053264,-0.066563,0.000000,-0.151609,-0.022309,0.000000
1.670000,-1.816924,-0.410934,-1.479425,0.954576,1.074887,-0.078569,0.644918,-0.529927,0.167403,0.182644,-1.447609,0.403677,-0.441081,-0.082160,-4.204155,-0.054780,-0.066783,0.000000,-0.151552,-0.021612,0.000000
1.680000,-1.807346,-0.400211,-1.480202,0.961034,1.069515,-0.076876,0.646721,-0.544408,0.171230,0.177935,-1.448532,0.361824,-0.500641,-0.101369,-4.164677,-0.056295,-0.066995,0.000000,-0.151500,-0.020852,-0.000000
1.690000,-1.797703,-0.389544,-1.480963,0.967510,1.063999,-0.075146,0.648475,-0.558898,0.174641,0.172635,-1.449616,0.320418,-0.559128,-0.114351,-4.114864,-0.057810,-0.067200,0.000000,-0.151447,-0.020030,-0.000000
1.700000,-1.787995,-0.378932,-1.481705,0.974004,1.058337,-0.073384,0.650172,-0.573400,0.177640,0.166756,-1.450798,0.279560,-0.616421,-0.120885,-4.055178,-0.059324,-0.067397,0.000000,-0.151388,-0.019150,-0.000000
1.710000,-1.778223,-0.368378,-1.482430,0.980514,1.052531,-0.071595,0.651808,-0.587915,0.180234,0.160304,-1.452052,0.239316,-0.672229,-0.119721,-3.985326,-0.060837,-0.067584,0.000000,-0.151321,-0.018212,0.000000
1.720000,-1.768385,-0.357882,-1.483137,0.987040,1.046579,-0.069781,0.653376,-0.602441,0.182429,0.153309,-1.453215,0.199849,-0.726628,-0.111793,-3.906612,-0.062350,-0.067761,0.000000,-0.151230,-0.017220,-0.000000
1.730000,-1.758482,-0.347446,-1.483826,0.993581,1.040482,-0.067947,0.654872,-0.616979,0.184233,0.145777,-1.454265,0.161212,-0.779519,-0.097005,-3.819590,-0.063862,-0.067929,0.000000,-0.151115,-0.016176,0.000000
1.740000,-1.748513,-0.337073,-1.484496,1.000137,1.034239,-0.066098,0.656290,-0.631526,0.185656,0.137724,-1.455132,0.123483,-0.830803,-0.075263,-3.724811,-0.065372,-0.068085,0.000000,-0.150968,-0.015082,0.000000
1.750000,-1.738479,-0.326762,-1.485148,1.006706,1.027851,-0.064236,0.657625,-0.646080,0.186706,0.129166,-1.455747,0.086739,-0.880384,-0.046470,-3.622829,-0.066881,-0.068231,0.000000,-0.150785,-0.013942,-0.000000
1.760000,-1.728379,-0.316516,-1.485781,1.013289,1.021318,-0.062365,0.658872,-0.660640,0.187394,0.120109,-1.456079,0.051042,-0.927831,-0.009498,-3.514018,-0.068388,-0.068365,0.000000,-0.150562,-0.012755,0.000000
1.770000,-1.718213,-0.306336,-1.486395,1.019884,1.014638,-0.060489,0.660026,-0.675201,0.187731,0.110601,-1.455959,0.016471,-0.973419,0.034587,-3.399130,-0.069892,-0.068486,0.000000,-0.150285,-0.011529,-0.000000
1.780000,-1.707981,-0.296224,-1.486990,1.026489,1.007814,-0.058611,0.661082,-0.689758,0.187728,0.100647,-1.455363,-0.016922,-1.017092,0.085754,-3.278739,-0.071393,-0.068596,0.000000,-0.149951,-0.010264,0.000000
1.790000,-1.697683,-0.286180,-1.487567,1.033105,1.000843,-0.056735,0.662037,-0.704306,0.187397,0.090266,-1.454221,-0.049087,-1.058791,0.143972,-3.153417,-0.072891,-0.068692,0.000000,-0.149554,-0.008963,0.000000
1.800000,-1.687319,-0.276208,-1.488125,1.039730,0.993727,-0.054864,0.662886,-0.718840,0.186750,0.079478,-1.452461,-0.079976,-1.098460,0.209208,-3.023740,-0.074384,-0.068775,0.000000,-0.149089,-0.007629,0.000000
1.810000,-1.676889,-0.266306,-1.488664,1.046362,0.986466,-0.053001,0.663625,-0.733354,0.185802,0.068289,-1.450062,-0.109536,-1.135682,0.282654,-2.890604,-0.075872,-0.068845,0.000000,-0.148555,-0.006263,0.000000
1.820000,-1.666392,-0.256479,-1.489185,1.053002,0.979060,-0.051149,0.664251,-0.747839,0.184564,0.056755,-1.446839,-0.137763,-1.170803,0.362906,-2.754220,-0.077355,-0.068901,0.000000,-0.147933,-0.004871,-0.000000
1.830000,-1.655829,-0.246726,-1.489688,1.059647,0.971510,-0.049311,0.664759,-0.762288,0.183051,0.044880,-1.442781,-0.164612,-1.203812,0.449783,-2.615123,-0.078831,-0.068942,0.000000,-0.147225,-0.003454,-0.000000
1.840000,-1.645199,-0.237049,-1.490171,1.066297,0.963815,-0.047489,0.665147,-0.776691,0.181276,0.032686,-1.437822,-0.190058,-1.234693,0.543105,-2.473848,-0.080299,-0.068970,0.000000,-0.146423,-0.002015,-0.000000
1.850000,-1.634503,-0.227450,-1.490637,1.072949,0.955976,-0.045686,0.665412,-0.791041,0.179254,0.020193,-1.431898,-0.214083,-1.263436,0.642689,-2.330929,-0.081759,-0.068983,0.000000,-0.145525,-0.000556,-0.000000
1.860000,-1.623740,-0.217930,-1.491085,1.079604,0.947994,-0.043905,0.665550,-0.805326,0.177000,0.007412,-1.424984,-0.236645,-1.289706,0.749257,-2.187601,-0.083209,-0.068981,0.000000,-0.144527,0.000920,0.000000
1.870000,-1.612911,-0.208490,-1.491516,1.086260,0.939870,-0.042147,0.665559,-0.819537,0.174526,-0.005608,-1.416934,-0.257802,-1.313849,0.861616,-2.043611,-0.084649,-0.068964,0.000000,-0.143416,0.002410,-0.000000
1.880000,-1.602015,-0.199133,-1.491928,1.092915,0.931604,-0.040415,0.665437,-0.833661,0.171849,-0.018858,-1.407733,-0.277517,-1.335893,0.979474,-1.899410,-0.086077,-0.068933,0.000000,-0.142192,0.003911,0.000000
1.890000,-1.591052,-0.189859,-1.492324,1.099568,0.923197,-0.038711,0.665181,-0.847688,0.168981,-0.032319,-1.397327,-0.295791,-1.355862,1.102538,-1.755446,-0.087493,-0.068886,0.000000,-0.140850,0.005422,-0.000000
1.900000,-1.580023,-0.180669,-1.492703,1.106218,0.914650,-0.037036,0.664790,-0.861604,0.165938,-0.045969,-1.385666,-0.312628,-1.373784,1.230517,-1.612167,-0.088894,-0.068824,0.000000,-0.139387,0.006940,-0.000000
1.910000,-1.568928,-0.171566,-1.493065,1.112864,0.905965,-0.035393,0.664261,-0.875397,0.162733,-0.059798,-1.372726,-0.328001,-1.389435,1.363738,-1.470947,-0.090280,-0.068746,0.000000,-0.137801,0.008465,0.000000
1.920000,-1.557766,-0.162551,-1.493411,1.119503,0.897143,-0.033782,0.663594,-0.889054,0.159382,-0.073762,-1.358405,-0.342011,-1.403120,1.501216,-1.331197,-0.091650,-0.068654,0.000000,-0.136084,0.009991,0.000000
1.930000,-1.546538,-0.153624,-1.493741,1.126135,0.888185,-0.032205,0.662786,-0.902560,0.155898,-0.087854,-1.342689,-0.354631,-1.414898,1.642582,-1.193252,-0.093001,-0.068546,0.000000,-0.134233,0.011518,0.000000
1.940000,-1.535244,-0.144787,-1.494055,1.132758,0.879092,-0.030664,0.661836,-0.915903,0.152294,-0.102054,-1.325541,-0.365883,-1.424825,1.787470,-1.057449,-0.094334,-0.068422,0.000000,-0.132248,0.013044,0.000000
1.950000,-1.523883,-0.136042,-1.494354,1.139371,0.869867,-0.029160,0.660744,-0.929066,0.148585,-0.116344,-1.306929,-0.375788,-1.432957,1.935512,-0.924121,-0.095646,-0.068284,0.000000,-0.130125,0.014567,0.000000
1.960000,-1.512456,-0.127390,-1.494638,1.145973,0.860512,-0.027693,0.659509,-0.942036,0.144783,-0.130713,-1.286827,-0.384335,-1.439216,2.086483,-0.794605,-0.096936,-0.068130,0.000000,-0.127863,0.016086,-0.000000
1.970000,-1.500964,-0.118833,-1.494908,1.152561,0.851027,-0.026264,0.658130,-0.954798,0.140902,-0.145129,-1.265198,-0.391646,-1.443810,2.239856,-0.668114,-0.098202,-0.067960,0.000000,-0.125458,0.017599,0.000000
1.980000,-1.489405,-0.110370,-1.495164,1.159135,0.841416,-0.024875,0.656606,-0.967335,0.136954,-0.159584,-1.242024,-0.397708,-1.446813,2.395246,-0.544861,-0.099444,-0.067776,0.000000,-0.122910,0.019105,0.000000
1.990000,-1.477781,-0.102005,-1.495406,1.165693,0.831681,-0.023526,0.654938,-0.979633,0.132952,-0.174060,-1.217287,-0.402555,-1.448300,2.552269,-0.425060,-0.100660,-0.067576,0.000000,-0.120218,0.020603,-0.000000
2.000000,-1.466091,-0.093737,-1.495634,1.172233,0.821825,-0.022216,0.653125,-0.991676,0.128907,-0.188545,-1.190974,-0.406222,-1.448343,2.710541,-0.308925,-0.101848,-0.067362,0.000000,-0.117380,0.022090,0.000000
2.010000,-1.454336,-0.085569,-1.495850,1.178755,0.811849,-0.020948,0.651167,-1.003447,0.124832,-0.203023,-1.163061,-0.408709,-1.446998,2.869354,-0.197611,-0.103007,-0.067132,0.000000,-0.114396,0.023567,0.000000
2.020000,-1.442516,-0.077501,-1.496053,1.185256,0.801757,-0.019720,0.649065,-1.014931,0.120737,-0.217481,-1.133571,-0.410145,-1.444358,3.028685,-0.090274,-0.104136,-0.066888,0.000000,-0.111268,0.025032,-0.000000
2.030000,-1.430631,-0.069534,-1.496245,1.191735,0.791551,-0.018533,0.646818,-1.026113,0.116633,-0.231906,-1.102487,-0.410528,-1.440499,3.188189,0.012991,-0.105232,-0.066629,0.000000,-0.107993,0.026484,0.000000
2.040000,-1.418682,-0.061670,-1.496424,1.198192,0.781235,-0.017387,0.644427,-1.036976,0.112530,-0.246287,-1.069808,-0.409899,-1.435498,3.347521,0.112084,-0.106295,-0.066356,0.000000,-0.104574,0.027923,-0.000000
2.050000,-1.406667,-0.053910,-1.496592,1.204624,0.770813,-0.016282,0.641892,-1.047504,0.108438,-0.260613,-1.035538,-0.408300,-1.429430,3.506334,0.206908,-0.107323,-0.066068,0.000000,-0.101010,0.029348,-0.000000
2.060000,-1.394589,-0.046254,-1.496750,1.211029,0.760287,-0.015218,0.639215,-1.057681,0.104367,-0.274871,-0.999670,-0.405744,-1.422398,3.663922,0.296571,-0.108315,-0.065765,0.000000,-0.097301,0.030759,-0.000000
2.070000,-1.382447,-0.038704,-1.496897,1.217407,0.749660,-0.014195,0.636395,-1.067492,0.100326,-0.289056,-0.962247,-0.402348,-1.414447,3.820345,0.381868,-0.109269,-0.065449,0.000000,-0.093452,0.032154,0.000000
2.080000,-1.370241,-0.031261,-1.497034,1.223757,0.738938,-0.013212,0.633434,-1.076921,0.096323,-0.303158,-0.923268,-0.398121,-1.405649,3.975303,0.462797,-0.110183,-0.065118,0.000000,-0.089461,0.033534,-0.000000
2.090000,-1.357972,-0.023926,-1.497161,1.230076,0.728123,-0.012268,0.630332,-1.085952,0.092366,-0.317167,-0.882747,-0.393107,-1.396077,4.128495,0.539360,-0.111057,-0.064774,0.000000,-0.085331,0.034898,0.000000
2.100000,-1.345640,-0.016699,-1.497279,1.236363,0.717220,-0.011364,0.627091,-1.094571,0.088463,-0.331077,-0.840704,-0.387348,-1.385802,4.279621,0.611556,-0.111890,-0.064416,0.000000,-0.081063,0.036246,0.000000
2.110000,-1.333245,-0.009582,-1.497389,1.242617,0.706233,-0.010499,0.623711,-1.102761,0.084622,-0.344857,-0.797158,-0.380867,-1.375490,4.428276,0.678791,-0.112678,-0.064045,0.000000,-0.076660,0.037576,0.000000
2.120000,-1.320787,-0.002575,-1.497489,1.248837,0.695167,-0.009671,0.620194,-1.110509,0.080848,-0.358558,-0.752143,-0.373760,-1.364548,4.574276,0.741731,-0.113422,-0.063660,0.000000,-0.072124,0.038892,-0.000000
2.130000,-1.308268,0.004321,-1.497582,1.255020,0.684025,-0.008881,0.616541,-1.117799,0.077148,-0.372146,-0.705683,-0.366046,-1.352974,4.717331,0.800449,-0.114120,-0.063262,0.000000,-0.067457,0.040193,-0.000000
2.140000,-1.295687,0.011106,-1.497667,1.261167,0.672812,-0.008128,0.612752,-1.124618,0.073529,-0.385615,-0.657807,-0.357765,-1.340769,4.857154,0.855016,-0.114771,-0.062851,0.000000,-0.062662,0.041478,0.000000
2.150000,-1.283045,0.017778,-1.497745,1.267275,0.661534,-0.007411,0.608829,-1.130951,0.069995,-0.398959,-0.608551,-0.348959,-1.327932,4.993456,0.905505,-0.115373,-0.062427,0.000000,-0.057742,0.042746,0.000000
2.160000,-1.270342,0.024336,-1.497816,1.273343,0.650195,-0.006728,0.604773,-1.136785,0.066552,-0.412149,-0.557968,-0.339654,-1.315049,5.126371,0.951617,-0.115925,-0.061990,0.000000,-0.052702,0.043996,0.000000
2.170000,-1.257578,0.030781,-1.497880,1.279370,0.638800,-0.006079,0.600586,-1.142106,0.063203,-0.425232,-0.506057,-0.329923,-1.301461,5.255138,0.993841,-0.116427,-0.061541,0.000000,-0.047541,0.045232,-0.000000
2.180000,-1.244755,0.037112,-1.497937,1.285354,0.627354,-0.005464,0.596269,-1.146902,0.059954,-0.438175,-0.452880,-0.319789,-1.287095,5.379415,1.032296,-0.116876,-0.061079,0.000000,-0.042265,0.046453,0.000000
2.190000,-1.231871,0.043328,-1.497989,1.291295,0.615864,-0.004880,0.591823,-1.151159,0.056809,-0.450971,-0.398484,-0.309290,-1.271880,5.498862,1.067100,-0.117272,-0.060606,0.000000,-0.036877,0.047656,-0.000000
2.200000,-1.218929,0.049429,-1.498035,1.297190,0.604333,-0.004327,0.587250,-1.154867,0.053770,-0.463610,-0.342920,-0.298459,-1.255743,5.613140,1.098371,-0.117613,-0.060120,0.000000,-0.031382,0.048843,-0.000000
2.210000,-1.205928,0.055415,-1.498076,1.303039,0.592768,-0.003804,0.582552,-1.158016,0.050841,-0.476006,-0.286380,-0.287328,-1.240538,5.725437,1.126076,-0.117899,-0.059622,0.000000,-0.025799,0.050004,0.000000
2.220000,-1.192868,0.061284,-1.498111,1.308841,0.581175,-0.003310,0.577730,-1.160591,0.048024,-0.488330,-0.228590,-0.275942,-1.224030,5.831451,1.150503,-0.118129,-0.059113,0.000000,-0.020099,0.051157,0.000000
2.230000,-1.179751,0.067038,-1.498142,1.314594,0.569558,-0.002843,0.572786,-1.162584,0.045323,-0.500481,-0.169774,-0.264328,-1.205912,5.930412,1.171787,-0.118301,-0.058592,0.000000,-0.014304,0.052293,0.000000
2.240000,-1.166577,0.072676,-1.498168,1.320296,0.557925,-0.002403,0.567721,-1.163984,0.042738,-0.512442,-0.110007,-0.252516,-1.185875,6.021546,1.190066,-0.118415,-0.058060,0.000000,-0.008421,0.053410,-0.000000
2.250000,-1.153345,0.078197,-1.498190,1.325948,0.546281,-0.001988,0.562538,-1.164781,0.040273,-0.524192,-0.049372,-0.240536,-1.163611,6.104083,1.205476,-0.118469,-0.057516,0.000000,-0.002456,0.054506,0.000000
2.260000,-1.140058,0.083601,-1.498208,1.331547,0.534630,-0.001597,0.557220,-1.164931,0.037928,-0.537430,0.015531,-0.228422,-1.095268,6.089152,1.218300,-0.118460,-0.056960,0.000000,0.003932,0.055753,-0.000000
2.270000,-1.126714,0.088889,-1.498222,1.337092,0.522983,-0.001229,0.551792,-1.164471,0.035705,-0.548049,0.076346,-0.216185,-1.029413,6.074866,1.228510,-0.118390,-0.056393,0.000000,0.009906,0.056737,-0.000000
2.280000,-1.113316,0.094061,-1.498233,1.342583,0.511343,-0.000883,0.546261,-1.163404,0.033604,-0.558043,0.137064,-0.203860,-0.971071,6.071240,1.236224,-0.118262,-0.055817,0.000000,0.015866,0.057659,0.000000
2.290000,-1.099863,0.099116,-1.498240,1.348017,0.499717,-0.000557,0.540633,-1.161730,0.031628,-0.567512,0.197840,-0.191469,-0.925266,6.088290,1.241561,-0.118073,-0.055232,0.000000,0.021831,0.058530,-0.000000
2.300000,-1.086356,0.104055,-1.498244,1.353395,0.488110,-0.000250,0.534912,-1.159446,0.029775,-0.576607,0.258932,-0.179036,-0.897021,6.136031,1.244640,-0.117825,-0.054639,0.000000,0.027826,0.059364,-0.000000
2.310000,-1.072795,0.108878,-1.498245,1.358713,0.476534,0.000039,0.529171,-1.156688,0.028047,-0.579066,0.307861,-0.166553,-1.054584,6.548667,1.244826,-0.117530,-0.054044,0.000000,0.032599,0.059529,-0.000000
2.320000,-1.059182,0.113586,-1.498243,1.363976,0.464983,0.000312,0.523325,-1.153275,0.026444,-0.590437,0.375469,-0.154112,-1.219769,6.972328,1.243082,-0.117171,-0.053439,0.000000,0.039249,0.060600,0.000000
2.330000,-1.045516,0.118178,-1.498239,1.369179,0.453471,0.000569,0.517357,-1.149165,0.024965,-0.603437,0.447245,-0.141697,-1.377613,7.377333,1.239620,-0.116744,-0.052823,0.000000,0.046319,0.061837,-0.000000
2.340000,-1.031798,0.122656,-1.498232,1.374323,0.442002,0.000811,0.511251,-1.144317,0.023610,-0.617915,0.522855,-0.129325,-1.513154,7.734000,1.234649,-0.116244,-0.052194,0.000000,0.053775,0.063227,-0.000000
2.350000,-1.018030,0.127018,-1.498222,1.379404,0.430587,0.001041,0.504995,-1.138697,0.022378,-0.633576,0.601665,-0.117009,-1.611429,8.012648,1.228382,-0.115667,-0.051550,0.000000,0.061558,0.064740,0.000000
2.360000,-1.004211,0.131267,-1.498211,1.384425,0.419225,0.001259,0.498467,-1.132049,0.021269,-0.660133,0.703700,-0.104831,-1.400776,7.654418,1.222789,-0.114989,-0.050879,0.000000,0.071678,0.067360,0.000000
2.370000,-0.990341,0.135403,-1.498197,1.389376,0.407941,0.001467,0.491800,-1.124636,0.020282,-0.672932,0.778136,-0.092635,-1.154364,7.223604,1.216104,-0.114235,-0.050194,0.000000,0.079032,0.068590,0.000000
2.380000,-0.976423,0.139427,-1.498182,1.394260,0.396735,0.001665,0.485017,-1.116501,0.019416,-0.683156,0.848047,-0.080512,-0.888664,6.755323,1.208323,-0.113410,-0.049499,0.000000,0.085939,0.069563,-0.000000
2.390000,-0.962456,0.143338,-1.498164,1.399076,0.385613,0.001856,0.478146,-1.107691,0.018671,-0.690696,0.913234,-0.068472,-0.620147,6.284689,1.199442,-0.112518,-0.048795,0.000000,0.092379,0.070267,-0.000000
2.400000,-0.948442,0.147139,-1.498145,1.403823,0.374583,0.002039,0.471212,-1.098252,0.018046,-0.695604,0.973850,-0.056527,-0.365282,5.846818,1.189456,-0.111564,-0.048085,0.000000,0.098368,0.070709,0.000000
2.410000,-0.934380,0.150830,-1.498123,1.408499,0.363653,0.002217,0.464290,-1.088350,0.017541,-0.693666,1.019086,-0.044633,-0.252583,5.762521,1.176995,-0.110564,-0.047378,0.000000,0.102817,0.070461,0.000000
2.420000,-0.920272,0.154412,-1.498100,1.413107,0.352822,0.002390,0.457342,-1.077872,0.017153,-0.695764,1.076573,-0.032929,-0.172758,5.746236,1.163587,-0.109508,-0.046668,0.000000,0.108508,0.070625,-0.000000
2.430000,-0.906118,0.157887,-1.498075,1.417646,0.342098,0.002560,0.450377,-1.066818,0.016882,-0.697240,1.134238,-0.021364,-0.128557,5.798098,1.149393,-0.108394,-0.045957,0.000000,0.114226,0.070729,-0.000000
2.440000,-0.891920,0.161255,-1.498049,1.422115,0.331487,0.002728,0.443398,-1.055184,0.016725,-0.698463,1.192763,-0.009944,-0.122730,5.918241,1.134576,-0.107223,-0.045245,0.000000,0.120041,0.070812,-0.000000
2.450000,-0.877676,0.164517,-1.498021,1.426514,0.320996,0.002895,0.436407,-1.042958,0.016682,-0.699831,1.252831,0.001326,-0.158030,6.106796,1.119299,-0.105993,-0.044532,0.000000,0.126021,0.070912,-0.000000
2.460000,-0.863389,0.167675,-1.497991,1.430840,0.310635,0.003062,0.429513,-1.030290,0.016751,-0.691300,1.299468,0.012393,-0.501640,6.759409,1.104949,-0.104719,-0.043830,0.000000,0.130662,0.070013,-0.000000
2.470000,-0.849060,0.170730,-1.497960,1.435100,0.300398,0.003231,0.422569,-1.016946,0.016930,-0.698106,1.370430,0.023369,-0.859497,7.432273,1.090313,-0.103377,-0.043123,0.000000,0.137760,0.070671,0.000000
2.480000,-0.834688,0.173684,-1.497926,1.439291,0.290298,0.003401,0.415539,-1.002859,0.017218,-0.708439,1.448020,0.034198,-1.201973,8.077090,1.075403,-0.101961,-0.042408,0.000000,0.145539,0.071691,0.000000
2.490000,-0.820274,0.176537,-1.497892,1.443411,0.280344,0.003575,0.408389,-0.987966,0.017613,-0.721996,1.531717,0.044877,-1.499438,8.645563,1.060232,-0.100464,-0.041681,0.000000,0.153948,0.073041,0.000000
2.500000,-0.805820,0.179291,-1.497855,1.447458,0.270542,0.003754,0.401090,-0.972208,0.018115,-0.738179,1.620516,0.055402,-1.722263,9.089396,1.044810,-0.098880,-0.040939,0.000000,0.162888,0.074663,-0.000000
2.510000,-0.791325,0.181948,-1.497817,1.451438,0.260893,0.003938,0.393401,-0.955199,0.018721,-0.776320,1.744678,0.065823,-1.329943,8.558380,1.027868,-0.097170,-0.040157,0.000000,0.175412,0.078517,0.000000
2.520000,-0.776791,0.184509,-1.497776,1.455333,0.251430,0.004129,0.385578,-0.937334,0.019431,-0.787347,1.827073,0.076016,-0.866282,7.904324,1.010857,-0.095374,-0.039362,0.000000,0.183745,0.079626,0.000000
2.530000,-0.762219,0.186977,-1.497734,1.459149,0.242149,0.004327,0.377670,-0.918680,0.020241,-0.793518,1.902520,0.086040,-0.364207,7.177124,0.993948,-0.093498,-0.038559,0.000000,0.191395,0.080245,-0.000000
2.540000,-0.747609,0.189353,-1.497690,1.462886,0.233059,0.004534,0.369725,-0.899309,0.021151,-0.794613,1.970538,0.095896,0.143354,6.426678,0.977309,-0.091549,-0.037752,0.000000,0.198310,0.080352,0.000000
2.550000,-0.732961,0.191639,-1.497643,1.466544,0.224165,0.004750,0.361794,-0.879294,0.022158,-0.790742,2.031143,0.105588,0.623476,5.702882,0.961110,-0.089534,-0.036947,0.000000,0.204492,0.079958,0.000000
2.560000,-0.718278,0.193837,-1.497595,1.470119,0.215480,0.004977,0.354063,-0.858915,0.023261,-0.769682,2.065844,0.115072,0.723403,5.535707,0.946747,-0.087482,-0.036162,0.000000,0.208068,0.077819,0.000000
2.570000,-0.703559,0.195949,-1.497544,1.473621,0.206995,0.005216,0.346403,-0.837982,0.024459,-0.762177,2.120650,0.124470,0.769197,5.436191,0.933013,-0.085373,-0.035385,0.000000,0.213689,0.077059,-0.000000
2.580000,-0.688806,0.197978,-1.497490,1.477047,0.198722,0.005467,0.338820,-0.816505,0.025750,-0.754458,2.174763,0.133734,0.767094,5.395447,0.919926,-0.083208,-0.034615,0.000000,0.219253,0.076279,0.000000
2.590000,-0.674019,0.199925,-1.497434,1.480397,0.190667,0.005731,0.331313,-0.794487,0.027134,-0.746974,2.228726,0.142871,0.723328,5.404585,0.907505,-0.080988,-0.033854,0.000000,0.224814,0.075525,-0.000000
2.600000,-0.659198,0.201792,-1.497376,1.483673,0.182834,0.006010,0.323878,-0.771929,0.028607,-0.740109,2.282992,0.151887,0.644134,5.454719,0.895769,-0.078712,-0.033100,0.000000,0.230419,0.074836,0.000000
2.610000,-0.644345,0.203582,-1.497314,1.486875,0.175231,0.006304,0.316532,-0.748838,0.030170,-0.731970,2.336722,0.160707,0.479718,5.567408,0.886804,-0.076381,-0.032354,0.000000,0.235984,0.074019,-0.000000
2.620000,-0.629461,0.205297,-1.497249,1.490003,0.167860,0.006614,0.309233,-0.725190,0.031821,-0.728067,2.393046,0.169532,0.299205,5.699588,0.878310,-0.073992,-0.031614,0.000000,0.241824,0.073634,-0.000000
2.630000,-0.614545,0.206940,-1.497182,1.493059,0.160729,0.006940,0.301964,-0.700973,0.033560,-0.725996,2.450736,0.178274,0.115691,5.838644,0.870052,-0.071544,-0.030877,0.000000,0.247816,0.073438,-0.000000
2.640000,-0.599600,0.208513,-1.497111,1.496043,0.153842,0.007285,0.294707,-0.676171,0.035387,-0.725720,2.509799,0.186933,-0.057728,5.971959,0.861796,-0.069035,-0.030141,0.000000,0.253961,0.073427,0.000000
2.650000,-0.584625,0.210018,-1.497036,1.498953,0.147207,0.007648,0.287444,-0.650773,0.037299,-0.727073,2.570114,0.195509,-0.207956,6.086917,0.853309,-0.066464,-0.029405,0.000000,0.260246,0.073583,0.000000
2.660000,-0.569621,0.211458,-1.496957,1.501793,0.140829,0.008031,0.280096,-0.624759,0.039297,-0.735765,2.631996,0.204048,-0.170182,6.156718,0.843084,-0.063829,-0.028659,0.000000,0.266705,0.074491,-0.000000
2.670000,-0.554589,0.212835,-1.496875,1.504557,0.134714,0.008435,0.272731,-0.598131,0.041379,-0.737147,2.693742,0.212426,-0.101603,6.184667,0.832315,-0.061130,-0.027912,0.000000,0.273165,0.074656,-0.000000
2.680000,-0.539530,0.214153,-1.496789,1.507248,0.128868,0.008859,0.265356,-0.570884,0.043545,-0.737712,2.755514,0.220692,-0.007701,6.159884,0.820924,-0.058366,-0.027163,0.000000,0.279642,0.074739,-0.000000
2.690000,-0.524445,0.215413,-1.496698,1.509865,0.123298,0.009306,0.257980,-0.543023,0.045793,-0.737235,2.816728,0.228842,0.106042,6.071491,0.808834,-0.055537,-0.026415,0.000000,0.286077,0.074717,-0.000000
2.700000,-0.509333,0.216620,-1.496603,1.512407,0.118010,0.009775,0.250615,-0.514554,0.048122,-0.735544,2.876695,0.236866,0.234146,5.908608,0.795965,-0.052645,-0.025667,0.000000,0.292398,0.074573,0.000000
2.710000,-0.494197,0.217774,-1.496502,1.514877,0.113006,0.010269,0.243270,-0.485370,0.050530,-0.732830,2.946138,0.244757,0.378909,5.369324,0.782275,-0.049677,-0.024921,0.000000,0.299701,0.074326,0.000000
2.720000,-0.479036,0.218881,-1.496397,1.517273,0.108300,0.010786,0.235964,-0.455650,0.053016,-0.728305,2.996872,0.252507,0.526115,4.769428,0.767646,-0.046652,-0.024179,0.000000,0.305105,0.073895,-0.000000
2.730000,-0.463851,0.219942,-1.496287,1.519596,0.103894,0.011329,0.228709,-0.425454,0.055579,-0.722321,3.041407,0.260106,0.669331,4.133677,0.751996,-0.043577,-0.023442,0.000000,0.309885,0.073315,0.000000
2.740000,-0.448644,0.220960,-1.496170,1.521848,0.099793,0.011898,0.221522,-0.394844,0.058218,-0.714953,3.079509,0.267544,0.802122,3.486828,0.735242,-0.040457,-0.022712,0.000000,0.314016,0.072595,-0.000000
2.750000,-0.433415,0.221938,-1.496048,1.524027,0.095999,0.012494,0.214414,-0.363885,0.060930,-0.706335,3.111189,0.274807,0.918054,2.853638,0.717302,-0.037299,-0.021990,0.000000,0.317497,0.071747,-0.000000
2.760000,-0.418164,0.222881,-1.495920,1.526135,0.092518,0.013117,0.207422,-0.332720,0.063713,-0.694489,3.129403,0.281844,0.955617,2.443419,0.699136,-0.034117,-0.021279,0.000000,0.319603,0.070568,-0.000000
2.770000,-0.402892,0.223790,-1.495786,1.528175,0.089348,0.013768,0.200525,-0.301310,0.066566,-0.684841,3.151954,0.288739,0.970195,2.073775,0.679490,-0.030908,-0.020578,0.000000,0.322158,0.069615,-0.000000
2.780000,-0.387601,0.224669,-1.495645,1.530146,0.086492,0.014448,0.193725,-0.269692,0.069487,-0.675160,3.171020,0.295428,0.962098,1.746866,0.658156,-0.027675,-0.019886,0.000000,0.324359,0.068658,-0.000000
2.790000,-0.372290,0.225521,-1.495497,1.532050,0.083954,0.015158,0.187022,-0.237900,0.072474,-0.665673,3.187041,0.301895,0.931637,1.464849,0.634924,-0.024422,-0.019204,0.000000,0.326251,0.067721,0.000000
2.800000,-0.356960,0.226349,-1.495342,1.533887,0.081735,0.015898,0.180411,-0.205960,0.075524,-0.656601,3.200474,0.308120,0.879119,1.229883,0.609582,-0.021151,-0.018531,0.000000,0.327878,0.066827,-0.000000
2.810000,-0.341612,0.227156,-1.495179,1.535658,0.079838,0.016669,0.173923,-0.173994,0.078635,-0.644918,3.202880,0.314035,0.722880,1.269481,0.583029,-0.017875,-0.017870,0.000000,0.328374,0.065664,-0.000000
2.820000,-0.326247,0.227947,-1.495008,1.537365,0.078259,0.017471,0.167507,-0.141901,0.081804,-0.638522,3.215883,0.319722,0.555242,1.332853,0.553812,-0.014583,-0.017217,0.000000,0.329959,0.065044,0.000000
2.830000,-0.310865,0.228723,-1.494829,1.539008,0.077001,0.018305,0.161147,-0.109674,0.085028,-0.633816,3.229532,0.325102,0.386552,1.394564,0.521584,-0.011276,-0.016569,0.000000,0.331610,0.064598,0.000000
2.840000,-0.295467,0.229488,-1.494642,1.540588,0.076066,0.019172,0.154825,-0.077308,0.088305,-0.630760,3.243684,0.330142,0.227158,1.429179,0.486001,-0.007951,-0.015924,0.000000,0.333313,0.064323,0.000000
