time,x,y,z,vx,vy,vz,ax,ay,az,jx,jy,jz,sx,sy,sz,roll,pitch,yaw,p,q,r
0.000000,-2.843987,-2.177912,-1.448326,0.016614,-0.009933,-0.002125,-0.730502,0.411338,-0.024808,18.680194,-13.663368,0.137879,-348.784497,386.791479,-10.453301,0.041686,0.074141,0.000000,-1.376641,-1.886298,0.000000
0.010000,-2.843854,-2.177992,-1.448349,0.010187,-0.006441,-0.002368,-0.560275,0.293088,-0.023938,15.449245,-10.079877,0.037657,-298.254581,330.855276,-9.593969,0.029747,0.056912,0.000000,-1.019679,-1.565020,-0.000000
0.020000,-2.843778,-2.178044,-1.448374,0.005309,-0.003961,-0.002607,-0.419916,0.207969,-0.024027,12.698528,-7.027767,-0.054062,-252.696832,280.467830,-8.753087,0.021126,0.042674,0.000000,-0.712622,-1.288881,-0.000000
0.030000,-2.843744,-2.178074,-1.448401,0.001705,-0.002188,-0.002851,-0.304866,0.150942,-0.024991,10.379561,-4.452976,-0.137468,-211.863303,235.343599,-7.931185,0.015339,0.030988,0.000000,-0.452158,-1.054666,-0.000000
0.040000,-2.843741,-2.178089,-1.448431,-0.000859,-0.000864,-0.003109,-0.211039,0.117490,-0.026749,8.446341,-2.304302,-0.212751,-175.506042,195.197044,-7.128793,0.011941,0.021451,0.000000,-0.234205,-0.858659,-0.000000
0.050000,-2.843758,-2.178092,-1.448463,-0.002575,0.000227,-0.003389,-0.134799,0.103597,-0.029220,6.855346,-0.533395,-0.280110,-143.377099,159.742625,-6.346440,0.010528,0.013699,0.000000,-0.054399,-0.696957,-0.000000
0.060000,-2.843790,-2.178085,-1.448499,-0.003603,0.001262,-0.003696,-0.072929,0.105715,-0.032326,5.565531,0.905239,-0.339748,-115.228526,128.694803,-5.584656,0.010740,0.007410,0.000000,0.091635,-0.565661,-0.000000
0.070000,-2.843829,-2.178067,-1.448537,-0.004072,0.002384,-0.004037,-0.022613,0.120736,-0.035990,4.538334,2.054238,-0.391874,-90.812372,101.768039,-4.843972,0.012262,0.002297,0.000000,0.208130,-0.460987,0.000000
0.080000,-2.843870,-2.178036,-1.448580,-0.004085,0.003710,-0.004417,0.018593,0.145967,-0.040139,3.737669,2.953385,-0.436700,-69.880687,78.676791,-4.124918,0.014818,-0.001888,0.000000,0.299098,-0.379327,-0.000000
0.090000,-2.843909,-2.177991,-1.448626,-0.003723,0.005330,-0.004841,0.052783,0.179095,-0.044700,3.129932,3.639607,-0.474446,-52.185521,59.135522,-3.428023,0.018171,-0.005356,0.000000,0.368294,-0.317289,-0.000000
0.100000,-2.843943,-2.177928,-1.448677,-0.003047,0.007312,-0.005313,0.081730,0.218163,-0.049605,2.683997,4.146977,-0.505336,-37.478925,42.858690,-2.753817,0.022123,-0.008289,0.000000,0.419199,-0.271711,-0.000000
0.110000,-2.843969,-2.177844,-1.448732,-0.002101,0.009708,-0.005834,0.106907,0.261542,-0.054785,2.371218,4.506710,-0.529600,-25.512948,29.560757,-2.102830,0.026505,-0.010837,0.000000,0.455010,-0.239678,-0.000000
0.120000,-2.843984,-2.177733,-1.448793,-0.000917,0.012553,-0.006409,0.129511,0.307900,-0.060176,2.165429,4.747170,-0.547472,-16.039641,18.956182,-1.475592,0.031182,-0.013121,0.000000,0.478634,-0.218519,-0.000000
0.130000,-2.843987,-2.177591,-1.448861,0.000484,0.015872,-0.007038,0.150493,0.356173,-0.065714,2.042943,4.893860,-0.559193,-8.811054,10.759426,-0.872633,0.036046,-0.015237,0.000000,0.492692,-0.205821,-0.000000
0.140000,-2.843974,-2.177414,-1.448934,0.002090,0.019680,-0.007724,0.170577,0.405541,-0.071340,1.982552,4.969432,-0.565007,-3.579236,4.684949,-0.294483,0.041012,-0.017261,0.000000,0.499507,-0.199422,0.000000
0.150000,-2.843944,-2.177196,-1.449015,0.003894,0.023984,-0.008465,0.190288,0.455391,-0.076995,1.965529,4.993681,-0.565167,-0.096239,0.447212,0.258328,0.046019,-0.019244,0.000000,0.501112,-0.197417,-0.000000
0.160000,-2.843895,-2.176932,-1.449104,0.005895,0.028788,-0.009263,0.209977,0.505300,-0.082625,1.975624,4.983547,-0.559927,1.885888,-2.239325,0.785270,0.051023,-0.021222,0.000000,0.499243,-0.198158,-0.000000
0.170000,-2.843826,-2.176618,-1.449201,0.008094,0.034090,-0.010117,0.229845,0.554995,-0.088177,1.999070,4.953114,-0.549549,2.615096,-3.660203,1.285814,0.055997,-0.023217,0.000000,0.495342,-0.200252,0.000000
0.180000,-2.843733,-2.176249,-1.449306,0.010493,0.039887,-0.011026,0.249965,0.604332,-0.093600,2.024576,4.913610,-0.534300,2.339332,-4.100959,1.759429,0.060927,-0.025234,0.000000,0.490557,-0.202561,0.000000
0.190000,-2.843615,-2.175819,-1.449421,0.013094,0.046175,-0.011989,0.270314,0.653265,-0.098847,2.043333,4.873410,-0.514452,1.306549,-3.847136,2.205586,0.065808,-0.027273,0.000000,0.485742,-0.204201,0.000000
0.200000,-2.843470,-2.175324,-1.449546,0.015900,0.052951,-0.013003,0.290788,0.701817,-0.103874,2.049010,4.838031,-0.490282,-0.235306,-3.184271,2.623754,0.070643,-0.029323,0.000000,0.481461,-0.204543,-0.000000
0.210000,-2.843296,-2.174759,-1.449682,0.018929,0.060185,-0.014065,0.310541,0.751011,-0.108640,1.973640,4.898590,-0.462130,-0.418840,-4.632055,3.014859,0.075536,-0.031299,0.000000,0.486853,-0.196768,0.000000
0.220000,-2.843091,-2.174119,-1.449828,0.022133,0.067939,-0.015174,0.330251,0.799742,-0.113104,1.967632,4.845501,-0.430147,-0.813845,-5.968307,3.376737,0.080376,-0.033269,0.000000,0.480896,-0.195993,-0.000000
0.230000,-2.842853,-2.173398,-1.449985,0.025533,0.076177,-0.016326,0.349878,0.847878,-0.117231,1.956824,4.779556,-0.394695,-1.370668,-7.204999,3.708681,0.085150,-0.035230,0.000000,0.473727,-0.194764,0.000000
0.240000,-2.842580,-2.172593,-1.450154,0.029130,0.084894,-0.017518,0.369367,0.895294,-0.120988,1.939845,4.701692,-0.356076,-2.039658,-8.354101,4.009982,0.089847,-0.037176,0.000000,0.465452,-0.192950,0.000000
0.250000,-2.842270,-2.171699,-1.450336,0.032920,0.094081,-0.018745,0.388651,0.941875,-0.124343,1.915822,4.612726,-0.314600,-2.771165,-9.427582,4.279933,0.094456,-0.039102,0.000000,0.456163,-0.190464,0.000000
0.260000,-2.841921,-2.170710,-1.450530,0.036906,0.103727,-0.020003,0.407511,0.987562,-0.127270,1.870790,4.517804,-0.270446,-3.172319,-10.549838,4.514351,0.098972,-0.040985,0.000000,0.446386,-0.185915,-0.000000
0.270000,-2.841531,-2.169623,-1.450736,0.041074,0.113827,-0.021289,0.426054,1.032194,-0.129745,1.837036,4.406966,-0.224265,-3.578714,-11.606647,4.716427,0.103380,-0.042837,0.000000,0.435121,-0.182533,-0.000000
0.280000,-2.841099,-2.168432,-1.450955,0.045426,0.124367,-0.022597,0.444238,1.075667,-0.131749,1.799224,4.285895,-0.176227,-3.982726,-12.596214,4.885878,0.107671,-0.044654,0.000000,0.422945,-0.178784,-0.000000
0.290000,-2.840622,-2.167134,-1.451188,0.049957,0.135336,-0.023922,0.462025,1.117881,-0.133265,1.757415,4.155272,-0.126657,-4.376730,-13.516743,5.022423,0.111836,-0.046433,0.000000,0.409930,-0.174675,0.000000
0.300000,-2.840099,-2.165724,-1.451434,0.054665,0.146720,-0.025260,0.479374,1.158743,-0.134278,1.711748,4.015797,-0.075889,-4.753102,-14.366438,5.125779,0.115867,-0.048169,0.000000,0.396145,-0.170219,0.000000
0.310000,-2.839528,-2.164198,-1.451693,0.059544,0.158506,-0.026606,0.496221,1.198158,-0.134777,1.659938,3.867178,-0.023989,-5.041091,-15.118049,5.188988,0.119756,-0.049856,0.000000,0.381568,-0.165189,-0.000000
0.320000,-2.838907,-2.162553,-1.451966,0.064588,0.170679,-0.027954,0.512563,1.236063,-0.134756,1.608192,3.712537,0.028079,-5.303928,-15.798349,5.219259,0.123496,-0.051496,0.000000,0.366492,-0.160200,-0.000000
0.330000,-2.838236,-2.160784,-1.452252,0.069793,0.183222,-0.029299,0.528376,1.272388,-0.134214,1.553943,3.551444,0.080288,-5.541721,-16.408662,5.217128,0.127084,-0.053084,0.000000,0.350876,-0.154994,0.000000
0.340000,-2.837511,-2.158887,-1.452552,0.075154,0.196121,-0.030637,0.543635,1.307072,-0.133151,1.497440,3.384593,0.132316,-5.754575,-16.950307,5.183127,0.130512,-0.054620,0.000000,0.334783,-0.149594,0.000000
0.350000,-2.836732,-2.156860,-1.452865,0.080664,0.209358,-0.031961,0.558318,1.340063,-0.131570,1.438934,3.212662,0.183846,-5.942596,-17.424606,5.117792,0.133778,-0.056101,0.000000,0.318272,-0.144021,-0.000000
0.360000,-2.835897,-2.154699,-1.453191,0.086318,0.222916,-0.033266,0.572405,1.371307,-0.129474,1.378396,3.035986,0.234853,-6.098957,-17.824429,5.014477,0.136876,-0.057525,0.000000,0.301372,-0.138271,0.000000
0.370000,-2.835005,-2.152401,-1.453530,0.092110,0.236778,-0.034549,0.585881,1.400770,-0.126877,1.316725,2.856009,0.284358,-6.231545,-18.160582,4.881776,0.139804,-0.058892,0.000000,0.284206,-0.132426,0.000000
0.380000,-2.834055,-2.149962,-1.453882,0.098034,0.250926,-0.035802,0.598735,1.428417,-0.123792,1.253842,2.672979,0.332395,-6.341314,-18.435421,4.721102,0.142560,-0.060200,0.000000,0.266793,-0.126476,0.000000
0.390000,-2.833044,-2.147381,-1.454246,0.104083,0.265341,-0.037023,0.610955,1.454221,-0.120235,1.189971,2.487497,0.378692,-6.429218,-18.651301,4.533870,0.145140,-0.061447,0.000000,0.249180,-0.120439,0.000000
0.400000,-2.831973,-2.144655,-1.454622,0.110251,0.280004,-0.038206,0.622532,1.478161,-0.116224,1.125327,2.300141,0.422989,-6.496213,-18.810578,4.321494,0.147543,-0.062634,0.000000,0.231414,-0.114331,-0.000000
0.410000,-2.830839,-2.141780,-1.455010,0.116531,0.294897,-0.039346,0.633460,1.500220,-0.111780,1.060191,2.111480,0.465259,-6.545210,-18.915961,4.079907,0.149768,-0.063759,0.000000,0.213540,-0.108178,-0.000000
0.420000,-2.829642,-2.138756,-1.455409,0.122918,0.310002,-0.040440,0.643734,1.520388,-0.106928,0.994574,1.922011,0.504759,-6.574966,-18.969409,3.816674,0.151813,-0.064822,0.000000,0.195589,-0.101973,0.000000
0.430000,-2.828380,-2.135580,-1.455819,0.129404,0.325299,-0.041483,0.653351,1.538659,-0.101694,0.928753,1.732257,0.541528,-6.586196,-18.973234,3.533879,0.153679,-0.065822,0.000000,0.177603,-0.095741,0.000000
0.440000,-2.827053,-2.132249,-1.456239,0.135983,0.340769,-0.042473,0.662309,1.555034,-0.096107,0.862910,1.542704,0.575379,-6.579614,-18.929747,3.233607,0.155365,-0.066759,0.000000,0.159619,-0.089496,0.000000
0.450000,-2.825660,-2.128764,-1.456668,0.142648,0.356393,-0.043404,0.670610,1.569516,-0.090197,0.797218,1.353813,0.606148,-6.555934,-18.841262,2.917943,0.156872,-0.067634,0.000000,0.141670,-0.083251,-0.000000
0.460000,-2.824200,-2.125121,-1.457106,0.149393,0.372153,-0.044276,0.678256,1.582114,-0.083994,0.731919,1.166090,0.633790,-6.517719,-18.711832,2.586531,0.158199,-0.068445,0.000000,0.123798,-0.077027,-0.000000
0.470000,-2.822672,-2.121320,-1.457553,0.156211,0.388029,-0.045083,0.685250,1.592842,-0.077532,0.666999,0.979789,0.657952,-6.463609,-18.541815,2.244194,0.159348,-0.069194,0.000000,0.106014,-0.070817,-0.000000
0.480000,-2.821076,-2.117360,-1.458008,0.163096,0.404004,-0.045825,0.691598,1.601717,-0.070846,0.602698,0.795382,0.678645,-6.394093,-18.333308,1.893317,0.160320,-0.069880,0.000000,0.088356,-0.064643,0.000000
0.490000,-2.819410,-2.113240,-1.458470,0.170041,0.420058,-0.046500,0.697306,1.608758,-0.063971,0.539167,0.613244,0.695797,-6.309659,-18.088410,1.536283,0.161116,-0.070504,0.000000,0.070854,-0.058518,0.000000
0.500000,-2.817675,-2.108959,-1.458938,0.177040,0.436173,-0.047104,0.702384,1.613990,-0.056942,0.476553,0.433728,0.709358,-6.210795,-17.809220,1.175476,0.161737,-0.071066,0.000000,0.053534,-0.052453,-0.000000
0.510000,-2.815869,-2.104516,-1.459411,0.184086,0.452331,-0.047638,0.706841,1.617443,-0.049796,0.415018,0.257218,0.719262,-6.098493,-17.499124,0.814291,0.162187,-0.071567,0.000000,0.036429,-0.046462,0.000000
0.520000,-2.813993,-2.099912,-1.459890,0.191174,0.468516,-0.048100,0.710688,1.619145,-0.042569,0.354651,0.083904,0.725602,-5.972675,-17.158776,0.453975,0.162467,-0.072008,0.000000,0.019554,-0.040553,0.000000
0.530000,-2.812045,-2.095146,-1.460373,0.198298,0.484709,-0.048489,0.713939,1.619132,-0.035296,0.295608,-0.085863,0.728352,-5.833770,-16.790117,0.096789,0.162579,-0.072389,0.000000,0.002938,-0.034741,-0.000000
0.540000,-2.810027,-2.090218,-1.460860,0.205451,0.500893,-0.048806,0.716605,1.617441,-0.028014,0.238017,-0.251810,0.727556,-5.682203,-16.395088,-0.255007,0.162527,-0.072712,0.000000,-0.013393,-0.029037,0.000000
0.550000,-2.807936,-2.085128,-1.461349,0.212628,0.517052,-0.049050,0.718704,1.614110,-0.020757,0.182004,-0.413683,0.723278,-5.518401,-15.975630,-0.599155,0.162312,-0.072978,0.000000,-0.029416,-0.023453,0.000000
0.560000,-2.805774,-2.079877,-1.461840,0.219823,0.533170,-0.049221,0.720251,1.609182,-0.013561,0.127667,-0.571211,0.715444,-5.342230,-15.534621,-0.929309,0.161939,-0.073188,0.000000,-0.045108,-0.017999,0.000000
0.570000,-2.803540,-2.074465,-1.462333,0.227031,0.549230,-0.049321,0.721264,1.602701,-0.006459,0.075173,-0.724265,0.704548,-5.154747,-15.072951,-1.247794,0.161411,-0.073343,0.000000,-0.060447,-0.012695,0.000000
0.580000,-2.801233,-2.068893,-1.462827,0.234247,0.565219,-0.049351,0.721761,1.594712,0.000519,0.024608,-0.872607,0.690533,-4.956446,-14.592446,-1.552851,0.160732,-0.073446,0.000000,-0.075412,-0.007548,0.000000
0.590000,-2.798855,-2.063161,-1.463320,0.241465,0.581120,-0.049311,0.721762,1.585265,0.007342,-0.023922,-1.016057,0.673542,-4.747822,-14.094933,-1.842721,0.159904,-0.073497,0.000000,-0.089980,-0.002571,0.000000
0.600000,-2.796404,-2.057271,-1.463813,0.248681,0.596919,-0.049205,0.721289,1.574408,0.013981,-0.070316,-1.154455,0.653735,-4.529371,-13.582237,-2.115643,0.158933,-0.073498,0.000000,-0.104133,0.002224,0.000000
0.610000,-2.793881,-2.051223,-1.464304,0.255889,0.612603,-0.049032,0.720363,1.562194,0.020405,-0.114520,-1.287613,0.631045,-4.300533,-13.057304,-2.363650,0.157823,-0.073452,0.000000,-0.117850,0.006831,-0.000000
0.620000,-2.791286,-2.045019,-1.464793,0.263086,0.628159,-0.048797,0.719007,1.548673,0.026594,-0.156345,-1.415512,0.606251,-4.062987,-12.520704,-2.591951,0.156578,-0.073361,0.000000,-0.131113,0.011226,-0.000000
0.630000,-2.788620,-2.038660,-1.465280,0.270268,0.643573,-0.048501,0.717244,1.533901,0.032523,-0.195753,-1.537994,0.579275,-3.817358,-11.974127,-2.799546,0.155202,-0.073226,0.000000,-0.143907,0.015403,0.000000
0.640000,-2.785881,-2.032148,-1.465763,0.277430,0.658833,-0.048148,0.715100,1.517932,0.038173,-0.232667,-1.654967,0.550332,-3.564269,-11.419262,-2.985435,0.153701,-0.073050,0.000000,-0.156213,0.019353,-0.000000
0.650000,-2.783071,-2.025484,-1.466242,0.284569,0.673927,-0.047739,0.712600,1.500821,0.043524,-0.267015,-1.766357,0.519642,-3.304346,-10.857799,-3.148619,0.152080,-0.072835,0.000000,-0.168017,0.023064,0.000000
0.660000,-2.780190,-2.018670,-1.466718,0.291681,0.688846,-0.047278,0.709768,1.482624,0.048557,-0.298773,-1.872039,0.487158,-3.037215,-10.293152,-3.281023,0.150343,-0.072584,0.000000,-0.179304,0.026534,-0.000000
0.670000,-2.777237,-2.011708,-1.467188,0.298763,0.703577,-0.046769,0.706633,1.463399,0.053263,-0.327786,-1.972132,0.453785,-2.764620,-9.725074,-3.389588,0.148496,-0.072299,0.000000,-0.190065,0.029739,0.000000
0.680000,-2.774215,-2.004599,-1.467653,0.305813,0.718110,-0.046214,0.703222,1.443201,0.057630,-0.354049,-2.066534,0.419447,-2.487307,-9.155044,-3.474183,0.146543,-0.071983,0.000000,-0.200289,0.032677,0.000000
0.690000,-2.771121,-1.997346,-1.468112,0.312827,0.732437,-0.045617,0.699561,1.422087,0.061650,-0.377519,-2.155231,0.384382,-2.206023,-8.584539,-3.534674,0.144492,-0.071639,0.000000,-0.209964,0.035341,-0.000000
0.700000,-2.767958,-1.989951,-1.468565,0.319803,0.746549,-0.044982,0.695681,1.400115,0.065316,-0.398159,-2.238228,0.348834,-1.921515,-8.015037,-3.570929,0.142346,-0.071270,0.000000,-0.219084,0.037724,-0.000000
0.710000,-2.764725,-1.982416,-1.469011,0.326740,0.760437,-0.044312,0.691607,1.377343,0.068623,-0.415962,-2.315443,0.312781,-1.633987,-7.450472,-3.576153,0.140112,-0.070878,0.000000,-0.227636,0.039824,0.000000
0.720000,-2.761424,-1.974743,-1.469451,0.333635,0.774094,-0.043611,0.687371,1.353825,0.071572,-0.430857,-2.387140,0.277092,-1.344794,-6.889567,-3.557690,0.137795,-0.070466,0.000000,-0.235629,0.041627,0.000000
0.730000,-2.758053,-1.966935,-1.469884,0.340487,0.787511,-0.042882,0.683000,1.329618,0.074165,-0.442855,-2.453251,0.241704,-1.054748,-6.333497,-3.516222,0.135401,-0.070038,0.000000,-0.243054,0.043133,0.000000
0.740000,-2.754614,-1.958994,-1.470309,0.347294,0.800684,-0.042129,0.678524,1.304778,0.076408,-0.451952,-2.513830,0.206842,-0.764662,-5.783442,-3.452431,0.132936,-0.069597,0.000000,-0.249910,0.044339,-0.000000
0.750000,-2.751107,-1.950922,-1.470726,0.354057,0.813605,-0.041355,0.673971,1.279360,0.078305,-0.458151,-2.568943,0.172727,-0.475347,-5.240578,-3.367001,0.130405,-0.069145,0.000000,-0.256197,0.045243,0.000000
0.760000,-2.747533,-1.942723,-1.471136,0.360774,0.826269,-0.040564,0.669370,1.253419,0.079863,-0.461460,-2.618551,0.139368,-0.187721,-4.709061,-3.255443,0.127814,-0.068685,0.000000,-0.261908,0.045845,0.000000
0.770000,-2.743892,-1.934398,-1.471537,0.367444,0.838672,-0.039759,0.664751,1.227007,0.081096,-0.461909,-2.663022,0.107453,0.097521,-4.186726,-3.124243,0.125169,-0.068221,0.000000,-0.267068,0.046142,0.000000
0.780000,-2.740184,-1.925950,-1.471931,0.374069,0.850808,-0.038943,0.660141,1.200176,0.082017,-0.459520,-2.702319,0.076944,0.379578,-3.674385,-2.974716,0.122474,-0.067756,0.000000,-0.271673,0.046138,-0.000000
0.790000,-2.736411,-1.917382,-1.472316,0.380647,0.862674,-0.038119,0.655570,1.172977,0.082640,-0.454331,-2.736546,0.048016,0.657651,-3.172853,-2.808178,0.119737,-0.067293,0.000000,-0.275729,0.045834,-0.000000
0.800000,-2.732571,-1.908698,-1.472693,0.387180,0.874266,-0.037291,0.651064,1.145461,0.082983,-0.446383,-2.765815,0.020833,0.930939,-2.682941,-2.625943,0.116962,-0.066834,0.000000,-0.279244,0.045233,0.000000
0.810000,-2.728667,-1.899898,-1.473062,0.393669,0.885582,-0.036460,0.646652,1.117678,0.083062,-0.435702,-2.790125,-0.004573,1.197915,-2.208527,-2.426345,0.114154,-0.066383,0.000000,-0.282217,0.044337,-0.000000
0.820000,-2.724698,-1.890987,-1.473422,0.400114,0.896619,-0.035630,0.642359,1.089674,0.082898,-0.422414,-2.809892,-0.027785,1.458595,-1.746985,-2.214047,0.111319,-0.065942,0.000000,-0.284686,0.043157,-0.000000
0.830000,-2.720665,-1.881967,-1.473775,0.406517,0.907375,-0.034803,0.638212,1.061496,0.082514,-0.406553,-2.825109,-0.048818,1.712270,-1.298751,-1.990730,0.108462,-0.065515,0.000000,-0.286650,0.041697,-0.000000
0.840000,-2.716568,-1.872840,-1.474118,0.412879,0.917849,-0.033981,0.634236,1.033187,0.081930,-0.388194,-2.835912,-0.067569,1.958228,-0.864265,-1.758074,0.105588,-0.065104,0.000000,-0.288123,0.039963,-0.000000
0.850000,-2.712408,-1.863611,-1.474454,0.419202,0.928039,-0.033165,0.630456,1.004792,0.081170,-0.367417,-2.842442,-0.083953,2.195759,-0.443963,-1.517759,0.102701,-0.064712,0.000000,-0.289119,0.037964,0.000000
0.860000,-2.708184,-1.854280,-1.474782,0.425488,0.937944,-0.032358,0.626896,0.976353,0.080259,-0.344262,-2.844735,-0.097926,2.422958,-0.040937,-1.270917,0.099807,-0.064342,0.000000,-0.289642,0.035703,0.000000
0.870000,-2.703898,-1.844853,-1.475101,0.431741,0.947566,-0.031560,0.623578,0.947910,0.079220,-0.318937,-2.843191,-0.109382,2.640455,0.347354,-1.019845,0.096910,-0.063996,0.000000,-0.289734,0.033203,0.000000
0.880000,-2.699549,-1.835330,-1.475413,0.437961,0.956903,-0.030774,0.620524,0.919502,0.078079,-0.291487,-2.837838,-0.118314,2.847684,0.720796,-0.766292,0.094014,-0.063676,0.000000,-0.289399,0.030467,-0.000000
0.890000,-2.695139,-1.825716,-1.475717,0.444152,0.965956,-0.029999,0.617755,0.891165,0.076862,-0.262019,-2.828825,-0.124706,3.044081,1.079278,-0.512006,0.091123,-0.063384,0.000000,-0.288655,0.027508,-0.000000
0.900000,-2.690666,-1.816012,-1.476013,0.450317,0.974726,-0.029237,0.615290,0.862937,0.075594,-0.230643,-2.816303,-0.128558,3.229081,1.422685,-0.258735,0.088242,-0.063124,0.000000,-0.287519,0.024336,-0.000000
0.910000,-2.686132,-1.806222,-1.476302,0.456459,0.983215,-0.028487,0.613149,0.834851,0.074300,-0.197420,-2.800348,-0.129822,3.400674,1.749048,-0.009932,0.085374,-0.062896,0.000000,-0.286001,0.020958,0.000000
0.920000,-2.681537,-1.796349,-1.476583,0.462581,0.991424,-0.027751,0.611347,0.806941,0.073005,-0.162607,-2.781289,-0.128695,3.559919,2.060339,0.234569,0.082523,-0.062704,0.000000,-0.284139,0.017401,-0.000000
0.930000,-2.676881,-1.786394,-1.476857,0.468687,0.999355,-0.027027,0.609902,0.779236,0.071734,-0.126264,-2.759191,-0.125150,3.706426,2.356672,0.473228,0.079692,-0.062548,0.000000,-0.281940,0.013673,0.000000
0.940000,-2.672164,-1.776362,-1.477123,0.474780,1.007009,-0.026316,0.608827,0.751766,0.070510,-0.088522,-2.734205,-0.119255,3.839809,2.638161,0.704506,0.076885,-0.062430,0.000000,-0.279425,0.009787,-0.000000
0.950000,-2.667385,-1.766255,-1.477383,0.480865,1.014391,-0.025617,0.608136,0.724561,0.069357,-0.049513,-2.706477,-0.111090,3.959679,2.904921,0.926864,0.074105,-0.062352,0.000000,-0.276609,0.005757,-0.000000
0.960000,-2.662546,-1.756075,-1.477636,0.486944,1.021502,-0.024929,0.607841,0.697646,0.068297,-0.009315,-2.676120,-0.100615,4.064137,3.156163,1.135300,0.071354,-0.062315,0.000000,-0.273508,0.001590,-0.000000
0.970000,-2.657646,-1.745826,-1.477882,0.493023,1.028345,-0.024250,0.607953,0.671047,0.067351,0.031790,-2.643362,-0.088268,4.154492,3.393016,1.332161,0.068636,-0.062320,0.000000,-0.270150,-0.002681,-0.000000
0.980000,-2.652686,-1.735509,-1.478121,0.499105,1.034924,-0.023581,0.608480,0.644786,0.066538,0.073727,-2.608306,-0.074014,4.230542,3.615704,1.516332,0.065952,-0.062369,0.000000,-0.266546,-0.007050,0.000000
0.990000,-2.647664,-1.725128,-1.478353,0.505194,1.041242,-0.022919,0.609429,0.618888,0.065877,0.116353,-2.571094,-0.057987,4.292083,3.824451,1.686697,0.063305,-0.062462,0.000000,-0.262714,-0.011500,0.000000
1.000000,-2.642582,-1.714685,-1.478579,0.511295,1.047303,-0.022263,0.610808,0.593371,0.065384,0.159520,-2.531863,-0.040330,4.338913,4.019484,1.842142,0.060698,-0.062600,0.000000,-0.258670,-0.016018,-0.000000
1.010000,-2.637438,-1.704183,-1.478799,0.517412,1.053110,-0.021611,0.612622,0.568257,0.065077,0.203139,-2.490747,-0.021018,4.369364,4.200975,1.977018,0.058133,-0.062783,0.000000,-0.254430,-0.020594,0.000000
1.020000,-2.632234,-1.693624,-1.479011,0.523549,1.058669,-0.020961,0.614872,0.543562,0.064968,0.246923,-2.447886,-0.000643,4.384877,4.369206,2.095297,0.055610,-0.063012,0.000000,-0.250012,-0.025195,0.000000
1.030000,-2.626967,-1.683011,-1.479218,0.529711,1.063983,-0.020311,0.617561,0.519304,0.065068,0.290787,-2.403407,0.020830,4.385431,4.524410,2.196420,0.053133,-0.063288,0.000000,-0.245430,-0.029813,-0.000000
1.040000,-2.621639,-1.672345,-1.479418,0.535901,1.069057,-0.019659,0.620688,0.495499,0.065387,0.334582,-2.357440,0.043227,4.371001,4.666817,2.279826,0.050702,-0.063610,0.000000,-0.240700,-0.034433,-0.000000
1.050000,-2.616249,-1.661630,-1.479611,0.542126,1.073895,-0.019002,0.624251,0.472160,0.065935,0.378157,-2.310112,0.066366,4.341565,4.796659,2.344955,0.048319,-0.063977,0.000000,-0.235834,-0.039039,0.000000
1.060000,-2.610797,-1.650868,-1.479798,0.548388,1.078502,-0.018339,0.628250,0.449301,0.066719,0.421418,-2.261567,0.090255,4.295716,4.914650,2.386386,0.045986,-0.064391,0.000000,-0.230849,-0.043622,0.000000
1.070000,-2.605281,-1.640061,-1.479978,0.554692,1.082882,-0.017667,0.632678,0.426932,0.067741,0.464083,-2.211881,0.114248,4.234983,5.020479,2.409016,0.043703,-0.064851,0.000000,-0.225755,-0.048148,-0.000000
1.080000,-2.599703,-1.629211,-1.480151,0.561043,1.087042,-0.016984,0.637529,0.405066,0.069004,0.506068,-2.161197,0.138373,4.159513,5.114317,2.412877,0.041471,-0.065355,0.000000,-0.220566,-0.052611,-0.000000
1.090000,-2.594060,-1.618321,-1.480317,0.567444,1.090985,-0.016286,0.642797,0.383711,0.070508,0.547225,-2.109634,0.162443,4.069453,5.196337,2.398005,0.039292,-0.065903,0.000000,-0.215296,-0.056995,0.000000
1.100000,-2.588354,-1.607392,-1.480477,0.573900,1.094718,-0.015573,0.648471,0.362876,0.072252,0.587409,-2.057310,0.186271,3.964950,5.266711,2.364435,0.037165,-0.066495,0.000000,-0.209955,-0.061282,0.000000
1.110000,-2.582582,-1.596427,-1.480629,0.580415,1.098245,-0.014841,0.654542,0.342567,0.074234,0.626529,-2.004365,0.209847,3.844818,5.326271,2.307708,0.035093,-0.067130,0.000000,-0.204558,-0.065466,0.000000
1.120000,-2.576745,-1.585428,-1.480773,0.586992,1.101571,-0.014087,0.660997,0.322791,0.076447,0.664318,-1.950852,0.232565,3.710698,5.374447,2.232903,0.033074,-0.067805,0.000000,-0.199113,-0.069514,-0.000000
1.130000,-2.570842,-1.574396,-1.480910,0.593636,1.104702,-0.013311,0.667823,0.303551,0.078883,0.700697,-1.896913,0.254447,3.562899,5.411331,2.140604,0.031111,-0.068520,0.000000,-0.193631,-0.073419,-0.000000
1.140000,-2.564872,-1.563335,-1.481040,0.600350,1.107644,-0.012509,0.675006,0.284853,0.081533,0.735532,-1.842662,0.275321,3.401731,5.437015,2.031397,0.029202,-0.069274,0.000000,-0.188124,-0.077165,-0.000000
1.150000,-2.558835,-1.552244,-1.481161,0.607137,1.110401,-0.011680,0.682528,0.266699,0.084385,0.768689,-1.788210,0.295021,3.227501,5.451590,1.905865,0.027348,-0.070064,0.000000,-0.182604,-0.080738,0.000000
1.160000,-2.552729,-1.541127,-1.481273,0.614002,1.112980,-0.010821,0.690374,0.249089,0.087430,0.800088,-1.733676,0.313526,3.039296,5.455379,1.761047,0.025550,-0.070888,0.000000,-0.177080,-0.084130,0.000000
1.170000,-2.546554,-1.529985,-1.481377,0.620946,1.115385,-0.009930,0.698524,0.232025,0.090651,0.829488,-1.679149,0.330351,2.838799,5.448212,1.601510,0.023807,-0.071746,0.000000,-0.171562,-0.087311,-0.000000
1.180000,-2.540310,-1.518820,-1.481472,0.627973,1.117622,-0.009007,0.706957,0.215506,0.094031,0.856824,-1.624748,0.345511,2.626468,5.430153,1.428272,0.022119,-0.072634,0.000000,-0.166061,-0.090275,-0.000000
1.190000,-2.533995,-1.507633,-1.481557,0.635086,1.119697,-0.008049,0.715653,0.199530,0.097555,0.881980,-1.570582,0.358874,2.402764,5.401264,1.242354,0.020485,-0.073551,0.000000,-0.160587,-0.093007,0.000000
1.200000,-2.527608,-1.496427,-1.481632,0.642287,1.121614,-0.007056,0.724589,0.184093,0.101203,0.904843,-1.516759,0.370319,2.168145,5.361607,1.044775,0.018907,-0.074494,0.000000,-0.155150,-0.095496,-0.000000
1.210000,-2.521149,-1.485201,-1.481698,0.649578,1.123380,-0.006025,0.733742,0.169193,0.104956,0.925354,-1.463380,0.379822,1.921889,5.311107,0.834341,0.017382,-0.075461,0.000000,-0.149759,-0.097733,-0.000000
1.220000,-2.514616,-1.473959,-1.481753,0.656962,1.125000,-0.004956,0.743088,0.154824,0.108792,0.943301,-1.410566,0.387074,1.665781,5.249983,0.614557,0.015911,-0.076448,0.000000,-0.144426,-0.099694,-0.000000
1.230000,-2.508009,-1.462702,-1.481797,0.664441,1.126479,-0.003849,0.752600,0.140979,0.112690,0.958639,-1.358416,0.392086,1.400425,5.178313,0.386711,0.014493,-0.077454,0.000000,-0.139161,-0.101373,0.000000
1.240000,-2.501327,-1.451430,-1.481830,0.672015,1.127821,-0.002702,0.762251,0.127653,0.116626,0.971280,-1.307035,0.394785,1.126424,5.096178,0.152094,0.013128,-0.078475,0.000000,-0.133971,-0.102759,0.000000
1.250000,-2.494569,-1.440146,-1.481851,0.679686,1.129033,-0.001516,0.772016,0.114836,0.120577,0.981141,-1.256527,0.395110,0.844384,5.003656,-0.088003,0.011814,-0.079508,0.000000,-0.128869,-0.103841,0.000000
1.260000,-2.487733,-1.428850,-1.481860,0.687455,1.130120,-0.000291,0.781865,0.102519,0.124520,0.988183,-1.206968,0.393038,0.553900,4.900115,-0.332956,0.010550,-0.080551,0.000000,-0.123859,-0.104616,-0.000000
1.270000,-2.480819,-1.417544,-1.481856,0.695323,1.131085,0.000974,0.791770,0.090693,0.128430,0.992241,-1.158527,0.388471,0.256707,4.786434,-0.580728,0.009336,-0.081600,0.000000,-0.118960,-0.105062,-0.000000
1.280000,-2.473826,-1.406229,-1.481840,0.703291,1.131935,0.002278,0.801700,0.079345,0.132281,0.993297,-1.111272,0.381418,-0.046469,4.662782,-0.829945,0.008171,-0.082651,0.000000,-0.114177,-0.105177,0.000000
1.290000,-2.466753,-1.394906,-1.481811,0.711357,1.132674,0.003619,0.811625,0.068463,0.136050,0.991295,-1.065304,0.371872,-0.354901,4.529324,-1.079237,0.007052,-0.083702,0.000000,-0.109521,-0.104954,-0.000000
1.300000,-2.459599,-1.383576,-1.481768,0.719523,1.133306,0.004998,0.821515,0.058034,0.139710,0.986184,-1.020718,0.359838,-0.667862,4.386229,-1.327231,0.005980,-0.084749,0.000000,-0.105000,-0.104387,0.000000
1.310000,-2.452362,-1.372240,-1.481711,0.727788,1.133836,0.006413,0.831339,0.048044,0.143238,0.977950,-0.977557,0.345301,-0.985269,4.232298,-1.571674,0.004952,-0.085789,0.000000,-0.100618,-0.103472,-0.000000
1.320000,-2.445043,-1.360899,-1.481639,0.736150,1.134268,0.007862,0.841064,0.038478,0.146608,0.966498,-0.936041,0.328378,-1.305672,4.069231,-1.812184,0.003967,-0.086817,0.000000,-0.096399,-0.102199,0.000000
1.330000,-2.437639,-1.349555,-1.481553,0.744608,1.134607,0.009345,0.850658,0.029318,0.149798,0.951829,-0.896201,0.309075,-1.628265,3.897362,-2.047495,0.003023,-0.087831,0.000000,-0.092344,-0.100568,0.000000
1.340000,-2.430150,-1.338207,-1.481452,0.753162,1.134856,0.010858,0.860090,0.020548,0.152782,0.933928,-0.858122,0.287450,-1.952242,3.717025,-2.276344,0.002119,-0.088827,0.000000,-0.088463,-0.098577,-0.000000
1.350000,-2.422575,-1.326858,-1.481336,0.761809,1.135019,0.012400,0.869326,0.012149,0.155539,0.912783,-0.821888,0.263574,-2.276797,3.528555,-2.497468,0.001253,-0.089802,0.000000,-0.084764,-0.096223,0.000000
1.360000,-2.414914,-1.315507,-1.481204,0.770548,1.135100,0.013968,0.878335,0.004104,0.158045,0.888403,-0.787521,0.237443,-2.601380,3.330876,-2.707393,0.000423,-0.090751,0.000000,-0.081249,-0.093508,-0.000000
1.370000,-2.407164,-1.304156,-1.481057,0.779375,1.135102,0.015560,0.887083,-0.003608,0.160281,0.860770,-0.755232,0.209361,-2.924899,3.125905,-2.907334,-0.000372,-0.091671,0.000000,-0.077941,-0.090432,0.000000
1.380000,-2.399326,-1.292806,-1.480893,0.788289,1.135029,0.017172,0.895539,-0.011007,0.162226,0.829911,-0.725026,0.179333,-3.246515,2.914150,-3.096297,-0.001136,-0.092558,0.000000,-0.074840,-0.086997,0.000000
1.390000,-2.391398,-1.281456,-1.480713,0.797285,1.134883,0.018803,0.903671,-0.018115,0.163862,0.795849,-0.696970,0.147475,-3.565392,2.696117,-3.273289,-0.001870,-0.093409,0.000000,-0.071953,-0.083206,0.000000
1.400000,-2.383380,-1.270108,-1.480517,0.806361,1.134667,0.020449,0.911446,-0.024954,0.165170,0.758615,-0.671123,0.113910,-3.880692,2.472313,-3.437315,-0.002576,-0.094221,0.000000,-0.069286,-0.079065,-0.000000
1.410000,-2.375270,-1.258763,-1.480304,0.815513,1.134385,0.022105,0.918832,-0.031545,0.166133,0.718241,-0.647490,0.078650,-4.191365,2.241967,-3.584229,-0.003256,-0.094990,0.000000,-0.066840,-0.074576,-0.000000
1.420000,-2.367069,-1.247421,-1.480075,0.824736,1.134037,0.023770,0.925800,-0.037912,0.166738,0.674796,-0.626242,0.042133,-4.496813,2.007021,-3.716576,-0.003913,-0.095712,0.000000,-0.064634,-0.069752,0.000000
1.430000,-2.358776,-1.236082,-1.479829,0.834027,1.133627,0.025439,0.932318,-0.044078,0.166972,0.628325,-0.607363,0.004369,-4.796225,1.768139,-3.833750,-0.004550,-0.096384,0.000000,-0.062665,-0.064598,0.000000
1.440000,-2.350389,-1.224748,-1.479566,0.843381,1.133156,0.027108,0.938357,-0.050067,0.166822,0.578894,-0.590890,-0.034489,-5.088788,1.525985,-3.935141,-0.005167,-0.097002,0.000000,-0.060938,-0.059123,0.000000
1.450000,-2.341908,-1.213419,-1.479287,0.852793,1.132626,0.028774,0.943887,-0.055904,0.166279,0.526575,-0.576852,-0.074279,-5.373692,1.281223,-4.020143,-0.005769,-0.097565,0.000000,-0.059455,-0.053337,-0.000000
1.460000,-2.333333,-1.202096,-1.478991,0.862257,1.132039,0.030432,0.948879,-0.061612,0.165332,0.471405,-0.565239,-0.114978,-5.649028,1.033698,-4.084535,-0.006357,-0.098068,0.000000,-0.058217,-0.047246,0.000000
1.470000,-2.324662,-1.190779,-1.478678,0.871768,1.131394,0.032079,0.953306,-0.067217,0.163978,0.413576,-0.556145,-0.156074,-5.915216,0.784992,-4.131765,-0.006934,-0.098509,0.000000,-0.057233,-0.040876,-0.000000
1.480000,-2.315897,-1.179468,-1.478349,0.881321,1.130695,0.033711,0.957141,-0.072743,0.162210,0.353133,-0.549541,-0.197556,-6.171580,0.535869,-4.161667,-0.007503,-0.098885,0.000000,-0.056500,-0.034233,0.000000
1.490000,-2.307036,-1.168165,-1.478004,0.890909,1.129940,0.035322,0.960360,-0.078216,0.160026,0.290179,-0.545427,-0.239249,-6.417443,0.287095,-4.174076,-0.008065,-0.099193,0.000000,-0.056018,-0.027332,0.000000
1.500000,-2.298079,-1.156870,-1.477643,0.900526,1.129130,0.036910,0.962937,-0.083660,0.157425,0.224822,-0.543795,-0.280978,-6.652129,0.039431,-4.168827,-0.008624,-0.099431,0.000000,-0.055786,-0.020186,0.000000
1.510000,-2.289025,-1.145583,-1.477266,0.910166,1.128267,0.038469,0.964848,-0.089100,0.154405,0.157120,-0.544627,-0.322705,-6.873550,-0.206482,-4.142238,-0.009182,-0.099596,0.000000,-0.055802,-0.012804,-0.000000
1.520000,-2.279875,-1.134304,-1.476873,0.919821,1.127348,0.039997,0.966072,-0.094561,0.150972,0.087329,-0.547911,-0.363922,-7.082613,-0.449740,-4.098090,-0.009741,-0.099686,0.000000,-0.056066,-0.005220,0.000000
1.530000,-2.270629,-1.123036,-1.476466,0.929485,1.126375,0.041487,0.966588,-0.100066,0.147128,0.015511,-0.553610,-0.404610,-7.278813,-0.689563,-4.036650,-0.010304,-0.099699,0.000000,-0.056573,0.002558,-0.000000
1.540000,-2.261286,-1.111777,-1.476044,0.939150,1.125347,0.042938,0.966376,-0.105641,0.142882,-0.058203,-0.561688,-0.444598,-7.461646,-0.925173,-3.958183,-0.010873,-0.099634,0.000000,-0.057319,0.010512,-0.000000
1.550000,-2.251846,-1.100529,-1.475607,0.948810,1.124262,0.044344,0.965418,-0.111308,0.138239,-0.133676,-0.572097,-0.483717,-7.630607,-1.155791,-3.862954,-0.011451,-0.099489,0.000000,-0.058300,0.018627,0.000000
1.560000,-2.242310,-1.089292,-1.475157,0.958456,1.123120,0.045701,0.963697,-0.117090,0.133210,-0.210821,-0.584809,-0.521918,-7.783829,-1.380004,-3.748299,-0.012040,-0.099261,0.000000,-0.059511,0.026889,0.000000
1.570000,-2.232677,-1.078067,-1.474693,0.968081,1.121920,0.047007,0.961197,-0.123011,0.127805,-0.289364,-0.599704,-0.558761,-7.922338,-1.597743,-3.617773,-0.012642,-0.098950,0.000000,-0.060941,0.035265,-0.000000
1.580000,-2.222948,-1.066854,-1.474217,0.977677,1.120659,0.048256,0.957905,-0.129092,0.122039,-0.369217,-0.616740,-0.594223,-8.045797,-1.808306,-3.471999,-0.013260,-0.098555,0.000000,-0.062585,0.043744,0.000000
1.590000,-2.213123,-1.055654,-1.473729,0.987236,1.119337,0.049446,0.953809,-0.135353,0.115926,-0.450229,-0.635844,-0.628153,-8.153869,-2.010990,-3.311602,-0.013894,-0.098075,0.000000,-0.064434,0.052308,0.000000
1.600000,-2.203203,-1.044467,-1.473228,0.996751,1.117952,0.050574,0.948897,-0.141815,0.109482,-0.532242,-0.656932,-0.660408,-8.246216,-2.205094,-3.137206,-0.014549,-0.097509,0.000000,-0.066482,0.060937,-0.000000
1.610000,-2.193189,-1.033295,-1.472717,1.006212,1.116500,0.051635,0.943160,-0.148498,0.102723,-0.615176,-0.679962,-0.690932,-8.320580,-2.388727,-2.947424,-0.015225,-0.096856,0.000000,-0.068722,0.069623,-0.000000
1.620000,-2.183079,-1.022138,-1.472196,1.015611,1.114981,0.052627,0.936591,-0.155420,0.095669,-0.698686,-0.704726,-0.719405,-8.378780,-2.562520,-2.745138,-0.015924,-0.096116,0.000000,-0.071133,0.078325,0.000000
1.630000,-2.172877,-1.010996,-1.471665,1.024941,1.113391,0.053547,0.929185,-0.162599,0.088342,-0.782697,-0.731177,-0.745796,-8.420714,-2.725918,-2.531219,-0.016648,-0.095289,0.000000,-0.073711,0.087036,0.000000
1.640000,-2.162581,-0.999870,-1.471125,1.034192,1.111728,0.054393,0.920936,-0.170049,0.080761,-0.867046,-0.759208,-0.769993,-8.446282,-2.878364,-2.306537,-0.017399,-0.094375,0.000000,-0.076444,0.095736,-0.000000
1.650000,-2.152193,-0.988761,-1.470577,1.043357,1.109989,0.055162,0.911843,-0.177788,0.072949,-0.951568,-0.788706,-0.791893,-8.455380,-3.019302,-2.071964,-0.018177,-0.093374,0.000000,-0.079321,0.104410,-0.000000
1.660000,-2.141714,-0.977670,-1.470022,1.052426,1.108171,0.055851,0.901904,-0.185829,0.064931,-1.036167,-0.819627,-0.811438,-8.446163,-3.146345,-1.827457,-0.018986,-0.092287,0.000000,-0.082337,0.113045,0.000000
1.670000,-2.131145,-0.966598,-1.469461,1.061392,1.106272,0.056460,0.891120,-0.194184,0.056729,-1.120514,-0.851674,-0.828457,-8.420486,-3.260991,-1.574912,-0.019824,-0.091113,0.000000,-0.085462,0.121608,-0.000000
1.680000,-2.120487,-0.955545,-1.468893,1.070246,1.104287,0.056985,0.879495,-0.202866,0.048370,-1.204522,-0.884804,-0.842913,-8.378463,-3.362907,-1.315310,-0.020695,-0.089855,0.000000,-0.088693,0.130089,0.000000
1.690000,-2.109740,-0.944513,-1.468321,1.078979,1.102213,0.057427,0.867032,-0.211883,0.039879,-1.288029,-0.918888,-0.854742,-8.320203,-3.451762,-1.049634,-0.021599,-0.088511,0.000000,-0.092015,0.138474,-0.000000
1.700000,-2.098907,-0.933501,-1.467745,1.087584,1.100048,0.057783,0.853737,-0.221246,0.031284,-1.370873,-0.953795,-0.863889,-8.245820,-3.527223,-0.778866,-0.022536,-0.087085,0.000000,-0.095417,0.146746,-0.000000
1.710000,-2.087989,-0.922512,-1.467166,1.096051,1.097787,0.058052,0.839616,-0.230962,0.022611,-1.452939,-0.989459,-0.870299,-8.154236,-3.587131,-0.504155,-0.023507,-0.085576,0.000000,-0.098893,0.154895,0.000000
1.720000,-2.076987,-0.911546,-1.466584,1.104373,1.095427,0.058235,0.824681,-0.241037,0.013887,-1.533958,-1.025573,-0.873954,-8.046898,-3.633204,-0.226296,-0.024514,-0.083986,0.000000,-0.102410,0.162895,-0.000000
1.730000,-2.065902,-0.900604,-1.466001,1.112542,1.092965,0.058330,0.808941,-0.251475,0.005141,-1.613826,-1.062077,-0.874818,-7.924062,-3.665334,0.053749,-0.025556,-0.082318,0.000000,-0.105965,0.170737,-0.000000
1.740000,-2.054737,-0.889687,-1.465418,1.120549,1.090397,0.058338,0.792409,-0.262279,-0.003600,-1.692388,-1.098832,-0.872875,-7.785985,-3.683411,0.335018,-0.026633,-0.080571,0.000000,-0.109544,0.178408,-0.000000
1.750000,-2.043492,-0.878796,-1.464835,1.128388,1.087718,0.058258,0.775098,-0.273452,-0.012307,-1.769495,-1.135698,-0.868117,-7.632926,-3.687327,0.616549,-0.027747,-0.078749,0.000000,-0.113133,0.185895,-0.000000
1.760000,-2.032169,-0.867933,-1.464253,1.136049,1.084926,0.058092,0.757024,-0.284994,-0.020952,-1.845031,-1.172597,-0.860505,-7.464303,-3.675307,0.896349,-0.028896,-0.076852,0.000000,-0.116727,0.193189,0.000000
1.770000,-2.020771,-0.857098,-1.463673,1.143526,1.082017,0.057839,0.738203,-0.296903,-0.029508,-1.918771,-1.209231,-0.850149,-7.281315,-3.649112,1.174613,-0.030081,-0.074884,0.000000,-0.120295,0.200271,-0.000000
1.780000,-2.009300,-0.846293,-1.463097,1.150810,1.078987,0.057502,0.718655,-0.309178,-0.037946,-1.990611,-1.245533,-0.837021,-7.084321,-3.608839,1.450508,-0.031302,-0.072846,0.000000,-0.123832,0.207132,-0.000000
1.790000,-1.997756,-0.835519,-1.462524,1.157896,1.075832,0.057081,0.698398,-0.321813,-0.046239,-2.060412,-1.281361,-0.821150,-6.873681,-3.554583,1.723196,-0.032557,-0.070740,0.000000,-0.127325,0.213763,-0.000000
1.800000,-1.986142,-0.824777,-1.461955,1.164776,1.072550,0.056578,0.677454,-0.334803,-0.054360,-2.128040,-1.316578,-0.802571,-6.649755,-3.486439,1.991843,-0.033848,-0.068569,0.000000,-0.130762,0.220153,0.000000
1.810000,-1.974461,-0.814068,-1.461392,1.171443,1.069135,0.055994,0.655845,-0.348142,-0.062281,-2.193380,-1.351110,-0.781267,-6.412506,-3.402847,2.254045,-0.035173,-0.066335,0.000000,-0.134137,0.226294,-0.000000
1.820000,-1.962714,-0.803395,-1.460836,1.177891,1.065586,0.055333,0.633594,-0.361822,-0.069977,-2.256266,-1.384664,-0.757438,-6.162741,-3.305761,2.510727,-0.036530,-0.064041,0.000000,-0.137420,0.232173,-0.000000
1.830000,-1.950904,-0.792757,-1.460286,1.184113,1.061898,0.054596,0.610728,-0.375832,-0.077421,-2.316594,-1.417181,-0.731073,-5.900866,-3.195479,2.761245,-0.037921,-0.061690,0.000000,-0.140609,0.237785,-0.000000
1.840000,-1.939033,-0.782157,-1.459744,1.190103,1.058068,0.053785,0.587271,-0.390162,-0.084590,-2.374244,-1.448531,-0.702236,-5.627292,-3.072299,3.004955,-0.039342,-0.059283,0.000000,-0.143691,0.243121,-0.000000
1.850000,-1.927103,-0.771596,-1.459210,1.195857,1.054093,0.052905,0.563252,-0.404798,-0.091458,-2.429102,-1.478585,-0.670999,-5.342425,-2.936520,3.241214,-0.040794,-0.056825,0.000000,-0.146655,0.248172,0.000000
1.860000,-1.915116,-0.761076,-1.458686,1.201367,1.049971,0.051957,0.538699,-0.419729,-0.098001,-2.481057,-1.507266,-0.637370,-5.046656,-2.787271,3.467646,-0.042275,-0.054317,0.000000,-0.149495,0.252932,-0.000000
1.870000,-1.903076,-0.750597,-1.458172,1.206629,1.045698,0.050946,0.513641,-0.434939,-0.104198,-2.530001,-1.534343,-0.601597,-4.740415,-2.626162,3.685553,-0.043784,-0.051762,0.000000,-0.152189,0.257395,0.000000
1.880000,-1.890985,-0.740162,-1.457667,1.211638,1.041271,0.049874,0.488109,-0.450410,-0.110026,-2.575832,-1.559751,-0.563689,-4.424113,-2.453634,3.894502,-0.045318,-0.049165,0.000000,-0.154732,0.261553,0.000000
1.890000,-1.878844,-0.729772,-1.457174,1.216390,1.036689,0.048747,0.462135,-0.466128,-0.115465,-2.618451,-1.583379,-0.523738,-4.098161,-2.270126,4.094062,-0.046878,-0.046527,0.000000,-0.157113,0.265400,0.000000
1.900000,-1.866658,-0.719429,-1.456693,1.220879,1.031948,0.047566,0.435751,-0.482072,-0.120494,-2.657765,-1.605119,-0.481840,-3.762971,-2.076080,4.283801,-0.048460,-0.043852,0.000000,-0.159325,0.268931,-0.000000
1.910000,-1.854428,-0.709134,-1.456223,1.225103,1.027047,0.046338,0.408991,-0.498224,-0.125095,-2.693674,-1.624898,-0.438035,-3.419148,-1.871146,4.461744,-0.050064,-0.041143,0.000000,-0.161361,0.272139,-0.000000
1.920000,-1.842157,-0.698889,-1.455766,1.229058,1.021983,0.045066,0.381890,-0.514563,-0.129249,-2.726111,-1.642545,-0.392571,-3.066884,-1.656652,4.629193,-0.051687,-0.038403,0.000000,-0.163204,0.275021,-0.000000
1.930000,-1.829847,-0.688695,-1.455322,1.232740,1.016755,0.043755,0.354481,-0.531067,-0.132941,-2.754985,-1.658001,-0.345487,-2.706566,-1.433137,4.785906,-0.053327,-0.035636,0.000000,-0.164850,0.277570,-0.000000
1.940000,-1.817503,-0.678554,-1.454891,1.236147,1.011361,0.042409,0.326802,-0.547715,-0.136154,-2.780216,-1.671180,-0.296890,-2.338582,-1.201139,4.931639,-0.054983,-0.032845,0.000000,-0.166292,0.279782,-0.000000
1.950000,-1.805125,-0.668468,-1.454474,1.239275,1.005800,0.041033,0.298889,-0.564483,-0.138874,-2.801732,-1.681998,-0.246892,-1.963318,-0.961196,5.066152,-0.056652,-0.030033,0.000000,-0.167522,0.281651,0.000000
1.960000,-1.792718,-0.658439,-1.454070,1.242124,1.000071,0.039633,0.270780,-0.581347,-0.141087,-2.819450,-1.690392,-0.195562,-1.581399,-0.713515,5.188105,-0.058333,-0.027204,0.000000,-0.168536,0.283173,-0.000000
1.970000,-1.780284,-0.648467,-1.453681,1.244690,0.994173,0.038213,0.242513,-0.598282,-0.142781,-2.833327,-1.696260,-0.143119,-1.192945,-0.459005,5.298486,-0.060022,-0.024362,0.000000,-0.169322,0.284345,0.000000
1.980000,-1.767825,-0.638556,-1.453306,1.246974,0.988105,0.036779,0.214127,-0.615264,-0.143946,-2.843289,-1.699551,-0.089631,-0.798315,-0.198245,5.397188,-0.061718,-0.021508,0.000000,-0.169877,0.285162,-0.000000
1.990000,-1.755345,-0.628706,-1.452946,1.248973,0.981868,0.035336,0.185660,-0.632265,-0.144571,-2.849274,-1.700206,-0.035215,-0.397866,0.068187,5.484103,-0.063419,-0.018649,0.000000,-0.170195,0.285619,0.000000
2.000000,-1.742847,-0.618919,-1.452600,1.250687,0.975460,0.033890,0.157155,-0.649259,-0.144648,-2.851228,-1.698170,0.020011,0.008044,0.339713,5.559122,-0.065121,-0.015786,0.000000,-0.170271,0.285712,-0.000000
2.010000,-1.730332,-0.609197,-1.452268,1.252116,0.968883,0.032445,0.128650,-0.666219,-0.144168,-2.849093,-1.693396,0.075949,0.418979,0.615736,5.621612,-0.066823,-0.012923,0.000000,-0.170101,0.285436,-0.000000
2.020000,-1.717805,-0.599542,-1.451951,1.253260,0.962136,0.031008,0.100186,-0.683118,-0.143127,-2.842829,-1.685842,0.132427,0.834669,0.895699,5.672056,-0.068523,-0.010065,0.000000,-0.169681,0.284789,0.000000
2.030000,-1.705268,-0.589955,-1.451648,1.254120,0.955221,0.029584,0.071807,-0.699926,-0.141518,-2.832385,-1.675471,0.189349,1.254765,1.179024,5.710409,-0.070216,-0.007216,0.000000,-0.169006,0.283765,-0.000000
2.040000,-1.692724,-0.580438,-1.451359,1.254696,0.948138,0.028180,0.043553,-0.716617,-0.139339,-2.817720,-1.662252,0.246595,1.678918,1.465134,5.736627,-0.071902,-0.004377,0.000000,-0.168073,0.282361,0.000000
2.050000,-1.680175,-0.570993,-1.451084,1.254991,0.940889,0.026800,0.015467,-0.733162,-0.136586,-2.798795,-1.646161,0.304041,2.106780,1.753455,5.750667,-0.073577,-0.001555,0.000000,-0.166879,0.280573,-0.000000
2.060000,-1.667625,-0.561621,-1.450823,1.255007,0.933475,0.025450,-0.012409,-0.749531,-0.133258,-2.775586,-1.627183,0.361567,2.538328,2.043538,5.752494,-0.075238,0.001248,0.000000,-0.165422,0.278398,-0.000000
2.070000,-1.655076,-0.552324,-1.450575,1.254744,0.925899,0.024136,-0.040031,-0.765696,-0.129354,-2.748033,-1.605292,0.419050,2.972847,2.334662,5.742054,-0.076884,0.004027,0.000000,-0.163698,0.275828,-0.000000
2.080000,-1.642531,-0.543103,-1.450340,1.254207,0.918162,0.022865,-0.067355,-0.781627,-0.124877,-2.716121,-1.580488,0.476367,3.409951,2.626235,5.719303,-0.078512,0.006780,0.000000,-0.161707,0.272862,-0.000000
2.090000,-1.629993,-0.533961,-1.450117,1.253398,0.910267,0.021641,-0.094338,-0.797296,-0.119828,-2.679826,-1.552768,0.533395,3.849251,2.917664,5.684195,-0.080118,0.009500,0.000000,-0.159446,0.269495,-0.000000
2.100000,-1.617464,-0.524899,-1.449907,1.252321,0.902217,0.020470,-0.120937,-0.812673,-0.114211,-2.639130,-1.522137,0.590010,4.290358,3.208357,5.636687,-0.081700,0.012185,0.000000,-0.156915,0.265724,-0.000000
2.110000,-1.604947,-0.515917,-1.449708,1.250981,0.894015,0.019358,-0.147106,-0.827729,-0.108030,-2.594027,-1.488629,0.646074,4.733203,3.498329,5.577072,-0.083255,0.014831,0.000000,-0.154115,0.261546,-0.000000
2.120000,-1.592445,-0.507019,-1.449520,1.249381,0.885664,0.018311,-0.172803,-0.842436,-0.101291,-2.544476,-1.452204,0.701494,5.177039,3.786307,5.504924,-0.084781,0.017433,0.000000,-0.151040,0.256954,-0.000000
2.130000,-1.579960,-0.498204,-1.449341,1.247526,0.877167,0.017334,-0.197981,-0.856764,-0.094003,-2.490484,-1.412912,0.756130,5.621441,4.071623,5.420160,-0.086275,0.019987,0.000000,-0.147693,0.251947,0.000000
2.140000,-1.567496,-0.489476,-1.449173,1.245423,0.868530,0.016433,-0.222597,-0.870685,-0.086172,-2.432047,-1.370783,0.809855,6.065980,4.353612,5.322691,-0.087734,0.022490,0.000000,-0.144075,0.246520,0.000000
2.150000,-1.555053,-0.480834,-1.449012,1.243077,0.859755,0.015613,-0.246607,-0.884170,-0.077809,-2.369166,-1.325853,0.862541,6.510231,4.631607,5.212432,-0.089155,0.024935,0.000000,-0.140187,0.240670,-0.000000
2.160000,-1.542635,-0.472281,-1.448860,1.240493,0.850848,0.014879,-0.269966,-0.897193,-0.068925,-2.301881,-1.278219,0.914048,6.954675,4.906269,5.089626,-0.090537,0.027321,0.000000,-0.136035,0.234398,0.000000
2.170000,-1.530244,-0.463818,-1.448715,1.237680,0.841813,0.014236,-0.292630,-0.909725,-0.059532,-2.230117,-1.227805,0.964276,7.397864,5.175441,4.953818,-0.091875,0.029641,0.000000,-0.131609,0.227691,0.000000
2.180000,-1.517882,-0.455445,-1.448575,1.234643,0.832655,0.013690,-0.314554,-0.921740,-0.049644,-2.153930,-1.174731,1.013080,7.839260,5.438295,4.804881,-0.093168,0.031892,0.000000,-0.126917,0.220551,0.000000
2.190000,-1.505552,-0.447165,-1.448440,1.231391,0.823380,0.013245,-0.335694,-0.933211,-0.039276,-2.073340,-1.119063,1.060329,8.278324,5.694002,4.642689,-0.094413,0.034070,0.000000,-0.121963,0.212975,-0.000000
2.200000,-1.493255,-0.438978,-1.448310,1.227932,0.813993,0.012906,-0.356006,-0.944113,-0.028443,-1.988373,-1.060878,1.105890,8.714517,5.941733,4.467115,-0.095607,0.036169,0.000000,-0.116751,0.204960,-0.000000
2.210000,-1.480994,-0.430886,-1.448182,1.224274,0.804500,0.012677,-0.375447,-0.954423,-0.017164,-1.899064,-1.000438,1.149630,9.147381,6.185221,4.277942,-0.096747,0.038186,0.000000,-0.111302,0.196504,-0.000000
2.220000,-1.468770,-0.422888,-1.448056,1.220426,0.794906,0.012564,-0.393973,-0.964114,-0.005457,-1.805442,-0.937411,1.191407,9.576287,6.418517,4.075146,-0.097832,0.040116,0.000000,-0.105580,0.187606,-0.000000
2.230000,-1.456586,-0.414988,-1.447930,1.216398,0.785220,0.012569,-0.411542,-0.973163,0.006657,-1.707553,-0.872107,1.231087,10.000688,6.640233,3.858611,-0.098858,0.041955,0.000000,-0.099611,0.178262,0.000000
2.240000,-1.444443,-0.407184,-1.447804,1.212199,0.775445,0.012698,-0.428110,-0.981549,0.019157,-1.605445,-0.804649,1.268533,10.420034,6.848982,3.628223,-0.099823,0.043698,0.000000,-0.093403,0.168473,-0.000000
2.250000,-1.432342,-0.399479,-1.447676,1.207839,0.765591,0.012954,-0.443637,-0.989250,0.032020,-1.499171,-0.735175,1.303605,10.833777,7.043376,3.383866,-0.100725,0.045340,0.000000,-0.086966,0.158237,0.000000
2.260000,-1.420286,-0.391873,-1.447545,1.203330,0.755662,0.013340,-0.458100,-0.996209,0.045221,-1.390606,-0.660389,1.336196,11.287229,7.135000,3.124596,-0.101558,0.046879,0.000000,-0.079960,0.147738,0.000000
2.270000,-1.408276,-0.384366,-1.447409,1.198681,0.745668,0.013859,-0.471434,-1.002455,0.058735,-1.275515,-0.588611,1.366087,11.728366,7.220151,2.851229,-0.102324,0.048308,0.000000,-0.073224,0.136539,0.000000
2.280000,-1.396313,-0.376960,-1.447267,1.193905,0.735615,0.014515,-0.483595,-1.007978,0.072534,-1.156100,-0.515976,1.393174,12.151024,7.308097,2.563750,-0.103022,0.049623,0.000000,-0.066362,0.124857,0.000000
2.290000,-1.384398,-0.369654,-1.447118,1.189013,0.725511,0.015311,-0.494542,-1.012771,0.086588,-1.032577,-0.442409,1.417315,12.549039,7.408107,2.262144,-0.103651,0.050817,0.000000,-0.059362,0.112707,-0.000000
2.300000,-1.372533,-0.362450,-1.446960,1.184018,0.715362,0.016248,-0.504234,-1.016823,0.100870,-0.905222,-0.367743,1.438369,12.916247,7.529451,1.946399,-0.104209,0.051887,0.000000,-0.052202,0.100110,-0.000000
2.310000,-1.360718,-0.355347,-1.446792,1.178931,0.705181,0.017329,-0.512566,-1.020261,0.115346,-0.768003,-0.304591,1.456315,13.085535,8.006534,1.613477,-0.104708,0.052822,0.000000,-0.046169,0.086442,0.000000
2.320000,-1.348955,-0.348346,-1.446613,1.173769,0.694964,0.018555,-0.519589,-1.022899,0.129985,-0.636404,-0.222127,1.470728,13.231397,8.483676,1.266757,-0.105130,0.053625,0.000000,-0.038104,0.073280,-0.000000
2.330000,-1.337243,-0.341448,-1.446421,1.168544,0.684725,0.019929,-0.525289,-1.024688,0.144749,-0.503408,-0.135019,1.481606,13.367376,8.930332,0.906597,-0.105469,0.054295,0.000000,-0.029500,0.059903,0.000000
2.340000,-1.325584,-0.334652,-1.446214,1.163268,0.674473,0.021451,-0.529653,-1.025585,0.159604,-0.369044,-0.043724,1.488816,13.507018,9.315959,0.533351,-0.105719,0.054829,0.000000,-0.020394,0.046308,0.000000
2.350000,-1.313978,-0.327958,-1.445991,1.157955,0.664217,0.023121,-0.532665,-1.025551,0.174513,-0.233210,0.050995,1.492230,13.663866,9.610011,0.147377,-0.105875,0.055225,0.000000,-0.010859,0.032482,0.000000
2.360000,-1.302425,-0.321367,-1.445751,1.152622,0.653959,0.024941,-0.534422,-1.024330,0.189437,-0.105884,0.169030,1.491789,14.109575,9.252532,-0.252641,-0.105911,0.055493,0.000000,0.001160,0.019450,-0.000000
2.370000,-1.290926,-0.314879,-1.445492,1.147275,0.643726,0.026910,-0.534768,-1.022184,0.204335,0.037501,0.259387,1.487213,14.567973,8.807218,-0.664470,-0.105853,0.055615,0.000000,0.010422,0.004675,-0.000000
2.380000,-1.279479,-0.308493,-1.445212,1.141932,0.633519,0.029027,-0.533657,-1.019158,0.219167,0.185458,0.344995,1.478462,15.021000,8.308350,-1.087550,-0.105704,0.055585,0.000000,0.019280,-0.010666,-0.000000
2.390000,-1.268087,-0.302208,-1.444911,1.136607,0.623346,0.031293,-0.531044,-1.015301,0.233890,0.337843,0.425490,1.465426,15.450593,7.790211,-1.521318,-0.105469,0.055398,0.000000,0.027697,-0.026563,0.000000
2.400000,-1.256747,-0.296026,-1.444586,1.131316,0.613215,0.033705,-0.526886,-1.010665,0.248461,0.494332,0.500850,1.448002,15.838691,7.287084,-1.965214,-0.105152,0.055049,0.000000,0.035670,-0.042985,-0.000000
2.410000,-1.245460,-0.289944,-1.444236,1.126073,0.603138,0.036261,-0.521096,-1.005420,0.262837,0.658932,0.560333,1.426283,16.053232,7.112680,-2.423545,-0.104769,0.054527,0.000000,0.042081,-0.060351,-0.000000
2.420000,-1.234226,-0.283963,-1.443860,1.120898,0.593113,0.038960,-0.513701,-0.999464,0.276971,0.820273,0.630793,1.399720,16.204116,6.987636,-2.890286,-0.104310,0.053834,0.000000,0.049717,-0.077484,0.000000
2.430000,-1.223042,-0.278081,-1.443457,1.115805,0.583151,0.041800,-0.504687,-0.992808,0.290816,0.982788,0.700250,1.368453,16.287239,6.912018,-3.364279,-0.103775,0.052968,0.000000,0.057338,-0.094840,0.000000
2.440000,-1.211909,-0.272299,-1.443024,1.110810,0.573259,0.044776,-0.494044,-0.985460,0.304324,1.145779,0.769199,1.332414,16.298501,6.885894,-3.844367,-0.103163,0.051927,0.000000,0.064994,-0.112346,-0.000000
2.450000,-1.200826,-0.266616,-1.442561,1.105929,0.563444,0.047885,-0.481772,-0.977424,0.317448,1.308505,0.838133,1.291549,16.233798,6.909329,-4.329393,-0.102475,0.050709,0.000000,0.072738,-0.129919,0.000000
2.460000,-1.189790,-0.261030,-1.442066,1.101176,0.553717,0.051123,-0.467761,-0.968861,0.330140,1.480889,0.892334,1.245895,15.818732,7.366722,-4.820247,-0.101726,0.049303,0.000000,0.079024,-0.148594,0.000000
2.470000,-1.178802,-0.255541,-1.441538,1.096575,0.544075,0.054486,-0.452169,-0.959562,0.342350,1.636776,0.968319,1.195228,15.352596,7.826747,-5.313474,-0.100892,0.047723,0.000000,0.087676,-0.165625,-0.000000
2.480000,-1.167858,-0.250148,-1.440976,1.092138,0.534529,0.057968,-0.435042,-0.949480,0.354028,1.787868,1.048721,1.139622,14.864386,8.242408,-5.807666,-0.099970,0.045975,0.000000,0.096880,-0.182226,0.000000
2.490000,-1.156958,-0.244850,-1.440378,1.087880,0.525088,0.061565,-0.416428,-0.938575,0.365126,1.934087,1.132863,1.079076,14.383096,8.566712,-6.301416,-0.098953,0.044062,0.000000,0.106563,-0.198376,-0.000000
2.500000,-1.146100,-0.239646,-1.439744,1.083814,0.515760,0.065269,-0.396376,-0.926814,0.375593,2.075649,1.219594,1.013600,13.937723,8.752663,-6.793314,-0.097838,0.041989,0.000000,0.116602,-0.214086,0.000000
2.510000,-1.135281,-0.234535,-1.439072,1.079963,0.506545,0.069074,-0.375146,-0.913832,0.385383,2.193088,1.339285,0.943423,14.061651,7.945352,-7.287065,-0.096584,0.039784,0.000000,0.130191,-0.227287,-0.000000
2.520000,-1.124500,-0.229515,-1.438362,1.076323,0.497475,0.072974,-0.352509,-0.900058,0.394445,2.334472,1.414124,0.868105,14.217724,7.004627,-7.775524,-0.095237,0.037422,0.000000,0.139135,-0.243037,0.000000
2.530000,-1.113754,-0.224585,-1.437613,1.072917,0.488546,0.076961,-0.328451,-0.885583,0.402729,2.477441,1.479106,0.787937,14.373178,5.982423,-8.256657,-0.093805,0.034900,0.000000,0.147098,-0.258969,0.000000
2.540000,-1.103041,-0.219744,-1.436823,1.069759,0.479765,0.081026,-0.302955,-0.870510,0.410188,2.621824,1.533674,0.703003,14.495247,4.930672,-8.728429,-0.092298,0.032219,0.000000,0.154009,-0.275050,-0.000000
2.550000,-1.092358,-0.214989,-1.435992,1.066863,0.471138,0.085161,-0.276011,-0.854944,0.416774,2.767125,1.577794,0.613406,14.551165,3.901308,-9.188808,-0.090728,0.029376,0.000000,0.159853,-0.291213,-0.000000
2.560000,-1.081703,-0.210320,-1.435119,1.064240,0.462673,0.089358,-0.247473,-0.839194,0.422442,2.925425,1.592916,0.519346,14.182160,3.426963,-9.637654,-0.089126,0.026356,0.000000,0.162652,-0.308724,0.000000
2.570000,-1.071072,-0.205735,-1.434205,1.061914,0.454362,0.093607,-0.217517,-0.823101,0.427146,3.065016,1.625098,0.420790,13.721391,3.020012,-10.070807,-0.087477,0.023178,0.000000,0.167271,-0.324202,0.000000
2.580000,-1.060463,-0.201232,-1.433247,1.059894,0.446212,0.097898,-0.186189,-0.806705,0.430843,3.199571,1.653518,0.317990,13.176010,2.673527,-10.486001,-0.085782,0.019849,0.000000,0.171498,-0.339078,-0.000000
2.590000,-1.049873,-0.196810,-1.432247,1.058194,0.438228,0.102220,-0.153545,-0.790041,0.433492,3.328278,1.678747,0.211137,12.553171,2.380581,-10.880970,-0.084048,0.016374,0.000000,0.175383,-0.353244,-0.000000
2.600000,-1.039298,-0.192467,-1.431203,1.056827,0.430412,0.106564,-0.119645,-0.773139,0.435053,3.450400,1.701285,0.100446,11.860025,2.134245,-11.253448,-0.082276,0.012762,0.000000,0.178969,-0.366604,-0.000000
2.610000,-1.028735,-0.188202,-1.430115,1.055805,0.422767,0.110918,-0.084534,-0.756037,0.435489,3.567749,1.720246,-0.013923,11.041078,1.960898,-11.599310,-0.080471,0.009017,0.000000,0.182153,-0.379331,-0.000000
2.620000,-1.018181,-0.184011,-1.428984,1.055139,0.415293,0.115270,-0.048319,-0.738739,0.434764,3.673857,1.739112,-0.131534,10.173802,1.816229,-11.918377,-0.078633,0.005154,0.000000,0.185294,-0.390719,0.000000
2.630000,-1.007631,-0.179895,-1.427810,1.054842,0.407993,0.119609,-0.011086,-0.721259,0.432848,3.771113,1.756629,-0.252194,9.273022,1.689233,-12.208612,-0.076765,0.001182,0.000000,0.188249,-0.401007,0.000000
2.640000,-0.997083,-0.175851,-1.426592,1.054921,0.400868,0.123923,0.027073,-0.703611,0.429711,3.859255,1.772919,-0.375604,8.353561,1.568903,-12.467977,-0.074869,-0.002886,0.000000,0.191022,-0.410151,-0.000000
2.650000,-0.986532,-0.171877,-1.425332,1.055386,0.393921,0.128199,0.066068,-0.685805,0.425327,3.938171,1.787993,-0.501444,7.430245,1.444234,-12.694433,-0.072946,-0.007040,0.000000,0.193604,-0.418127,0.000000
2.660000,-0.975974,-0.167972,-1.424028,1.056246,0.387152,0.132425,0.105743,-0.667851,0.419674,4.002130,1.802149,-0.629471,6.663564,1.294195,-12.883552,-0.070997,-0.011260,0.000000,0.196020,-0.424317,0.000000
2.670000,-0.965405,-0.164134,-1.422683,1.057505,0.380564,0.136588,0.146085,-0.649767,0.412732,4.064966,1.814240,-0.759100,5.904839,1.119033,-13.035980,-0.069026,-0.015544,0.000000,0.198138,-0.430182,-0.000000
2.680000,-0.954822,-0.160360,-1.421297,1.059170,0.374157,0.140675,0.187018,-0.631572,0.404488,4.120243,1.824414,-0.890062,5.151058,0.908970,-13.149972,-0.067035,-0.019881,0.000000,0.199968,-0.435033,0.000000
2.690000,-0.944221,-0.156650,-1.419870,1.061247,0.367933,0.144674,0.228465,-0.613287,0.394928,4.167994,1.832271,-1.021965,4.399208,0.654229,-13.223783,-0.065028,-0.024261,0.000000,0.201462,-0.438871,-0.000000
2.700000,-0.933596,-0.153001,-1.418404,1.063741,0.361892,0.148570,0.270352,-0.594936,0.384046,4.208224,1.837317,-1.154398,3.646277,0.345031,-13.255667,-0.063007,-0.028674,0.000000,0.202562,-0.441696,-0.000000
2.710000,-0.922944,-0.149411,-1.416899,1.066655,0.356031,0.152350,0.312603,-0.576429,0.371837,4.240743,1.850292,-1.287222,2.893362,-0.314678,-13.236579,-0.060965,-0.033109,0.000000,0.204398,-0.443489,-0.000000
2.720000,-0.912262,-0.145880,-1.415357,1.069994,0.350359,0.156002,0.355142,-0.557953,0.358303,4.265882,1.843673,-1.419307,2.132837,-1.013345,-13.172969,-0.058922,-0.037557,0.000000,0.204060,-0.444292,0.000000
2.730000,-0.901543,-0.142404,-1.413779,1.073759,0.344872,0.159512,0.397895,-0.539579,0.343453,4.283363,1.829979,-1.550530,1.361188,-1.725694,-13.063987,-0.056887,-0.042007,0.000000,0.202874,-0.444084,-0.000000
2.740000,-0.890785,-0.138981,-1.412167,1.077952,0.339567,0.162867,0.440783,-0.521377,0.327297,4.293057,1.809198,-1.680433,0.574899,-2.426449,-12.908780,-0.054867,-0.046449,0.000000,0.200843,-0.442862,0.000000
2.750000,-0.879983,-0.135612,-1.410523,1.082575,0.334443,0.166054,0.483729,-0.503418,0.309851,4.294800,1.781573,-1.808549,-0.229546,-3.090332,-12.706498,-0.052873,-0.050874,0.000000,0.197998,-0.440623,0.000000
2.760000,-0.869132,-0.132292,-1.408847,1.087626,0.329500,0.169060,0.526676,-0.485848,0.291129,4.290567,1.740118,-1.934820,-1.110560,-3.503121,-12.445749,-0.050919,-0.055273,0.000000,0.193619,-0.437588,0.000000
2.770000,-0.858229,-0.129021,-1.407142,1.093107,0.324728,0.171872,0.569511,-0.468628,0.271164,4.274978,1.703290,-2.057776,-2.010039,-3.851624,-12.137514,-0.049002,-0.059634,0.000000,0.189640,-0.433219,-0.000000
2.780000,-0.847268,-0.125797,-1.405410,1.099016,0.320126,0.174479,0.612145,-0.451793,0.249985,4.250316,1.663307,-2.177414,-2.924776,-4.133698,-11.782233,-0.047127,-0.063945,0.000000,0.185253,-0.427778,0.000000
2.790000,-0.836247,-0.122618,-1.403653,1.105349,0.315691,0.176868,0.654487,-0.435370,0.227628,4.216443,1.620844,-2.293265,-3.851565,-4.347205,-11.380346,-0.045298,-0.068195,0.000000,0.180538,-0.421275,0.000000
2.800000,-0.825160,-0.119483,-1.401874,1.112104,0.311417,0.179028,0.696443,-0.419382,0.204134,4.173255,1.576598,-2.404867,-4.787199,-4.490005,-10.932292,-0.043517,-0.072375,0.000000,0.175575,-0.413729,0.000000
2.810000,-0.814004,-0.116389,-1.400074,1.119275,0.307304,0.180947,0.737954,-0.403940,0.179542,4.123764,1.522228,-2.512196,-5.806380,-4.331151,-10.427466,-0.041797,-0.076478,0.000000,0.169515,-0.405474,0.000000
2.820000,-0.802773,-0.113336,-1.398256,1.126860,0.303340,0.182615,0.778884,-0.388931,0.153907,4.060629,1.479917,-2.613763,-6.818454,-4.125326,-9.878705,-0.040126,-0.080488,0.000000,0.164651,-0.395795,-0.000000
2.830000,-0.791465,-0.110322,-1.396422,1.134851,0.299524,0.184022,0.819133,-0.374335,0.127285,3.987461,1.439792,-2.709630,-7.810674,-3.898407,-9.287803,-0.038503,-0.084396,0.000000,0.159967,-0.385095,0.000000
2.840000,-0.780075,-0.107345,-1.394576,1.143240,0.295852,0.185158,0.858601,-0.360128,0.099735,3.904524,1.401933,-2.799384,-8.770294,-3.676273,-8.656553,-0.036926,-0.088193,0.000000,0.155474,-0.373435,-0.000000
