time,x,y,z,vx,vy,vz,ax,ay,az,jx,jy,jz,sx,sy,sz,roll,pitch,yaw,p,q,r
0.000000,-3.299262,-0.215002,-1.466506,-0.009194,0.002573,0.005612,0.644630,-0.129558,-0.078433,-21.431699,3.866533,1.923147,547.005869,-83.815945,-50.473696,-0.013074,-0.065098,0.000000,0.385750,2.145371,0.000000
0.010000,-3.299325,-0.214982,-1.466453,-0.003732,0.001457,0.004916,0.456253,-0.094865,-0.061603,-16.381153,3.093431,1.454504,464.550848,-71.032758,-43.374121,-0.009599,-0.046186,0.000000,0.310858,1.649013,0.000000
0.020000,-3.299342,-0.214972,-1.466407,0.000086,0.000652,0.004366,0.314402,-0.067286,-0.049118,-12.112468,2.441430,1.053341,390.559984,-59.584015,-36.971579,-0.006821,-0.031879,0.000000,0.246499,1.223875,0.000000
0.030000,-3.299327,-0.214969,-1.466366,0.002686,0.000092,0.003921,0.211673,-0.045676,-0.040334,-8.543213,1.897537,0.712869,324.591291,-49.399455,-31.229984,-0.004636,-0.021486,0.000000,0.192166,0.865338,-0.000000
0.040000,-3.299291,-0.214970,-1.466329,0.004428,-0.000278,0.003548,0.141466,-0.029016,-0.034679,-5.595375,1.449461,0.426658,266.202804,-40.408816,-26.113269,-0.002947,-0.014369,0.000000,0.147065,0.567623,-0.000000
0.050000,-3.299240,-0.214974,-1.466295,0.005605,-0.000502,0.003219,0.097940,-0.016406,-0.031641,-3.195358,1.085615,0.188642,214.952953,-32.541815,-21.585198,-0.001667,-0.009951,0.000000,0.110265,0.324454,0.000000
0.060000,-3.299180,-0.214979,-1.466264,0.006458,-0.000617,0.002908,0.075964,-0.007059,-0.030765,-1.273993,0.795113,-0.006888,170.399258,-25.728213,-17.609837,-0.000717,-0.007719,0.000000,0.080795,0.129458,0.000000
0.070000,-3.299112,-0.214986,-1.466237,0.007181,-0.000652,0.002598,0.071081,-0.000294,-0.031655,0.233475,0.567774,-0.165276,132.099971,-19.897735,-14.151041,-0.000030,-0.007222,0.000000,0.057690,-0.023601,-0.000000
0.080000,-3.299036,-0.214992,-1.466212,0.007924,-0.000630,0.002271,0.079456,0.004475,-0.033963,1.387381,0.394116,-0.291510,99.613153,-14.980116,-11.172743,0.000455,-0.008071,0.000000,0.040021,-0.140689,-0.000000
0.090000,-3.298953,-0.214998,-1.466191,0.008803,-0.000568,0.001915,0.097837,0.007738,-0.037393,2.243640,0.265363,-0.390213,72.496894,-10.905085,-8.638909,0.000786,-0.009935,0.000000,0.026913,-0.227425,0.000000
0.100000,-3.298859,-0.215003,-1.466174,0.009905,-0.000479,0.001520,0.123509,0.009905,-0.041690,2.853745,0.173439,-0.465645,50.308993,-7.602425,-6.513028,0.001005,-0.012536,0.000000,0.017552,-0.289032,0.000000
0.110000,-3.298754,-0.215008,-1.466161,0.011290,-0.000372,0.001079,0.154249,0.011305,-0.046641,3.264774,0.110974,-0.521713,32.607789,-5.001815,-4.759510,0.001147,-0.015648,0.000000,0.011191,-0.330316,-0.000000
0.120000,-3.298633,-0.215011,-1.466153,0.013001,-0.000254,0.000585,0.188283,0.012200,-0.052072,3.519383,0.071297,-0.561956,18.951241,-3.033012,-3.342080,0.001237,-0.019089,0.000000,0.007149,-0.355643,-0.000000
0.130000,-3.298493,-0.215013,-1.466149,0.015062,-0.000129,0.000036,0.224243,0.012787,-0.057838,3.655809,0.048442,-0.589554,8.897465,-1.625748,-2.224665,0.001296,-0.022721,0.000000,0.004820,-0.368929,-0.000000
0.140000,-3.298330,-0.215013,-1.466152,0.017489,0.000001,-0.000572,0.261119,0.013207,-0.063830,3.707869,0.037144,-0.607329,2.004645,-0.709755,-1.371243,0.001337,-0.026439,0.000000,0.003665,-0.373637,0.000000
0.150000,-3.298142,-0.215013,-1.466161,0.020285,0.000135,-0.001241,0.298217,0.013553,-0.069960,3.704965,0.032843,-0.617739,-2.168961,-0.214762,-0.745872,0.001371,-0.030175,0.000000,0.003222,-0.372771,-0.000000
0.160000,-3.297923,-0.215011,-1.466177,0.023452,0.000272,-0.001971,0.335118,0.013875,-0.076167,3.672051,0.031679,-0.622874,-4.067739,-0.070607,-0.311295,0.001403,-0.033885,0.000000,0.003097,-0.368873,0.000000
0.170000,-3.297671,-0.215007,-1.466201,0.026986,0.000412,-0.002764,0.371627,0.014187,-0.082406,3.629716,0.030496,-0.624480,-4.130412,-0.206888,-0.032863,0.001433,-0.037549,0.000000,0.002971,-0.364034,-0.000000
0.180000,-3.297382,-0.215002,-1.466233,0.030884,0.000556,-0.003620,0.407735,0.014476,-0.088650,3.594086,0.026840,-0.623929,-2.800140,-0.553399,0.126044,0.001461,-0.041168,0.000000,0.002595,-0.359881,0.000000
0.190000,-3.297052,-0.214996,-1.466273,0.035140,0.000702,-0.004537,0.443571,0.014709,-0.094881,3.576883,0.018961,-0.622237,-0.518836,-1.039883,0.201500,0.001484,-0.044753,0.000000,0.001795,-0.357592,0.000000
0.200000,-3.296678,-0.214988,-1.466324,0.039755,0.000850,-0.005517,0.479359,0.014838,-0.101093,3.585403,0.005811,-0.620056,2.271228,-1.596028,0.229719,0.001495,-0.048328,0.000000,0.000466,-0.357893,0.000000
0.210000,-3.296256,-0.214979,-1.466384,0.044723,0.000999,-0.006559,0.513413,0.015113,-0.107115,3.173863,0.057106,-0.579522,-3.740522,-0.766653,1.000938,0.001522,-0.051724,0.000000,0.005637,-0.316166,0.000000
0.220000,-3.295783,-0.214968,-1.466455,0.050026,0.001151,-0.007660,0.549205,0.014982,-0.113216,4.254221,-0.125605,-0.663304,141.377771,-23.525277,-11.087978,0.001507,-0.055289,0.000000,-0.012774,-0.423716,-0.000000
0.230000,-3.295254,-0.214956,-1.466537,0.055745,0.001292,-0.008826,0.594651,0.013199,-0.120045,4.354465,-0.156168,-0.661242,-123.795729,17.800325,11.708508,0.001327,-0.059813,0.000000,-0.015821,-0.432973,0.000000
0.240000,-3.294666,-0.214943,-1.466632,0.061887,0.001419,-0.010057,0.632041,0.012520,-0.126071,3.364636,-0.017269,-0.564080,4.993593,-2.380018,0.989651,0.001258,-0.063525,0.000000,-0.001833,-0.333667,-0.000000
0.250000,-3.294015,-0.214928,-1.466739,0.068383,0.001542,-0.011347,0.668015,0.011903,-0.131836,3.781660,-0.098672,-0.584274,-0.528809,-1.570497,1.682427,0.001195,-0.067091,0.000000,-0.010003,-0.374737,-0.000000
0.260000,-3.293297,-0.214912,-1.466859,0.075252,0.001656,-0.012694,0.705706,0.010857,-0.137589,3.753099,-0.109892,-0.566050,-1.450115,-1.441508,1.938276,0.001089,-0.070824,0.000000,-0.011110,-0.371381,-0.000000
0.270000,-3.292509,-0.214895,-1.466993,0.082497,0.001759,-0.014098,0.743349,0.009647,-0.143150,3.787006,-0.134536,-0.545755,4.609559,-2.736303,2.139807,0.000967,-0.074546,0.000000,-0.013559,-0.374300,0.000000
0.280000,-3.291646,-0.214877,-1.467141,0.090120,0.001848,-0.015556,0.781247,0.008207,-0.148496,3.769250,-0.148856,-0.522851,-8.272812,-0.101558,2.439364,0.000822,-0.078290,0.000000,-0.014969,-0.372087,0.000000
0.290000,-3.290705,-0.214858,-1.467304,0.098120,0.001923,-0.017067,0.818517,0.006715,-0.153599,3.694860,-0.151642,-0.497446,-2.946090,-1.208030,2.617690,0.000672,-0.081967,0.000000,-0.015222,-0.364276,-0.000000
0.300000,-3.289683,-0.214838,-1.467482,0.106489,0.001982,-0.018627,0.855404,0.005120,-0.158439,3.679328,-0.166552,-0.470362,-3.802546,-1.018543,2.818136,0.000512,-0.085602,0.000000,-0.016687,-0.362380,0.000000
0.310000,-3.288574,-0.214818,-1.467677,0.115227,0.002025,-0.020235,0.892020,0.003408,-0.162999,3.643572,-0.175654,-0.441356,-4.294458,-0.856196,3.000005,0.000340,-0.089206,0.000000,-0.017569,-0.358517,-0.000000
0.320000,-3.287377,-0.214798,-1.467887,0.124328,0.002050,-0.021886,0.928183,0.001608,-0.167259,3.584834,-0.184147,-0.410239,-6.529587,-0.785684,3.202231,0.000160,-0.092763,0.000000,-0.018389,-0.352425,0.000000
0.330000,-3.286087,-0.214777,-1.468115,0.133788,0.002057,-0.023579,0.963745,-0.000267,-0.171200,3.532370,-0.190181,-0.377750,-3.929356,-0.417228,3.292522,-0.000027,-0.096258,0.000000,-0.018964,-0.347013,0.000000
0.340000,-3.284700,-0.214757,-1.468359,0.143602,0.002045,-0.025309,0.998863,-0.002186,-0.174810,3.487764,-0.193558,-0.344069,-5.914101,-0.311424,3.459442,-0.000218,-0.099707,0.000000,-0.019274,-0.342433,-0.000000
0.350000,-3.283213,-0.214736,-1.468621,0.153764,0.002013,-0.027074,1.033413,-0.004135,-0.178075,3.422065,-0.195906,-0.308772,-6.295360,-0.101689,3.578624,-0.000412,-0.103098,0.000000,-0.019483,-0.335822,0.000000
0.360000,-3.281624,-0.214716,-1.468901,0.164268,0.001962,-0.028869,1.067321,-0.006096,-0.180983,3.359038,-0.195892,-0.272703,-6.664399,0.113312,3.677479,-0.000607,-0.106425,0.000000,-0.019458,-0.329530,-0.000000
0.370000,-3.279927,-0.214697,-1.469198,0.175108,0.001891,-0.030692,1.100553,-0.008045,-0.183523,3.285569,-0.193545,-0.234864,-7.675465,0.350510,3.843755,-0.000800,-0.109685,0.000000,-0.019203,-0.322273,-0.000000
0.380000,-3.278120,-0.214679,-1.469514,0.186276,0.001801,-0.032539,1.133038,-0.009960,-0.185680,3.212955,-0.189004,-0.196800,-6.831523,0.558486,3.765007,-0.000990,-0.112871,0.000000,-0.018733,-0.315153,-0.000000
0.390000,-3.276200,-0.214661,-1.469849,0.197766,0.001692,-0.034405,1.164821,-0.011818,-0.187459,3.141974,-0.182210,-0.158738,-7.712376,0.808651,3.888643,-0.001174,-0.115989,0.000000,-0.018042,-0.308243,0.000000
0.400000,-3.274164,-0.214645,-1.470203,0.209570,0.001565,-0.036287,1.195841,-0.013595,-0.188850,3.061791,-0.172872,-0.119458,-7.968450,1.052600,3.920637,-0.001350,-0.119032,0.000000,-0.017102,-0.300487,0.000000
0.410000,-3.272008,-0.214630,-1.470575,0.221680,0.001421,-0.038180,1.226057,-0.015267,-0.189850,2.981076,-0.161111,-0.080457,-8.215812,1.301750,3.932329,-0.001515,-0.121999,0.000000,-0.015925,-0.292725,0.000000
0.420000,-3.269729,-0.214617,-1.470966,0.234089,0.001260,-0.040082,1.255451,-0.016809,-0.190455,2.897140,-0.146811,-0.040355,-8.523322,1.557528,4.031276,-0.001668,-0.124886,0.000000,-0.014500,-0.284707,0.000000
0.430000,-3.267325,-0.214605,-1.471377,0.246787,0.001085,-0.041988,1.283995,-0.018195,-0.190660,2.811613,-0.129979,-0.001021,-8.576887,1.809259,3.831070,-0.001805,-0.127692,0.000000,-0.012827,-0.276570,-0.000000
0.440000,-3.264793,-0.214595,-1.471806,0.259766,0.000897,-0.043894,1.311679,-0.019400,-0.190479,2.724784,-0.110591,0.037304,-8.829674,2.069996,3.885763,-0.001923,-0.130417,0.000000,-0.010904,-0.268338,0.000000
0.450000,-3.262129,-0.214587,-1.472254,0.273017,0.000698,-0.045796,1.338481,-0.020398,-0.189911,2.635472,-0.088586,0.076178,-8.985719,2.329688,3.831883,-0.002022,-0.133058,0.000000,-0.008725,-0.259912,-0.000000
0.460000,-3.259331,-0.214581,-1.472722,0.286532,0.000490,-0.047691,1.364384,-0.021163,-0.188960,2.544765,-0.063995,0.113880,-9.127920,2.589668,3.759561,-0.002097,-0.135615,0.000000,-0.006293,-0.251376,0.000000
0.470000,-3.256397,-0.214577,-1.473208,0.300302,0.000275,-0.049574,1.389374,-0.021669,-0.187632,2.453202,-0.036785,0.151812,-9.205519,2.851144,3.772122,-0.002147,-0.138086,0.000000,-0.003604,-0.242799,0.000000
0.480000,-3.253325,-0.214576,-1.473713,0.314317,0.000057,-0.051442,1.413443,-0.021890,-0.185929,2.360208,-0.006999,0.188179,-9.391296,3.105527,3.497176,-0.002168,-0.140471,0.000000,-0.000662,-0.234098,0.000000
0.490000,-3.250110,-0.214576,-1.474237,0.328568,-0.000162,-0.053292,1.436574,-0.021801,-0.183874,2.265914,0.025340,0.222761,-9.440863,3.362898,3.469386,-0.002159,-0.142767,0.000000,0.002532,-0.225279,-0.000000
0.500000,-3.246752,-0.214579,-1.474779,0.343045,-0.000378,-0.055119,1.458760,-0.021375,-0.181474,2.171247,0.060239,0.257074,-9.515515,3.615164,3.338437,-0.002117,-0.144976,0.000000,0.005978,-0.216452,0.000000
0.510000,-3.243249,-0.214584,-1.475339,0.357740,-0.000588,-0.056920,1.479996,-0.020588,-0.178740,2.075652,0.097575,0.289525,-9.577906,3.862098,3.192578,-0.002039,-0.147096,0.000000,0.009667,-0.207537,0.000000
0.520000,-3.239597,-0.214590,-1.475917,0.372642,-0.000788,-0.058693,1.500274,-0.019415,-0.175685,1.979946,0.137562,0.321278,-9.583843,4.123999,3.114336,-0.001923,-0.149127,0.000000,0.013619,-0.198628,0.000000
0.530000,-3.235795,-0.214599,-1.476513,0.387742,-0.000975,-0.060433,1.519592,-0.017829,-0.172322,1.883539,0.179817,0.350895,-9.696520,4.325591,2.805656,-0.001766,-0.151069,0.000000,0.017797,-0.189644,0.000000
0.540000,-3.231841,-0.214610,-1.477126,0.403030,-0.001143,-0.062138,1.537942,-0.015811,-0.168675,1.786510,0.224262,0.378198,-9.684550,4.572645,2.695234,-0.001566,-0.152920,0.000000,0.022196,-0.180584,0.000000
0.550000,-3.227734,-0.214622,-1.477756,0.418497,-0.001289,-0.063805,1.555323,-0.013336,-0.164761,1.689682,0.271155,0.404408,-9.701951,4.794256,2.502871,-0.001321,-0.154680,0.000000,0.026841,-0.171547,-0.000000
0.560000,-3.223471,-0.214636,-1.478402,0.434134,-0.001408,-0.065432,1.571734,-0.010381,-0.160595,1.592524,0.320126,0.428293,-9.710960,5.007121,2.300162,-0.001028,-0.156350,0.000000,0.031698,-0.162456,0.000000
0.570000,-3.219051,-0.214650,-1.479064,0.449929,-0.001495,-0.067017,1.587175,-0.006926,-0.156199,1.495649,0.371346,0.450634,-9.679812,5.226831,2.139878,-0.000686,-0.157930,0.000000,0.036783,-0.153383,0.000000
0.580000,-3.214472,-0.214665,-1.479742,0.465874,-0.001545,-0.068556,1.601647,-0.002948,-0.151591,1.398598,0.424454,0.470503,-9.729789,5.392669,1.831705,-0.000292,-0.159418,0.000000,0.042062,-0.144264,-0.000000
0.590000,-3.209733,-0.214681,-1.480435,0.481959,-0.001553,-0.070048,1.615146,0.001569,-0.146798,1.301413,0.479333,0.487785,-9.689329,5.589679,1.650488,0.000156,-0.160815,0.000000,0.047524,-0.135098,0.000000
0.600000,-3.204832,-0.214696,-1.481143,0.498174,-0.001512,-0.071491,1.627677,0.006645,-0.141841,1.204684,0.536137,0.503263,-9.672571,5.760712,1.417286,0.000659,-0.162120,0.000000,0.053186,-0.125953,0.000000
0.610000,-3.199769,-0.214711,-1.481865,0.514509,-0.001418,-0.072884,1.639240,0.012297,-0.136742,1.107990,0.594501,0.516184,-9.652879,5.918625,1.178197,0.001220,-0.163334,0.000000,0.059013,-0.116773,0.000000
0.620000,-3.194542,-0.214724,-1.482600,0.530955,-0.001264,-0.074226,1.649838,0.018541,-0.131524,1.011731,0.654541,0.526904,-9.609035,6.079009,0.954746,0.001840,-0.164455,0.000000,0.065015,-0.107600,0.000000
0.630000,-3.189150,-0.214736,-1.483349,0.547503,-0.001045,-0.075514,1.659475,0.025392,-0.126212,0.915594,0.715864,0.535051,-9.618426,6.182964,0.673859,0.002521,-0.165485,0.000000,0.071156,-0.098396,0.000000
0.640000,-3.183591,-0.214745,-1.484111,0.564141,-0.000754,-0.076750,1.668150,0.032862,-0.120832,0.819582,0.778314,0.540579,-9.573042,6.312816,0.441718,0.003263,-0.166423,0.000000,0.077419,-0.089157,0.000000
0.650000,-3.177866,-0.214751,-1.484884,0.580862,-0.000386,-0.077931,1.675868,0.040963,-0.115408,0.724038,0.841999,0.543791,-9.545789,6.413246,0.190087,0.004069,-0.167269,0.000000,0.083815,-0.079920,-0.000000
0.660000,-3.171974,-0.214753,-1.485669,0.597656,0.000067,-0.079058,1.682631,0.049705,-0.109965,0.628671,0.906531,0.544464,-9.518993,6.497124,-0.061231,0.004940,-0.168021,0.000000,0.090307,-0.070650,-0.000000
0.670000,-3.165913,-0.214749,-1.486465,0.614512,0.000611,-0.080130,1.688443,0.059096,-0.104528,0.533736,0.971946,0.542514,-9.476909,6.576473,-0.323161,0.005876,-0.168682,0.000000,0.096898,-0.061371,-0.000000
0.680000,-3.159683,-0.214740,-1.487271,0.631421,0.001251,-0.081148,1.693307,0.069145,-0.099123,0.438946,1.037865,0.538118,-9.481754,6.604021,-0.555637,0.006878,-0.169249,0.000000,0.103549,-0.052056,0.000000
0.690000,-3.153285,-0.214724,-1.488088,0.648375,0.001996,-0.082113,1.697222,0.079855,-0.093774,0.344265,1.104096,0.531297,-9.446338,6.645699,-0.813805,0.007947,-0.169723,0.000000,0.110242,-0.042699,0.000000
0.700000,-3.146716,-0.214700,-1.488913,0.665363,0.002851,-0.083024,1.700193,0.091228,-0.088506,0.249929,1.170660,0.521894,-9.429679,6.657069,-1.060280,0.009083,-0.170103,0.000000,0.116977,-0.033321,0.000000
0.710000,-3.139977,-0.214666,-1.489748,0.682375,0.003823,-0.083883,1.702221,0.103268,-0.083343,0.155636,1.237184,0.510183,-9.418137,6.648411,-1.301286,0.010287,-0.170389,0.000000,0.123716,-0.023895,0.000000
0.720000,-3.133068,-0.214623,-1.490591,0.699404,0.004918,-0.084691,1.703307,0.115972,-0.078311,0.061655,1.303596,0.495700,-9.390268,6.626678,-1.575242,0.011557,-0.170581,0.000000,0.130452,-0.014441,-0.000000
0.730000,-3.125989,-0.214568,-1.491442,0.716438,0.006144,-0.085450,1.703454,0.129338,-0.073436,-0.032427,1.369563,0.479101,-9.427497,6.562953,-1.743026,0.012895,-0.170678,0.000000,0.137149,-0.004927,-0.000000
0.740000,-3.118740,-0.214500,-1.492300,0.733470,0.007507,-0.086161,1.702658,0.143361,-0.068736,-0.126691,1.434862,0.460468,-9.415211,6.496947,-2.001940,0.014300,-0.170679,0.000000,0.143786,0.004652,-0.000000
0.750000,-3.111320,-0.214417,-1.493165,0.750489,0.009014,-0.086825,1.700920,0.158033,-0.064236,-0.220847,1.499392,0.439247,-9.429382,6.401390,-2.221395,0.015771,-0.170584,0.000000,0.150348,0.014278,-0.000000
0.760000,-3.103730,-0.214319,-1.494036,0.767485,0.010670,-0.087446,1.698240,0.173345,-0.059957,-0.315352,1.562828,0.416137,-9.453695,6.282519,-2.431056,0.017307,-0.170393,0.000000,0.156803,0.023983,-0.000000
0.770000,-3.095970,-0.214203,-1.494914,0.784450,0.012483,-0.088025,1.694614,0.189285,-0.055922,-0.409772,1.624969,0.390361,-9.450801,6.140867,-2.691910,0.018907,-0.170104,0.000000,0.163127,0.033736,0.000000
0.780000,-3.088041,-0.214069,-1.495797,0.801374,0.014458,-0.088565,1.690042,0.205839,-0.052155,-0.504797,1.685547,0.362973,-9.556342,5.970473,-2.783351,0.020569,-0.169718,0.000000,0.169294,0.043589,0.000000
0.790000,-3.079943,-0.213913,-1.496685,0.818248,0.016601,-0.089069,1.684515,0.222990,-0.048668,-0.600553,1.744308,0.334103,-9.577729,5.778166,-3.020035,0.022292,-0.169232,0.000000,0.175276,0.053549,0.000000
0.800000,-3.071676,-0.213736,-1.497578,0.835061,0.018919,-0.089540,1.678031,0.240718,-0.045481,-0.696548,1.801016,0.302874,-9.642319,5.558320,-3.193776,0.024074,-0.168646,0.000000,0.181046,0.063582,-0.000000
0.810000,-3.063242,-0.213534,-1.498475,0.851805,0.021418,-0.089980,1.670581,0.259003,-0.042614,-0.793571,1.855416,0.270325,-9.722213,5.312048,-3.354767,0.025912,-0.167960,0.000000,0.186577,0.073746,-0.000000
0.820000,-3.054640,-0.213307,-1.499377,0.868470,0.024101,-0.090393,1.662160,0.277818,-0.040083,-0.890646,1.907120,0.235441,-9.735762,5.028811,-3.580882,0.027804,-0.167171,0.000000,0.191826,0.083963,0.000000
0.830000,-3.045873,-0.213052,-1.500283,0.885045,0.026976,-0.090783,1.652763,0.297136,-0.037908,-0.989185,1.955998,0.199574,-9.975360,4.742198,-3.589272,0.029748,-0.166279,0.000000,0.196781,0.094345,-0.000000
0.840000,-3.036940,-0.212767,-1.501193,0.901522,0.030046,-0.091153,1.642370,0.316927,-0.036094,-1.089372,2.001769,0.162896,-10.023108,4.402319,-3.784310,0.031739,-0.165283,0.000000,0.201413,0.104907,0.000000
0.850000,-3.027843,-0.212450,-1.502106,0.917889,0.033316,-0.091506,1.630974,0.337159,-0.034658,-1.190041,2.043986,0.124266,-10.154118,4.040745,-3.900003,0.033775,-0.164180,0.000000,0.205671,0.115551,-0.000000
0.860000,-3.018582,-0.212100,-1.503023,0.934138,0.036790,-0.091847,1.618561,0.357795,-0.033611,-1.293024,2.082472,0.084976,-10.311829,3.648502,-3.999794,0.035851,-0.162969,0.000000,0.209539,0.126435,-0.000000
0.870000,-3.009160,-0.211714,-1.503943,0.950257,0.040473,-0.092180,1.605119,0.378795,-0.032965,-1.395123,2.116825,0.043933,-10.237678,3.219669,-4.165915,0.037964,-0.161650,0.000000,0.212969,0.137259,-0.000000
0.880000,-2.999578,-0.211290,-1.504867,0.966237,0.044367,-0.092508,1.590646,0.400117,-0.032733,-1.500495,2.146815,0.002553,-10.842847,2.772874,-4.106666,0.040109,-0.160221,0.000000,0.215944,0.148407,0.000000
0.890000,-2.989836,-0.210826,-1.505793,0.982066,0.048476,-0.092836,1.575096,0.421715,-0.032914,-1.609452,2.172118,-0.038978,-10.822476,2.279598,-4.238347,0.042281,-0.158678,0.000000,0.218431,0.159906,0.000000
0.900000,-2.979937,-0.210319,-1.506723,0.997735,0.052802,-0.093167,1.558461,0.443542,-0.033517,-1.718068,2.192318,-0.081822,-11.032157,1.757363,-4.287301,0.044476,-0.157020,0.000000,0.220379,0.171384,0.000000
0.910000,-2.969882,-0.209769,-1.507657,1.013232,0.057347,-0.093507,1.540719,0.465542,-0.034550,-1.830785,2.206630,-0.124724,-11.273335,1.190568,-4.321981,0.046687,-0.155245,0.000000,0.221717,0.183259,0.000000
0.920000,-2.959673,-0.209172,-1.508593,1.028546,0.062113,-0.093860,1.521856,0.487662,-0.036015,-1.941366,2.216854,-0.168503,-11.077330,0.759808,-4.401502,0.048909,-0.153352,0.000000,0.222616,0.194922,0.000000
0.930000,-2.949312,-0.208526,-1.509534,1.043665,0.067101,-0.094229,1.501872,0.509854,-0.037919,-2.057254,2.219849,-0.212074,-12.109122,-0.169324,-4.309362,0.051136,-0.151340,0.000000,0.222769,0.207093,0.000000
0.940000,-2.938800,-0.207829,-1.510478,1.058579,0.072310,-0.094620,1.480690,0.532033,-0.040255,-2.178867,2.215142,-0.255258,-11.979796,-0.688602,-4.355819,0.053361,-0.149203,0.000000,0.222133,0.219807,0.000000
0.950000,-2.928141,-0.207079,-1.511426,1.073275,0.077741,-0.095036,1.458304,0.554141,-0.043026,-2.298867,2.205199,-0.298881,-12.255818,-1.395040,-4.336622,0.055577,-0.146939,0.000000,0.220942,0.232349,0.000000
0.960000,-2.917336,-0.206273,-1.512379,1.087741,0.083393,-0.095482,1.434692,0.576106,-0.046231,-2.424193,2.186485,-0.342117,-12.550672,-2.153427,-4.306301,0.057777,-0.144547,0.000000,0.218854,0.245390,-0.000000
0.970000,-2.906387,-0.205410,-1.513336,1.101965,0.089263,-0.095962,1.409832,0.597861,-0.049867,-2.547503,2.163857,-0.384944,-12.363141,-2.572303,-4.258662,0.059953,-0.142024,0.000000,0.216348,0.258200,0.000000
0.980000,-2.895297,-0.204487,-1.514298,1.115934,0.095349,-0.096480,1.383721,0.619347,-0.053929,-2.676739,2.130844,-0.427287,-13.491640,-4.042025,-4.207845,0.062100,-0.139371,0.000000,0.212786,0.271564,-0.000000
0.990000,-2.884069,-0.203503,-1.515266,1.129635,0.101648,-0.097042,1.356274,0.640440,-0.058411,-2.812236,2.086836,-0.469015,-13.353038,-4.568834,-4.133574,0.064205,-0.136580,0.000000,0.208109,0.285512,-0.000000
1.000000,-2.872705,-0.202454,-1.516239,1.143055,0.108156,-0.097650,1.327486,0.661070,-0.063306,-2.945925,2.037692,-0.509928,-13.638030,-5.460935,-4.048902,0.066261,-0.133651,0.000000,0.202898,0.299237,-0.000000
1.010000,-2.861209,-0.201339,-1.517219,1.156180,0.114868,-0.098309,1.297337,0.681155,-0.068608,-3.084487,1.977726,-0.550233,-13.915495,-6.388599,-3.956449,0.068259,-0.130581,0.000000,0.196592,0.313404,-0.000000
1.020000,-2.849583,-0.200156,-1.518206,1.168997,0.121777,-0.099023,1.265800,0.700605,-0.074303,-3.222746,1.911189,-0.588520,-13.886282,-7.068125,-3.750369,0.070191,-0.127368,0.000000,0.189622,0.327480,0.000000
1.030000,-2.837830,-0.198903,-1.519200,1.181491,0.128878,-0.099797,1.232866,0.719340,-0.080377,-3.365359,1.833235,-0.626279,-14.637980,-8.531708,-3.800794,0.072048,-0.124013,0.000000,0.181501,0.341943,-0.000000
1.040000,-2.825954,-0.197578,-1.520202,1.193649,0.136161,-0.100632,1.198477,0.737229,-0.086827,-3.512354,1.743386,-0.663440,-14.603412,-9.296756,-3.576642,0.073817,-0.120510,0.000000,0.172183,0.356794,-0.000000
1.050000,-2.813958,-0.196179,-1.521213,1.205456,0.143619,-0.101534,1.162624,0.754185,-0.093637,-3.658658,1.645976,-0.698209,-14.806070,-10.334488,-3.426507,0.075489,-0.116859,0.000000,0.162114,0.371506,-0.000000
1.060000,-2.801846,-0.194705,-1.522233,1.216897,0.151242,-0.102506,1.125294,0.770107,-0.100789,-3.807810,1.536454,-0.732071,-14.975720,-11.405155,-3.266206,0.077055,-0.113058,0.000000,0.150834,0.386448,-0.000000
1.070000,-2.789622,-0.193153,-1.523263,1.227957,0.159017,-0.103551,1.086467,0.784892,-0.108266,-3.957665,1.419353,-0.762773,-15.032032,-12.182032,-2.946201,0.078504,-0.109107,0.000000,0.138815,0.401381,0.000000
1.080000,-2.777288,-0.191524,-1.524304,1.238621,0.166935,-0.104672,1.046134,0.798449,-0.116042,-4.109220,1.289317,-0.792507,-15.273945,-13.833232,-3.000169,0.079827,-0.105005,0.000000,0.125509,0.416428,0.000000
1.090000,-2.764851,-0.189814,-1.525357,1.248874,0.174982,-0.105873,1.004277,0.810632,-0.124113,-4.262156,1.145941,-0.821208,-15.263628,-14.679299,-2.661722,0.081009,-0.100751,0.000000,0.110881,0.431554,-0.000000
1.100000,-2.752312,-0.188024,-1.526422,1.258701,0.183143,-0.107156,0.960893,0.821344,-0.132453,-4.414708,0.994283,-0.846326,-15.281955,-15.819186,-2.433440,0.082042,-0.096346,0.000000,0.095456,0.446561,-0.000000
1.110000,-2.739678,-0.186151,-1.527500,1.268087,0.191403,-0.108523,0.915984,0.830472,-0.141035,-4.566937,0.829433,-0.869715,-15.240649,-16.978950,-2.187359,0.082914,-0.091790,0.000000,0.078736,0.461472,-0.000000
1.120000,-2.726952,-0.184195,-1.528592,1.277016,0.199747,-0.109977,0.869550,0.837907,-0.149834,-4.720134,0.656272,-0.889512,-15.307397,-17.822594,-1.820842,0.083614,-0.087085,0.000000,0.061225,0.476400,0.000000
1.130000,-2.714139,-0.182156,-1.529700,1.285473,0.208156,-0.111520,0.821589,0.843551,-0.158818,-4.871167,0.469434,-0.907161,-14.887109,-19.550756,-1.707053,0.084134,-0.082230,0.000000,0.042381,0.491050,-0.000000
1.140000,-2.701244,-0.180032,-1.530823,1.293443,0.216611,-0.113154,0.772136,0.847248,-0.167970,-5.019354,0.268655,-0.922523,-14.823803,-20.435136,-1.308979,0.084457,-0.077230,0.000000,0.022181,0.505353,-0.000000
1.150000,-2.688272,-0.177824,-1.531963,1.300911,0.225094,-0.114880,0.721204,0.848898,-0.177254,-5.166727,0.059296,-0.933712,-14.557152,-21.605305,-0.977617,0.084575,-0.072087,0.000000,0.001179,0.519501,0.000000
1.160000,-2.675228,-0.175530,-1.533121,1.307862,0.233582,-0.116699,0.668818,0.848388,-0.186634,-5.309637,-0.163346,-0.941748,-14.209256,-22.775093,-0.619817,0.084477,-0.066805,0.000000,-0.021098,0.533142,0.000000
1.170000,-2.662117,-0.173152,-1.534298,1.314282,0.242054,-0.118613,0.615008,0.845604,-0.196076,-5.452484,-0.394824,-0.945973,-14.158976,-23.660926,-0.226582,0.084151,-0.061386,0.000000,-0.044200,0.546714,0.000000
1.180000,-2.648944,-0.170689,-1.535494,1.320158,0.250486,-0.120621,0.559793,0.840447,-0.205541,-5.588601,-0.639505,-0.946310,-13.046650,-25.277071,0.163544,0.083588,-0.055834,0.000000,-0.068557,0.559559,-0.000000
1.190000,-2.635715,-0.168143,-1.536710,1.325474,0.258855,-0.122724,0.503263,0.832769,-0.214989,-5.717010,-0.897427,-0.942501,-12.814308,-26.160323,0.608261,0.082775,-0.050159,0.000000,-0.094169,0.571586,0.000000
1.200000,-2.622436,-0.165513,-1.537948,1.330219,0.267133,-0.124921,0.445457,0.822472,-0.224376,-5.843012,-1.163857,-0.934099,-12.182585,-27.264804,1.071347,0.081703,-0.044364,0.000000,-0.120560,0.583326,-0.000000
1.210000,-2.609113,-0.162800,-1.539209,1.334379,0.275295,-0.127211,0.386435,0.809448,-0.233653,-5.960049,-1.442876,-0.920599,-11.457164,-28.353511,1.570765,0.080360,-0.038457,0.000000,-0.148128,0.594135,-0.000000
1.220000,-2.595751,-0.160007,-1.540493,1.337943,0.283312,-0.129593,0.326262,0.793594,-0.242775,-6.074114,-1.729165,-0.903159,-11.107323,-29.073582,1.982838,0.078738,-0.032444,0.000000,-0.176356,0.604621,0.000000
1.230000,-2.582356,-0.157135,-1.541801,1.340901,0.291157,-0.132066,0.264992,0.774822,-0.251696,-6.176988,-2.027897,-0.879567,-9.446556,-30.671639,2.742526,0.076829,-0.026331,0.000000,-0.205738,0.613970,-0.000000
1.240000,-2.568935,-0.154185,-1.543135,1.343240,0.298799,-0.134626,0.202765,0.752993,-0.260344,-6.267534,-2.338921,-0.849432,-8.886665,-31.349424,3.228527,0.074619,-0.020132,0.000000,-0.236258,0.622085,0.000000
1.250000,-2.555493,-0.151159,-1.544494,1.344953,0.306206,-0.137271,0.139656,0.728026,-0.268669,-6.352427,-2.656228,-0.814368,-7.841391,-32.279565,3.850323,0.072102,-0.013856,0.000000,-0.267334,0.629643,-0.000000
1.260000,-2.542038,-0.148061,-1.545880,1.346031,0.313348,-0.139998,0.075766,0.699832,-0.276606,-6.423569,-2.984132,-0.771791,-6.692724,-33.160693,4.517340,0.069269,-0.007511,0.000000,-0.299378,0.635852,-0.000000
1.270000,-2.528575,-0.144893,-1.547294,1.346466,0.320192,-0.142802,0.011198,0.668325,-0.284094,-6.488945,-3.318040,-0.725322,-6.058462,-33.738295,4.930564,0.066113,-0.001109,0.000000,-0.331966,0.641520,0.000000
1.280000,-2.515111,-0.141659,-1.548737,1.346253,0.326704,-0.145678,-0.053956,0.633438,-0.291081,-6.537952,-3.661360,-0.669954,-3.719386,-34.918653,6.153074,0.062627,0.005342,0.000000,-0.365406,0.645612,0.000000
1.290000,-2.501652,-0.138361,-1.550208,1.345386,0.332849,-0.148622,-0.119500,0.595067,-0.297461,-6.569331,-4.013604,-0.605157,-2.855908,-35.389254,6.661654,0.058802,0.011822,0.000000,-0.399657,0.648028,0.000000
1.300000,-2.488205,-0.135003,-1.551709,1.343862,0.338593,-0.151625,-0.185320,0.553155,-0.303170,-6.592141,-4.369987,-0.535341,-1.380098,-36.002565,7.456516,0.054633,0.018323,0.000000,-0.434284,0.649678,0.000000
1.310000,-2.474777,-0.131590,-1.553241,1.341679,0.343900,-0.154683,-0.251277,0.507645,-0.308131,-6.596363,-4.732872,-0.455294,0.195641,-36.529697,8.301910,0.050114,0.024829,0.000000,-0.469503,0.649600,-0.000000
1.320000,-2.461374,-0.128127,-1.554803,1.338836,0.348734,-0.157785,-0.317222,0.458484,-0.312268,-6.591215,-5.100008,-0.371558,1.189600,-36.912178,8.698877,0.045241,0.031329,0.000000,-0.505141,0.648707,-0.000000
1.330000,-2.448002,-0.124617,-1.556397,1.335335,0.353058,-0.160925,-0.383028,0.405630,-0.315521,-6.565118,-5.471429,-0.276000,4.053145,-37.356891,10.425279,0.040010,0.037810,0.000000,-0.541177,0.645900,0.000000
1.340000,-2.434669,-0.121067,-1.558022,1.331177,0.356834,-0.164092,-0.448448,0.349044,-0.317745,-6.516839,-5.846213,-0.167988,5.268834,-37.552898,10.930566,0.034417,0.044250,0.000000,-0.577547,0.641092,-0.000000
1.350000,-2.421381,-0.117482,-1.559678,1.326368,0.360026,-0.167276,-0.513331,0.288702,-0.318869,-6.456569,-6.222391,-0.055168,7.142535,-37.694479,11.887688,0.028459,0.050637,0.000000,-0.614109,0.635276,0.000000
1.360000,-2.408144,-0.113869,-1.561367,1.320913,0.362596,-0.170466,-0.577499,0.224595,-0.318802,-6.373436,-6.599067,0.070478,9.106243,-37.712854,12.892156,0.022134,0.056954,0.000000,-0.650778,0.627442,0.000000
1.370000,-2.394965,-0.110233,-1.563088,1.314821,0.364505,-0.173648,-0.640765,0.156714,-0.317454,-6.277805,-6.977096,0.199497,10.407769,-37.784648,13.257581,0.015442,0.063186,0.000000,-0.687690,0.618576,-0.000000
1.380000,-2.381850,-0.106581,-1.564840,1.308101,0.365717,-0.176810,-0.702969,0.085062,-0.314762,-6.157157,-7.352496,0.342888,13.743334,-37.271705,15.434125,0.008381,0.069319,0.000000,-0.724464,0.607530,0.000000
1.390000,-2.368805,-0.102921,-1.566624,1.300766,0.366194,-0.179938,-0.763818,0.009679,-0.310544,-6.010383,-7.723891,0.501295,15.239641,-37.074842,15.903594,0.000954,0.075329,0.000000,-0.761020,0.594233,0.000000
1.400000,-2.355837,-0.099260,-1.568439,1.292830,0.365899,-0.183016,-0.823134,-0.069409,-0.304728,-5.848961,-8.092790,0.663936,17.433063,-36.593282,16.971221,-0.006839,0.081201,0.000000,-0.797552,0.579751,0.000000
1.410000,-2.342950,-0.095606,-1.570284,1.284309,0.364794,-0.186027,-0.880705,-0.152152,-0.297212,-5.661146,-8.454560,0.841216,19.697580,-35.954641,18.070380,-0.014996,0.086917,0.000000,-0.833655,0.563023,-0.000000
1.420000,-2.330152,-0.091967,-1.572159,1.275222,0.362844,-0.188954,-0.936317,-0.238494,-0.287900,-5.458919,-8.813406,1.021532,21.180571,-35.579280,18.395794,-0.023513,0.092460,0.000000,-0.869777,0.545141,0.000000
1.430000,-2.317448,-0.088352,-1.574063,1.265590,0.360012,-0.191779,-0.989786,-0.328381,-0.276726,-5.228467,-9.161222,1.217581,24.928251,-33.952315,20.825730,-0.032389,0.097814,0.000000,-0.905195,0.524864,-0.000000
1.440000,-2.304842,-0.084770,-1.575994,1.255435,0.356265,-0.194482,-1.040785,-0.421674,-0.263491,-4.968892,-9.496214,1.429869,26.560196,-33.233362,21.223216,-0.041614,0.102954,0.000000,-0.939821,0.502130,-0.000000
1.450000,-2.292341,-0.081230,-1.577952,1.244783,0.351567,-0.197042,-1.089119,-0.518284,-0.248125,-4.693539,-9.823559,1.645453,28.942363,-31.996731,22.296094,-0.051185,0.107862,0.000000,-0.974171,0.478116,-0.000000
1.460000,-2.279948,-0.077741,-1.579934,1.233662,0.345888,-0.199437,-1.134557,-0.618085,-0.230528,-4.389978,-10.134068,1.875828,31.355781,-30.560086,23.368908,-0.061094,0.112520,0.000000,-1.007464,0.451714,-0.000000
1.470000,-2.267669,-0.074315,-1.581940,1.222102,0.339196,-0.201644,-1.176871,-0.720954,-0.210606,-4.070233,-10.438651,2.109026,32.996449,-29.861645,23.657770,-0.071335,0.116910,0.000000,-1.040766,0.423961,-0.000000
1.480000,-2.255507,-0.070961,-1.583967,1.210136,0.331459,-0.203641,-1.215863,-0.826781,-0.188295,-3.721596,-10.720935,2.357106,36.742017,-26.552809,25.964043,-0.081904,0.121013,0.000000,-1.072616,0.393726,-0.000000
1.490000,-2.243467,-0.067690,-1.586012,1.197797,0.322651,-0.205402,-1.251202,-0.935287,-0.163410,-3.343595,-10.978610,2.620228,38.448132,-25.426372,26.256700,-0.092782,0.124802,0.000000,-1.102892,0.360946,0.000000
1.500000,-2.231553,-0.064512,-1.588074,1.185124,0.312745,-0.206900,-1.282687,-1.046323,-0.135890,-2.949252,-11.224892,2.885441,40.821930,-23.331333,27.171151,-0.103961,0.128259,0.000000,-1.132843,0.326708,-0.000000
1.510000,-2.219766,-0.061438,-1.590149,1.172157,0.301717,-0.208110,-1.310090,-1.159680,-0.105657,-2.527174,-11.442236,3.162899,43.182587,-20.998927,28.032516,-0.115431,0.131363,0.000000,-1.160920,0.289973,0.000000
1.520000,-2.208110,-0.058481,-1.592235,1.158937,0.289544,-0.209004,-1.333186,-1.275159,-0.072627,-2.089469,-11.652497,3.443315,44.743394,-20.162546,28.307985,-0.127182,0.134092,0.000000,-1.189234,0.251762,0.000000
1.530000,-2.196588,-0.055651,-1.594328,1.145508,0.276207,-0.209553,-1.351785,-1.392604,-0.036753,-1.624235,-11.826813,3.734457,48.305766,-14.646218,29.915298,-0.139207,0.136429,0.000000,-1.215114,0.210942,-0.000000
1.540000,-2.185201,-0.052961,-1.596425,1.131917,0.261687,-0.209729,-1.365576,-1.511560,0.002098,-1.131518,-11.962344,4.035891,49.829238,-13.304659,30.084898,-0.151475,0.138343,0.000000,-1.238369,0.167438,-0.000000
1.550000,-2.173950,-0.050422,-1.598521,1.118213,0.245971,-0.209501,-1.374374,-1.631823,0.043963,-0.624528,-12.084975,4.338147,51.949849,-10.326748,30.620637,-0.163976,0.139812,0.000000,-1.261451,0.122343,-0.000000
1.560000,-2.162837,-0.048046,-1.600613,1.104447,0.229047,-0.208840,-1.377984,-1.753132,0.088884,-0.093973,-12.171457,4.646622,53.976227,-7.218764,31.037341,-0.176696,0.140813,0.000000,-1.282218,0.074716,0.000000
1.570000,-2.151861,-0.045845,-1.602696,1.090672,0.210906,-0.207713,-1.376202,-1.875169,0.136906,0.453107,-12.231374,4.958342,55.586604,-4.473372,31.305419,-0.189616,0.141323,0.000000,-1.301604,0.025109,-0.000000
1.580000,-2.141023,-0.043831,-1.604766,1.076942,0.191543,-0.206091,-1.368852,-1.997636,0.188059,1.020839,-12.254840,5.272708,57.945331,-0.187386,31.547239,-0.202720,0.141315,0.000000,-1.318669,-0.027013,-0.000000
1.590000,-2.130322,-0.042018,-1.606816,1.063314,0.170954,-0.203942,-1.355718,-2.120136,0.242365,1.608278,-12.240038,5.588476,59.355080,2.902089,31.564947,-0.215981,0.140761,0.000000,-1.333239,-0.081706,0.000000
1.600000,-2.119756,-0.040416,-1.608843,1.049847,0.149141,-0.201233,-1.336645,-2.242337,0.299827,2.208903,-12.194054,5.903697,60.911163,6.585621,31.473388,-0.229379,0.139634,0.000000,-1.345965,-0.138484,0.000000
1.610000,-2.109324,-0.039039,-1.610839,1.036601,0.126109,-0.197935,-1.311483,-2.363844,0.360425,2.826003,-12.099775,6.215220,62.326325,10.573854,31.188357,-0.242887,0.137907,0.000000,-1.355086,-0.197867,-0.000000
1.620000,-2.099023,-0.037898,-1.612799,1.023638,0.101867,-0.194015,-1.280094,-2.484338,0.424150,3.453451,-11.997975,6.530461,63.287808,11.471759,31.461426,-0.256485,0.135549,0.000000,-1.364772,-0.259293,0.000000
1.630000,-2.088850,-0.037006,-1.614717,1.011020,0.076426,-0.189441,-1.242368,-2.603587,0.490999,4.094381,-11.834987,6.836099,64.873053,21.194948,29.626516,-0.270164,0.132534,0.000000,-1.369366,-0.323425,0.000000
1.640000,-2.078801,-0.036374,-1.616586,0.998812,0.049803,-0.184185,-1.198165,-2.720809,0.560830,4.747212,-11.607471,7.129931,65.507294,22.640479,29.485461,-0.283853,0.128826,0.000000,-1.368370,-0.390305,-0.000000
1.650000,-2.068872,-0.036014,-1.618399,0.987079,0.022018,-0.178215,-1.147409,-2.835725,0.633599,5.405169,-11.367618,7.422026,66.203457,27.019602,28.529195,-0.297534,0.124394,0.000000,-1.367104,-0.459278,-0.000000
1.660000,-2.059058,-0.035937,-1.620148,0.975886,-0.006903,-0.171503,-1.090050,-2.947946,0.709207,6.067198,-11.068477,7.697230,66.627683,31.502544,27.318420,-0.311175,0.119207,0.000000,-1.360354,-0.530600,-0.000000
1.670000,-2.049353,-0.036155,-1.621826,0.965300,-0.036931,-0.164022,-1.026017,-3.057051,0.787568,6.741227,-10.749515,7.975472,67.692418,33.572433,27.484965,-0.324740,0.113232,0.000000,-1.352530,-0.605019,0.000000
1.680000,-2.039750,-0.036679,-1.623426,0.955388,-0.068033,-0.155743,-0.955243,-3.162726,0.868629,7.410867,-10.370140,8.229213,66.181954,42.345183,23.205322,-0.338203,0.106430,0.000000,-1.338495,-0.681346,-0.000000
1.690000,-2.030242,-0.037520,-1.624938,0.946218,-0.100171,-0.146641,-0.877828,-3.264236,0.952054,8.073113,-9.928410,8.455376,66.677804,44.711731,22.815459,-0.351486,0.098778,0.000000,-1.317633,-0.759406,0.000000
1.700000,-2.020823,-0.038686,-1.626356,0.937854,-0.133302,-0.136694,-0.793758,-3.361244,1.037739,8.739739,-9.465010,8.677889,66.153544,49.248530,20.835557,-0.364552,0.090239,0.000000,-1.294612,-0.840311,-0.000000
1.710000,-2.011482,-0.040189,-1.627669,0.930364,-0.167380,-0.125880,-0.703089,-3.453356,1.125494,9.392305,-8.949968,8.868810,65.287570,53.675980,18.569611,-0.377355,0.080783,0.000000,-1.265075,-0.922503,-0.000000
1.720000,-2.002212,-0.042037,-1.628870,0.923814,-0.202352,-0.114178,-0.605867,-3.540103,1.215138,10.053536,-8.392382,9.060153,65.969910,57.904001,18.450202,-0.389839,0.070375,0.000000,-1.230911,-1.008209,0.000000
1.730000,-1.993003,-0.044239,-1.629950,0.918269,-0.238162,-0.101571,-0.502104,-3.621056,1.306555,10.690978,-7.790594,9.211632,61.442579,62.441199,11.775570,-0.401950,0.058979,0.000000,-1.189900,-1.094367,0.000000
1.740000,-1.983843,-0.046803,-1.630899,0.913793,-0.274752,-0.088043,-0.392147,-3.695770,1.399216,11.300537,-7.145382,9.319633,61.374280,66.508279,11.021072,-0.413611,0.046591,0.000000,-1.141457,-1.180408,-0.000000
1.750000,-1.974723,-0.049736,-1.631707,0.910446,-0.312056,-0.073583,-0.276079,-3.763832,1.492947,11.909422,-6.460192,9.421000,59.405597,70.582587,7.998370,-0.424761,0.033182,0.000000,-1.087153,-1.269026,0.000000
1.760000,-1.965631,-0.053046,-1.632367,0.908291,-0.350005,-0.058181,-0.154080,-3.824820,1.587469,12.485935,-5.730368,9.476990,57.073056,74.595440,4.704496,-0.435325,0.018737,0.000000,-1.024307,-1.356817,0.000000
1.770000,-1.956553,-0.056738,-1.632868,0.907384,-0.388527,-0.041832,-0.026343,-3.878370,1.682499,13.061183,-4.975837,9.528635,56.740350,77.020021,4.108668,-0.445232,0.003241,0.000000,-0.956376,-1.446922,-0.000000
1.780000,-1.947478,-0.060818,-1.633201,0.907783,-0.427547,-0.024530,0.106997,-3.924177,1.777854,13.594834,-4.175085,9.527384,49.904727,83.119911,-4.430948,-0.454418,-0.013320,0.000000,-0.878451,-1.534712,0.000000
1.790000,-1.938393,-0.065290,-1.633355,0.909541,-0.466983,-0.006276,0.245390,-3.961715,1.872847,14.082352,-3.329097,9.469635,48.750283,85.294072,-5.639778,-0.462765,-0.030907,0.000000,-0.789933,-1.619080,0.000000
1.800000,-1.929283,-0.070159,-1.633323,0.912707,-0.506753,0.012925,0.388627,-3.990707,1.967238,14.558697,-2.463666,9.401378,45.275943,88.493838,-9.530725,-0.470199,-0.049512,0.000000,-0.695262,-1.703642,-0.000000
1.810000,-1.920134,-0.075426,-1.633094,0.917328,-0.546768,0.033066,0.536374,-4.010886,2.060673,14.983147,-1.567716,9.278169,41.393672,91.309458,-13.613843,-0.476637,-0.069105,0.000000,-0.590800,-1.783070,-0.000000
1.820000,-1.910931,-0.081095,-1.632659,0.923448,-0.586940,0.054134,0.688305,-4.021919,2.152786,15.402456,-0.632365,9.142707,40.651540,95.071472,-14.964698,-0.481985,-0.089649,0.000000,-0.477391,-1.862392,-0.000000
1.830000,-1.901660,-0.087165,-1.632008,0.931108,-0.627175,0.076116,0.844197,-4.023484,2.243318,15.758097,0.319253,8.947716,30.377990,95.179082,-24.091825,-0.486154,-0.111108,0.000000,-0.354905,-1.933844,-0.000000
1.840000,-1.892304,-0.093638,-1.631133,0.940342,-0.667378,0.098992,1.003224,-4.015498,2.331521,16.045014,1.283060,8.690416,28.752851,98.171371,-25.892024,-0.489054,-0.133352,0.000000,-0.223643,-1.995693,-0.000000
1.850000,-1.882848,-0.100512,-1.630025,0.951182,-0.707452,0.122738,1.165080,-3.997714,2.417099,16.317152,2.276027,8.417120,23.852848,99.717949,-30.252515,-0.490599,-0.156309,0.000000,-0.084037,-2.054057,0.000000
1.860000,-1.873275,-0.107786,-1.628676,0.963652,-0.747299,0.147324,1.329328,-3.969952,2.499660,16.523140,3.278088,8.087241,18.685979,100.903989,-34.657003,-0.490708,-0.179877,0.000000,0.063474,-2.101473,-0.000000
1.870000,-1.863569,-0.115457,-1.627076,0.977774,-0.786817,0.172720,1.495479,-3.932097,2.578784,16.702842,4.295317,7.733816,15.883619,102.209640,-37.061198,-0.489307,-0.203934,0.000000,0.217734,-2.142386,0.000000
1.880000,-1.853714,-0.123521,-1.625219,0.993567,-0.825907,0.198888,1.663140,-3.884039,2.654142,16.812091,5.315339,7.324361,5.893522,101.716252,-44.855284,-0.486332,-0.228362,0.000000,0.378270,-2.170093,0.000000
1.890000,-1.843692,-0.131974,-1.623096,1.011039,-0.864464,0.225788,1.831463,-3.825798,2.725073,16.847172,6.333569,6.857850,2.444478,102.124012,-47.389835,-0.481725,-0.252964,0.000000,0.543758,-2.183135,0.000000
1.900000,-1.833487,-0.140808,-1.620701,1.030197,-0.902388,0.253373,1.999996,-3.757355,2.791240,16.848990,7.354041,6.367955,-3.450855,101.626383,-51.616674,-0.475446,-0.277593,0.000000,0.712505,-2.186623,-0.000000
1.910000,-1.823083,-0.150019,-1.618026,1.051038,-0.939578,0.281595,2.168138,-3.678915,2.852264,16.767411,8.327657,5.829892,-9.743499,99.917792,-55.700386,-0.467488,-0.302079,0.000000,0.878757,-2.173365,-0.000000
1.920000,-1.812461,-0.159597,-1.615067,1.073556,-0.975933,0.310400,2.335388,-3.590306,2.907726,16.682673,9.414328,5.256927,-10.267342,110.647663,-59.135072,-0.457809,-0.326259,0.000000,1.059584,-2.152793,-0.000000
1.930000,-1.801606,-0.169534,-1.611817,1.097742,-1.011348,0.339730,2.501436,-3.491019,2.957261,16.497817,10.398589,4.642119,-26.808462,85.922114,-63.805772,-0.446340,-0.349999,0.000000,1.229022,-2.113112,-0.000000
1.940000,-1.790501,-0.179821,-1.608271,1.123576,-1.045724,0.369524,2.664970,-3.382774,3.000431,16.208046,11.266736,3.986844,-28.071586,94.393923,-66.945936,-0.433285,-0.373033,0.000000,1.383497,-2.053656,-0.000000
1.950000,-1.779129,-0.190445,-1.604425,1.151032,-1.078972,0.399716,2.825623,-3.265257,3.036902,15.910242,12.227711,3.301629,-34.554325,90.998140,-70.327666,-0.418627,-0.395231,0.000000,1.546635,-1.986293,0.000000
1.960000,-1.767475,-0.201396,-1.600275,1.180078,-1.110998,0.430239,2.982933,-3.138408,3.066375,15.542390,13.138616,2.588396,-40.628238,87.985781,-73.333950,-0.402388,-0.416460,0.000000,1.700079,-1.904296,-0.000000
1.970000,-1.755522,-0.212661,-1.595819,1.210677,-1.141711,0.461019,3.136138,-3.002846,3.088488,15.082988,13.957320,1.826091,-49.667596,78.730444,-78.053883,-0.384682,-0.436558,0.000000,1.838242,-1.804624,0.000000
1.980000,-1.743256,-0.224226,-1.591054,1.242784,-1.171029,0.491982,3.284467,-2.859240,3.102858,14.582342,14.775766,1.049842,-50.394991,84.989750,-77.114089,-0.365641,-0.455371,0.000000,1.970156,-1.695440,0.000000
1.990000,-1.730662,-0.236076,-1.585979,1.276349,-1.198868,0.523051,3.427670,-2.707306,3.109461,14.043681,15.594347,0.264061,-58.902268,75.593894,-81.025794,-0.345299,-0.472846,0.000000,2.095292,-1.578176,-0.000000
2.000000,-1.717725,-0.248198,-1.580593,1.311318,-1.225149,0.554145,3.565023,-2.547742,3.107991,13.418247,16.312422,-0.560771,-64.576599,71.015904,-82.849707,-0.323805,-0.488867,0.000000,2.201386,-1.446569,0.000000
2.010000,-1.704431,-0.260574,-1.574896,1.347628,-1.249800,0.585183,3.695860,-2.381292,3.098262,12.739078,16.964918,-1.386114,-70.287020,65.219515,-84.168214,-0.301327,-0.503347,0.000000,2.291330,-1.307461,0.000000
2.020000,-1.690768,-0.273188,-1.568890,1.385212,-1.272753,0.616082,3.819694,-2.208172,3.080067,12.021812,17.668954,-2.261406,-74.042322,69.903518,-88.879689,-0.277967,-0.516231,0.000000,2.380780,-1.160517,-0.000000
2.030000,-1.676723,-0.286023,-1.562576,1.423997,-1.293941,0.646755,3.936074,-2.028385,3.053099,11.239848,18.243746,-3.121536,-82.338420,44.825847,-83.021932,-0.253799,-0.527472,0.000000,2.445626,-1.007723,-0.000000
2.040000,-1.662284,-0.299061,-1.555956,1.463906,-1.313305,0.677116,4.044272,-1.843809,3.017724,10.394356,18.678275,-3.959986,-85.793409,47.711683,-86.570539,-0.229145,-0.537047,0.000000,2.484912,-0.850668,0.000000
2.050000,-1.647441,-0.312283,-1.549035,1.504854,-1.330801,0.707081,4.143871,-1.654601,2.973743,9.517133,19.148840,-4.834916,-90.517895,40.696891,-86.387077,-0.204095,-0.544937,0.000000,2.522098,-0.689946,0.000000
2.060000,-1.632184,-0.325671,-1.541816,1.546753,-1.346384,0.736562,4.234439,-1.461304,2.921148,8.589029,19.495740,-5.681434,-94.878316,33.297357,-85.619806,-0.178786,-0.551144,0.000000,2.536828,-0.528413,0.000000
2.070000,-1.616503,-0.339204,-1.534305,1.589511,-1.360016,0.765475,4.315526,-1.264558,2.859921,7.622310,19.856951,-6.571473,-98.567431,34.408041,-89.631593,-0.153360,-0.555669,0.000000,2.547809,-0.363489,0.000000
2.080000,-1.600391,-0.352864,-1.526509,1.633031,-1.371664,0.793731,4.386750,-1.064630,2.789889,6.615528,20.088757,-7.416262,-102.726902,11.795072,-79.175494,-0.127907,-0.558515,0.000000,2.536976,-0.201309,0.000000
2.090000,-1.583840,-0.366631,-1.518433,1.677212,-1.381304,0.821246,4.447714,-0.863274,2.711794,5.572490,20.183857,-8.208064,-105.642434,11.771082,-81.834196,-0.102696,-0.559747,0.000000,2.504937,-0.043204,-0.000000
2.100000,-1.566845,-0.380484,-1.510086,1.721950,-1.388926,0.847940,4.498114,-0.660852,2.625585,4.502780,20.285446,-9.028586,-108.386726,4.008751,-79.497734,-0.077807,-0.559385,0.000000,2.470523,0.114640,-0.000000
2.110000,-1.549400,-0.394402,-1.501477,1.767138,-1.394519,0.873731,4.537825,-0.457796,2.531438,3.439698,20.316878,-9.794346,-109.994793,-2.858261,-76.615246,-0.053323,-0.557484,0.000000,2.424827,0.263444,-0.000000
2.120000,-1.531501,-0.408367,-1.492615,1.812669,-1.398083,0.898543,4.566387,-0.255160,2.429554,2.250731,20.181191,-10.587480,-122.044155,-19.271631,-79.017965,-0.029392,-0.554067,0.000000,2.357797,0.421139,0.000000
2.130000,-1.513146,-0.422357,-1.483510,1.858426,-1.399628,0.922296,4.583074,-0.054165,2.319939,1.119564,20.036621,-11.311940,-103.929293,-9.466314,-65.725468,-0.006168,-0.549114,0.000000,2.288923,0.563604,0.000000
2.140000,-1.494332,-0.436353,-1.474173,1.904296,-1.399170,0.944919,4.589059,0.145609,2.203593,0.059045,19.891314,-11.960238,-113.818429,-24.610616,-66.842387,0.016389,-0.542853,0.000000,2.219578,0.689710,0.000000
2.150000,-1.475060,-0.450334,-1.464616,1.950170,-1.396724,0.966346,4.583805,0.343046,2.080636,-1.106523,19.587745,-12.622600,-113.503774,-31.049732,-62.627985,0.038156,-0.535284,0.000000,2.132893,0.821800,-0.000000
2.160000,-1.455329,-0.464281,-1.454850,1.995934,-1.392320,0.986511,4.567120,0.537187,1.951400,-2.228192,19.227544,-13.215960,-112.832741,-37.954321,-58.085467,0.059032,-0.526453,0.000000,2.041247,0.940902,0.000000
2.170000,-1.435142,-0.478174,-1.444890,2.041474,-1.385993,1.005354,4.539102,0.727614,1.816303,-3.380743,18.857028,-13.802649,-115.576060,-39.020782,-57.187131,0.078988,-0.516433,0.000000,1.950149,1.057916,0.000000
2.180000,-1.414501,-0.491995,-1.434748,2.086677,-1.377781,1.022818,4.499646,0.913974,1.675605,-4.495684,18.386857,-14.316433,-107.270858,-55.056464,-45.470919,0.098004,-0.505268,0.000000,1.850566,1.163036,-0.000000
2.190000,-1.393410,-0.505724,-1.424438,2.131431,-1.367731,1.038851,4.449355,1.094992,1.530250,-5.565517,17.815863,-14.752369,-108.660508,-56.145938,-43.730158,0.115972,-0.493101,0.000000,1.743339,1.256003,-0.000000
2.200000,-1.371874,-0.519343,-1.413976,2.175628,-1.355900,1.053409,4.388251,1.270327,1.380573,-6.650050,17.240151,-15.173124,-106.136698,-61.865218,-38.358418,0.132885,-0.479981,0.000000,1.638733,1.345983,0.000000
2.210000,-1.349900,-0.532836,-1.403375,2.219161,-1.342345,1.066450,4.316557,1.439666,1.227031,-7.682137,16.622467,-15.525743,-102.995492,-66.462265,-32.900851,0.148745,-0.465982,0.000000,1.533254,1.424541,0.000000
2.220000,-1.327493,-0.546185,-1.392652,2.261925,-1.327129,1.077938,4.234493,1.602235,1.070180,-8.734200,15.867615,-15.837758,-104.645897,-79.720537,-28.756361,0.163509,-0.451176,0.000000,1.417854,1.500154,0.000000
2.230000,-1.304664,-0.559373,-1.381822,2.303816,-1.310326,1.087844,4.142124,1.757106,0.910496,-9.716971,15.128540,-16.085281,-91.759852,-67.871056,-20.717661,0.177124,-0.435614,0.000000,1.308107,1.564037,-0.000000
2.240000,-1.281420,-0.572386,-1.370900,2.344737,-1.292010,1.096141,4.040432,1.904933,0.748700,-10.622855,14.416358,-16.266830,-92.086466,-79.246541,-16.329490,0.189696,-0.419439,0.000000,1.204857,1.616098,-0.000000
2.250000,-1.257773,-0.585209,-1.359904,2.384594,-1.272254,1.102812,3.929600,2.044955,0.585289,-11.534371,13.585638,-16.405614,-87.440358,-82.070830,-10.694103,0.201189,-0.402706,0.000000,1.094356,1.665279,0.000000
2.260000,-1.233732,-0.597827,-1.348849,2.423299,-1.251138,1.107843,3.810002,2.176749,0.420770,-12.376042,12.771266,-16.489509,-82.470713,-84.308586,-5.240988,0.211606,-0.385483,0.000000,0.989449,1.704753,-0.000000
2.270000,-1.209311,-0.610227,-1.337753,2.460767,-1.228747,1.111226,3.682118,2.300022,0.255749,-13.197800,11.868115,-16.502824,-80.257364,-92.758031,1.735093,0.220961,-0.367849,0.000000,0.880932,1.738977,0.000000
2.280000,-1.184521,-0.622398,-1.326630,2.496915,-1.205168,1.112959,3.546299,2.414223,0.090853,-13.947199,10.990851,-16.472540,-69.533518,-82.503041,4.276148,0.229248,-0.349867,0.000000,0.778734,1.764762,-0.000000
2.290000,-1.159377,-0.634327,-1.315499,2.531669,-1.180490,1.113045,3.403442,2.519986,-0.073571,-14.619671,10.149292,-16.400996,-66.520669,-89.240034,10.843805,0.236560,-0.331636,0.000000,0.683359,1.782177,0.000000
2.300000,-1.133893,-0.646004,-1.304375,2.564962,-1.154798,1.111491,3.253974,2.616913,-0.236932,-15.263459,9.237544,-16.263313,-60.619531,-89.524105,15.829780,0.242904,-0.313216,0.000000,0.586037,1.795189,0.000000
2.310000,-1.108083,-0.657420,-1.293275,2.596729,-1.128182,1.108311,3.098407,2.704896,-0.398744,-15.839860,8.361412,-16.092435,-54.664597,-89.152682,20.441559,0.248306,-0.294670,0.000000,0.495277,1.801791,-0.000000
2.320000,-1.081964,-0.668565,-1.282214,2.626912,-1.100730,1.103523,2.937375,2.783875,-0.558457,-16.356601,7.423588,-15.835602,-48.640885,-94.909037,28.821272,0.252801,-0.276065,0.000000,0.403580,1.801717,0.000000
2.330000,-1.055550,-0.679432,-1.271209,2.655460,-1.072536,1.097151,2.771481,2.853563,-0.715409,-16.811855,6.536681,-15.560180,-42.397805,-82.290688,26.157893,0.256405,-0.257469,0.000000,0.319283,1.796995,0.000000
2.340000,-1.028860,-0.690013,-1.260276,2.682327,-1.043687,1.089224,2.601345,2.914836,-0.869633,-17.204904,5.709929,-15.271486,-36.232233,-86.446902,33.623122,0.259215,-0.238927,0.000000,0.242673,1.787783,-0.000000
2.350000,-1.001909,-0.700304,-1.249430,2.707475,-1.014268,1.079770,2.427588,2.967552,-1.020547,-17.536221,4.838500,-14.906338,-30.004650,-84.323333,37.279636,0.261254,-0.220498,0.000000,0.166071,1.773144,-0.000000
2.360000,-0.974716,-0.710297,-1.238686,2.730869,-0.984364,1.068825,2.250801,3.011808,-1.167752,-17.811650,4.018028,-14.530601,-23.921590,-81.796101,40.486552,0.262560,-0.202230,0.000000,0.096027,1.755219,0.000000
2.370000,-0.947298,-0.719990,-1.228058,2.752483,-0.954059,1.056429,2.071652,3.047834,-1.310841,-18.004083,3.184583,-14.073054,-15.704409,-82.808554,48.385000,0.263180,-0.184174,0.000000,0.028464,1.730765,0.000000
2.380000,-0.919673,-0.729377,-1.217562,2.772297,-0.923435,1.042624,1.890867,3.075696,-1.449241,-18.149700,2.405512,-13.618249,-13.468388,-72.888934,42.444271,0.263151,-0.166386,0.000000,-0.032890,1.704549,0.000000
2.390000,-0.891858,-0.738458,-1.207210,2.790296,-0.892569,1.027458,1.708797,3.096161,-1.583257,-18.250921,1.686835,-13.172837,-5.653803,-72.843501,49.199303,0.262544,-0.148873,0.000000,-0.087969,1.676761,-0.000000
2.400000,-0.863873,-0.747228,-1.197017,2.806471,-0.861536,1.010975,1.526133,3.109393,-1.712419,-18.272881,0.966924,-12.657489,0.101674,-69.056738,51.213304,0.261399,-0.131683,0.000000,-0.140349,1.643701,-0.000000
2.410000,-0.835735,-0.755688,-1.186995,2.820818,-0.830405,0.993227,1.343453,3.115689,-1.836460,-18.254992,0.299167,-12.149156,5.547697,-65.089350,52.814229,0.259756,-0.114845,0.000000,-0.187415,1.609721,-0.000000
2.420000,-0.807463,-0.763836,-1.177157,2.833342,-0.799244,0.974264,1.161382,3.115461,-1.955158,-18.143193,-0.339987,-11.580038,14.747127,-62.096256,58.618196,0.257665,-0.098395,0.000000,-0.229936,1.569859,-0.000000
2.430000,-0.779074,-0.771673,-1.167514,2.844051,-0.768116,0.954143,0.980668,3.109060,-2.068131,-18.003404,-0.929299,-11.026940,13.114745,-55.720796,51.878608,0.255173,-0.082374,0.000000,-0.267849,1.530330,-0.000000
2.440000,-0.750587,-0.779199,-1.158078,2.852960,-0.737081,0.932919,0.801375,3.097054,-2.175790,-17.840399,-1.466343,-10.496094,21.505808,-52.286718,56.605404,0.252323,-0.066761,0.000000,-0.301268,1.491360,0.000000
2.450000,-0.722021,-0.786415,-1.148859,2.860085,-0.706192,0.910646,0.624182,3.079836,-2.277847,-17.591464,-1.969422,-9.915850,26.195444,-47.696643,57.041215,0.249161,-0.051591,0.000000,-0.330419,1.447552,0.000000
2.460000,-0.693392,-0.793323,-1.139868,2.865452,-0.675500,0.887381,0.449606,3.057816,-2.374187,-17.317468,-2.427335,-9.352791,30.564098,-43.153307,57.171741,0.245727,-0.036884,0.000000,-0.355821,1.404175,-0.000000
2.470000,-0.664718,-0.799926,-1.131114,2.869088,-0.645050,0.863181,0.278137,3.031500,-2.464769,-16.962582,-2.825697,-8.758139,38.432728,-37.216444,60.120119,0.242065,-0.022655,0.000000,-0.375599,1.356617,0.000000
2.480000,-0.636016,-0.806225,-1.122607,2.871027,-0.614883,0.838105,0.110398,3.001422,-2.549433,-16.590367,-3.186362,-8.184725,35.908269,-34.939286,54.473462,0.238224,-0.008932,0.000000,-0.392538,1.310059,-0.000000
2.490000,-0.607303,-0.812225,-1.114355,2.871308,-0.585034,0.812211,-0.053645,2.967889,-2.628562,-16.206005,-3.510350,-7.637126,42.880392,-29.155616,56.622013,0.234222,0.004313,0.000000,-0.406885,1.264710,0.000000
2.500000,-0.578595,-0.817927,-1.106366,2.869969,-0.555535,0.785553,-0.213450,2.931423,-2.702071,-15.750246,-3.775654,-7.066673,46.276044,-24.622086,55.827881,0.230104,0.017058,0.000000,-0.416174,1.215890,0.000000
2.510000,-0.549908,-0.823336,-1.098646,2.867054,-0.526413,0.758188,-0.368621,2.892473,-2.769975,-15.279651,-4.008123,-6.516165,49.364758,-20.296433,54.874825,0.225905,0.029294,0.000000,-0.423236,1.167945,0.000000
2.520000,-0.521259,-0.828457,-1.091204,2.862613,-0.497692,0.730172,-0.518817,2.851533,-2.832378,-14.749412,-4.167292,-5.963942,55.121874,-13.098837,54.929986,0.221661,0.041015,0.000000,-0.424689,1.117353,-0.000000
2.530000,-0.492661,-0.833292,-1.084045,2.856696,-0.469387,0.701559,-0.663590,2.809194,-2.889323,-14.209947,-4.302904,-5.430935,52.681259,-14.094285,51.628474,0.217415,0.052206,0.000000,-0.424737,1.067875,0.000000
2.540000,-0.464130,-0.837846,-1.077175,2.849359,-0.441513,0.672403,-0.803013,2.765529,-2.941073,-13.665914,-4.418452,-4.919424,57.616405,-7.483783,51.271777,0.213169,0.062893,0.000000,-0.423711,1.019697,0.000000
2.550000,-0.435678,-0.842123,-1.070598,2.840655,-0.414079,0.642754,-0.936714,2.721077,-2.987711,-13.071471,-4.466358,-4.411127,59.702889,-3.679879,49.753926,0.208960,0.073064,0.000000,-0.417751,0.969301,0.000000
2.560000,-0.407321,-0.846129,-1.064321,2.830644,-0.387092,0.612665,-1.064430,2.676247,-3.029353,-12.469246,-4.494889,-3.919693,61.548224,-0.170859,48.216277,0.204815,0.082715,0.000000,-0.410760,0.919773,0.000000
2.570000,-0.379070,-0.849867,-1.058346,2.819387,-0.360554,0.582183,-1.185972,2.631447,-3.066182,-11.833513,-4.453073,-3.449833,64.737772,6.668431,46.038854,0.200763,0.091847,0.000000,-0.399002,0.869011,-0.000000
2.580000,-0.350937,-0.853341,-1.052678,2.806946,-0.334461,0.551357,-1.301089,2.587207,-3.098391,-11.192511,-4.400683,-2.992932,63.398936,3.715888,45.342906,0.196836,0.100455,0.000000,-0.386839,0.819089,0.000000
2.590000,-0.322935,-0.856557,-1.047320,2.793386,-0.308809,0.520231,-1.409823,2.543438,-3.126082,-10.549666,-4.342448,-2.549041,65.962412,9.741910,43.134136,0.193025,0.108555,0.000000,-0.374628,0.770153,-0.000000
2.600000,-0.295073,-0.859519,-1.042275,2.778772,-0.283589,0.488850,-1.511982,2.500597,-3.149453,-9.881030,-4.222329,-2.127797,66.902775,12.398599,41.409172,0.189359,0.116145,0.000000,-0.358319,0.720211,0.000000
2.610000,-0.267362,-0.862231,-1.037544,2.763169,-0.258793,0.457256,-1.607439,2.458995,-3.168666,-9.209203,-4.095072,-1.717138,67.661099,14.738643,39.769596,0.185858,0.123225,0.000000,-0.341822,0.670949,0.000000
2.620000,-0.239813,-0.864696,-1.033130,2.746646,-0.234405,0.425489,-1.696125,2.418909,-3.183927,-8.526336,-3.912494,-1.341138,68.653758,20.059786,36.359373,0.182536,0.129798,0.000000,-0.321880,0.621440,0.000000
2.630000,-0.212432,-0.866920,-1.029035,2.729269,-0.210408,0.393589,-1.777961,2.380732,-3.195500,-7.841509,-3.729897,-0.970424,68.273295,16.365232,37.818087,0.179419,0.135866,0.000000,-0.302171,0.572522,0.000000
2.640000,-0.185230,-0.868906,-1.025259,2.711109,-0.186784,0.361592,-1.852958,2.344282,-3.203341,-7.156916,-3.552138,-0.603369,68.843211,20.835561,34.666137,0.176490,0.141438,0.000000,-0.283027,0.524295,-0.000000
2.650000,-0.158212,-0.870657,-1.021803,2.692233,-0.163515,0.329534,-1.921078,2.309872,-3.207692,-6.467164,-3.328404,-0.268987,68.851477,22.182210,33.151866,0.173769,0.146517,0.000000,-0.261045,0.475948,0.000000
2.660000,-0.131387,-0.872177,-1.018668,2.672711,-0.140579,0.297449,-1.982300,2.277686,-3.208719,-5.777131,-3.107863,0.062045,68.749096,23.231479,31.784450,0.171267,0.151105,0.000000,-0.239455,0.428054,0.000000
2.670000,-0.104760,-0.873470,-1.015854,2.652610,-0.117954,0.265370,-2.036658,2.247855,-3.206600,-5.096205,-2.852220,0.355152,67.777973,26.547868,28.093347,0.168988,0.155208,0.000000,-0.215862,0.380824,-0.000000
2.680000,-0.078337,-0.874537,-1.013361,2.632000,-0.095614,0.233327,-2.084218,2.220603,-3.201600,-4.414356,-2.605189,0.650292,68.578362,22.776277,30.987368,0.166947,0.158832,0.000000,-0.192939,0.333874,0.000000
2.690000,-0.052122,-0.875383,-1.011187,2.610949,-0.073534,0.201348,-2.124942,2.195698,-3.193569,-3.732570,-2.371056,0.950029,67.383494,25.329966,27.719417,0.165126,0.161981,0.000000,-0.170960,0.287243,-0.000000
2.700000,-0.026119,-0.876009,-1.009333,2.589524,-0.051691,0.169465,-2.158920,2.173293,-3.182735,-3.063999,-2.110597,1.215652,66.678184,25.406625,26.672773,0.163534,0.164659,0.000000,-0.147499,0.241353,0.000000
2.710000,-0.000332,-0.876417,-1.007798,2.567792,-0.030060,0.137703,-2.186231,2.153433,-3.169232,-2.399504,-1.862265,1.484154,65.853205,25.223923,25.782724,0.162172,0.166874,0.000000,-0.124906,0.195897,0.000000
2.720000,0.025236,-0.876610,-1.006579,2.545821,-0.008614,0.106089,-2.206968,2.136119,-3.153182,-1.750547,-1.597644,1.720032,64.252613,26.691424,22.633100,0.161039,0.168632,0.000000,-0.101500,0.151207,0.000000
2.730000,0.050584,-0.876590,-1.005675,2.523675,0.012671,0.074647,-2.221261,2.121417,-3.134799,-1.107823,-1.349568,1.962837,64.282240,22.858372,25.982648,0.160138,0.169940,0.000000,-0.079201,0.107021,0.000000
2.740000,0.075709,-0.876357,-1.005085,2.501417,0.033822,0.043401,-2.229145,2.109053,-3.113884,-0.472087,-1.121486,2.215260,62.506832,23.706686,23.283073,0.159451,0.170802,0.000000,-0.058223,0.063370,-0.000000
2.750000,0.100612,-0.875914,-1.004806,2.479112,0.054860,0.012377,-2.230771,2.099035,-3.090610,0.144805,-0.884419,2.439318,61.190417,22.696551,22.776095,0.158976,0.171227,0.000000,-0.036868,0.020586,-0.000000
2.760000,0.125291,-0.875261,-1.004837,2.456822,0.075810,-0.018404,-2.226280,2.091296,-3.065062,0.751204,-0.665457,2.670182,59.774325,21.516262,22.398656,0.158709,0.171221,0.000000,-0.016704,-0.021558,0.000000
2.770000,0.149748,-0.874398,-1.005174,2.434607,0.096693,-0.048917,-2.215820,2.085720,-3.037300,1.337203,-0.450525,2.878272,57.695829,21.006191,20.217686,0.158640,0.170793,0.000000,0.002963,-0.062755,0.000000
2.780000,0.173984,-0.873327,-1.005814,2.412525,0.117532,-0.079143,-2.199575,2.082218,-3.007459,1.910819,-0.255027,3.095475,57.019177,18.054248,23.267727,0.158764,0.169952,0.000000,0.021382,-0.103241,-0.000000
2.790000,0.198000,-0.872047,-1.006755,2.390634,0.138344,-0.109059,-2.177645,2.080544,-2.975345,2.471424,-0.081098,3.324000,54.794636,17.148945,21.457525,0.159063,0.168705,0.000000,0.038422,-0.142990,-0.000000
2.800000,0.221798,-0.870560,-1.007994,2.368990,0.159148,-0.138642,-2.150229,2.080573,-2.941060,3.008852,0.083761,3.533309,52.964758,15.362471,21.405963,0.159530,0.167060,0.000000,0.054640,-0.181672,-0.000000
