time,x,y,z,vx,vy,vz,ax,ay,az,jx,jy,jz,sx,sy,sz,roll,pitch,yaw,p,q,r
0.000000,-2.701782,-0.207105,-1.467085,-0.009173,-0.000529,0.005039,0.644041,-0.038990,-0.035077,-21.362987,1.074326,0.568534,511.266845,-8.700640,-16.387472,-0.003952,-0.065324,0.000000,0.108103,2.156891,-0.000000
0.010000,-2.701844,-0.207112,-1.467036,-0.003719,-0.000866,0.004714,0.454605,-0.028641,-0.030179,-16.657377,0.999471,0.414421,431.290693,-6.321256,-14.464438,-0.002907,-0.046166,0.000000,0.101112,1.687238,0.000000
0.020000,-2.701862,-0.207122,-1.466990,0.000063,-0.001103,0.004430,0.308369,-0.018926,-0.026728,-12.709198,0.946912,0.278671,359.707078,-4.238643,-12.713567,-0.001923,-0.031338,0.000000,0.096083,1.289857,-0.000000
0.030000,-2.701847,-0.207134,-1.466947,0.002568,-0.001246,0.004175,0.198169,-0.009638,-0.024549,-9.436730,0.913760,0.159606,296.075124,-2.437422,-11.125905,-0.000980,-0.020148,0.000000,0.092859,0.958832,0.000000
0.040000,-2.701813,-0.207146,-1.466907,0.004125,-0.001297,0.003936,0.117640,-0.000595,-0.023485,-6.762660,0.897277,0.055639,239.954012,-0.902214,-9.692455,-0.000061,-0.011963,0.000000,0.091240,0.687551,-0.000000
0.050000,-2.701767,-0.207159,-1.466869,0.005001,-0.001258,0.003702,0.061165,0.008355,-0.023391,-4.614092,0.894880,-0.034732,190.901946,0.382338,-8.404696,0.000850,-0.006220,0.000000,0.091002,0.469231,0.000000
0.060000,-2.701715,-0.207171,-1.466833,0.005412,-0.001130,0.003465,0.023835,0.017341,-0.024139,-2.922528,0.904139,-0.112911,148.479065,1.431636,-7.253221,0.001763,-0.002424,0.000000,0.091919,0.297207,-0.000000
0.070000,-2.701660,-0.207181,-1.466799,0.005527,-0.000911,0.003217,0.001405,0.026469,-0.025613,-1.623885,0.922780,-0.180221,112.244033,2.261048,-6.229273,0.002691,-0.000143,0.000000,0.093770,0.165105,-0.000000
0.080000,-2.701605,-0.207189,-1.466768,0.005478,-0.000600,0.002951,-0.009753,0.035821,-0.027712,-0.658491,0.948679,-0.237892,81.755868,2.885948,-5.323923,0.003641,0.000991,0.000000,0.096343,0.066911,0.000000
0.090000,-2.701551,-0.207193,-1.466740,0.005360,-0.000194,0.002661,-0.012691,0.045460,-0.030343,0.028918,0.979868,-0.287065,56.573522,3.321707,-4.528245,0.004620,0.001290,0.000000,0.099440,-0.002976,0.000000
0.100000,-2.701498,-0.207193,-1.466715,0.005243,0.000311,0.002342,-0.009931,0.055430,-0.033428,0.489203,1.014534,-0.328793,36.256802,3.583744,-3.833336,0.005631,0.001009,0.000000,0.102876,-0.049731,-0.000000
0.110000,-2.701446,-0.207187,-1.466694,0.005173,0.000916,0.001991,-0.003508,0.065757,-0.036897,0.768804,1.051015,-0.364038,20.363890,3.687386,-3.230230,0.006678,0.000356,0.000000,0.106484,-0.078087,-0.000000
0.120000,-2.701394,-0.207174,-1.466676,0.005179,0.001627,0.001603,0.004984,0.076451,-0.040690,0.909758,1.087805,-0.393674,8.454168,3.648027,-2.710020,0.007761,-0.000506,0.000000,0.110112,-0.092332,-0.000000
0.130000,-2.701342,-0.207154,-1.466662,0.005276,0.002446,0.001176,0.014350,0.087509,-0.044755,0.949695,1.123550,-0.418485,0.086676,3.481048,-2.263783,0.008880,-0.001456,0.000000,0.113624,-0.096303,0.000000
0.140000,-2.701288,-0.207125,-1.466652,0.005466,0.003378,0.000708,0.023752,0.098915,-0.049046,0.921829,1.157052,-0.439166,-5.179591,3.201827,-1.882592,0.010033,-0.002409,0.000000,0.116898,-0.093388,-0.000000
0.150000,-2.701232,-0.207086,-1.466648,0.005749,0.004426,0.000195,0.032658,0.110639,-0.053526,0.854970,1.187264,-0.456324,-7.785725,2.825747,-1.557490,0.011216,-0.003311,0.000000,0.119831,-0.086520,0.000000
0.160000,-2.701173,-0.207036,-1.466649,0.006117,0.005592,-0.000364,0.040803,0.122646,-0.058162,0.773527,1.213295,-0.470472,-8.171352,2.368137,-1.279515,0.012428,-0.004135,0.000000,0.122334,-0.078182,-0.000000
0.170000,-2.701109,-0.206974,-1.466655,0.006562,0.006880,-0.000969,0.048147,0.134889,-0.062927,0.697476,1.234406,-0.482041,-6.779063,1.844437,-1.039835,0.013661,-0.004877,0.000000,0.124333,-0.070399,-0.000000
0.180000,-2.701041,-0.206898,-1.466668,0.007078,0.008290,-0.001622,0.054823,0.147316,-0.067796,0.642404,1.250014,-0.491366,-4.049137,1.270006,-0.829457,0.014912,-0.005550,0.000000,0.125771,-0.064750,-0.000000
0.190000,-2.700968,-0.206807,-1.466688,0.007658,0.009826,-0.002325,0.061102,0.159869,-0.072748,0.619483,1.259689,-0.498698,-0.422407,0.660237,-0.639431,0.016175,-0.006183,0.000000,0.126605,-0.062361,0.000000
0.200000,-2.700888,-0.206701,-1.466715,0.008300,0.011488,-0.003078,0.067343,0.172489,-0.077764,0.635471,1.263152,-0.504196,3.659708,0.030420,-0.461067,0.017442,-0.006811,0.000000,0.126810,-0.063908,0.000000
0.210000,-2.700802,-0.206577,-1.466749,0.009000,0.013276,-0.003880,0.071989,0.185164,-0.082783,0.244360,1.272347,-0.498037,-1.106246,-0.365464,-0.089609,0.018714,-0.007277,0.000000,0.127620,-0.024329,0.000000
0.220000,-2.700708,-0.206435,-1.466793,0.009744,0.015191,-0.004733,0.078635,0.197746,-0.087857,1.356305,1.235847,-0.522388,145.104995,-4.824790,-3.051779,0.019975,-0.007944,0.000000,0.123731,-0.136575,0.000000
0.230000,-2.700606,-0.206273,-1.466844,0.010612,0.017230,-0.005638,0.095310,0.209966,-0.093138,1.500441,1.220154,-0.522774,-118.751189,1.753495,3.028442,0.021198,-0.009624,0.000000,0.121998,-0.150956,-0.000000
0.240000,-2.700495,-0.206090,-1.466905,0.011619,0.019391,-0.006595,0.104431,0.222245,-0.098211,0.566379,1.228284,-0.496803,11.041048,-2.254821,0.419977,0.022425,-0.010539,0.000000,0.122760,-0.056614,0.000000
0.250000,-2.700374,-0.205885,-1.466976,0.012700,0.021674,-0.007602,0.112740,0.234350,-0.103200,1.048878,1.193183,-0.499557,6.562831,-2.640206,0.768338,0.023634,-0.011372,0.000000,0.119069,-0.105190,-0.000000
0.260000,-2.700241,-0.205656,-1.467058,0.013881,0.024077,-0.008659,0.123475,0.246159,-0.108153,1.096245,1.168315,-0.490591,6.633717,-3.065073,1.003263,0.024812,-0.012449,0.000000,0.116453,-0.109863,-0.000000
0.270000,-2.700096,-0.205403,-1.467150,0.015172,0.026596,-0.009765,0.134970,0.257643,-0.113006,1.215722,1.125179,-0.479701,13.633851,-4.847320,1.193769,0.025956,-0.013601,0.000000,0.112007,-0.121794,0.000000
0.280000,-2.699937,-0.205124,-1.467253,0.016585,0.029228,-0.010919,0.147621,0.268683,-0.117738,1.292768,1.086376,-0.466315,1.655487,-2.888250,1.483130,0.027054,-0.014868,0.000000,0.108014,-0.129443,0.000000
0.290000,-2.699763,-0.204818,-1.467368,0.018126,0.031969,-0.012119,0.160637,0.279394,-0.122324,1.321948,1.053056,-0.450468,7.829975,-4.492263,1.664663,0.028119,-0.016172,0.000000,0.104591,-0.132275,-0.000000
0.300000,-2.699574,-0.204484,-1.467496,0.019800,0.034815,-0.013365,0.174347,0.289674,-0.126742,1.418234,1.002689,-0.432874,7.779837,-4.861716,1.873224,0.029139,-0.017544,0.000000,0.099465,-0.141858,-0.000000
0.310000,-2.699367,-0.204121,-1.467636,0.021615,0.037761,-0.014654,0.188945,0.299452,-0.130974,1.502181,0.952260,-0.413185,8.047604,-5.258111,2.070902,0.030109,-0.019004,0.000000,0.094351,-0.150198,0.000000
0.320000,-2.699141,-0.203728,-1.467789,0.023581,0.040802,-0.015984,0.204322,0.308704,-0.134999,1.570296,0.897241,-0.391427,6.504730,-5.708016,2.272669,0.031025,-0.020542,0.000000,0.088794,-0.156948,-0.000000
0.330000,-2.698895,-0.203305,-1.467956,0.025704,0.043933,-0.017353,0.220402,0.317386,-0.138797,1.651791,0.838887,-0.367898,9.821152,-5.959240,2.431267,0.031883,-0.022150,0.000000,0.082919,-0.165045,-0.000000
0.340000,-2.698627,-0.202850,-1.468136,0.027992,0.047148,-0.018759,0.237413,0.325471,-0.142351,1.747832,0.777389,-0.342704,8.444518,-6.373595,2.612313,0.032682,-0.023850,0.000000,0.076745,-0.174606,-0.000000
0.350000,-2.698334,-0.202362,-1.468331,0.030455,0.050440,-0.020199,0.255292,0.332920,-0.145645,1.828633,0.711763,-0.315740,8.651602,-6.713841,2.771974,0.033417,-0.025637,0.000000,0.070175,-0.182643,0.000000
0.360000,-2.698017,-0.201840,-1.468540,0.033101,0.053804,-0.021671,0.274022,0.339696,-0.148662,1.917954,0.642846,-0.287469,8.830400,-7.045189,2.916840,0.034084,-0.027509,0.000000,0.063289,-0.191541,0.000000
0.370000,-2.697672,-0.201285,-1.468764,0.035939,0.057232,-0.023171,0.293626,0.345768,-0.151387,2.001706,0.571107,-0.257107,8.287303,-7.321884,3.118301,0.034682,-0.029468,0.000000,0.056140,-0.199892,0.000000
0.380000,-2.697297,-0.200696,-1.469004,0.038976,0.060717,-0.024697,0.314079,0.351106,-0.153801,2.091412,0.496004,-0.225885,9.663673,-7.697142,3.122940,0.035206,-0.031512,0.000000,0.048665,-0.208849,0.000000
0.390000,-2.696892,-0.200071,-1.469258,0.042223,0.064251,-0.026246,0.335478,0.355677,-0.155902,2.187475,0.417641,-0.193974,9.174342,-7.951710,3.292814,0.035654,-0.033650,0.000000,0.040875,-0.218454,-0.000000
0.400000,-2.696452,-0.199410,-1.469529,0.045689,0.067828,-0.027814,0.357803,0.359451,-0.157675,2.278025,0.336830,-0.160373,9.304700,-8.229746,3.389586,0.036023,-0.035881,0.000000,0.032853,-0.227523,0.000000
0.410000,-2.695977,-0.198714,-1.469815,0.049383,0.071437,-0.029399,0.381052,0.362404,-0.159109,2.371918,0.253133,-0.126387,9.405724,-8.494758,3.468583,0.036310,-0.038205,0.000000,0.024551,-0.236940,-0.000000
0.420000,-2.695464,-0.197982,-1.470117,0.053313,0.075073,-0.030995,0.405240,0.364507,-0.160195,2.465485,0.167096,-0.090464,9.369388,-8.722960,3.652414,0.036513,-0.040623,0.000000,0.016027,-0.246345,0.000000
0.430000,-2.694910,-0.197213,-1.470435,0.057490,0.078725,-0.032601,0.430367,0.365737,-0.160919,2.560604,0.078458,-0.054668,9.654021,-9.002757,3.502726,0.036630,-0.043135,0.000000,0.007246,-0.255922,0.000000
0.440000,-2.694313,-0.196407,-1.470769,0.061924,0.082384,-0.034213,0.456457,0.366067,-0.161290,2.657217,-0.012667,-0.019216,9.601044,-9.207584,3.647347,0.036657,-0.045745,0.000000,-0.001784,-0.265663,-0.000000
0.450000,-2.693671,-0.195565,-1.471119,0.066623,0.086043,-0.035826,0.483508,0.365477,-0.161297,2.753118,-0.105756,0.017710,9.641306,-9.420588,3.673869,0.036594,-0.048452,0.000000,-0.011003,-0.275358,-0.000000
0.460000,-2.692980,-0.194686,-1.471485,0.071597,0.089691,-0.037437,0.511522,0.363945,-0.160938,2.849569,-0.201023,0.054096,9.658974,-9.620965,3.682068,0.036436,-0.051256,0.000000,-0.020443,-0.285125,-0.000000
0.470000,-2.692238,-0.193771,-1.471868,0.076856,0.093319,-0.039043,0.540501,0.361451,-0.160209,2.946358,-0.298044,0.092052,9.683097,-9.790434,3.828423,0.036184,-0.054159,0.000000,-0.030055,-0.294956,0.000000
0.480000,-2.691442,-0.192820,-1.472266,0.082410,0.096917,-0.040640,0.570448,0.357977,-0.159101,3.042902,-0.396984,0.128975,9.622110,-9.995782,3.551768,0.035835,-0.057159,0.000000,-0.039867,-0.304779,0.000000
0.490000,-2.690588,-0.191833,-1.472680,0.088269,0.100475,-0.042224,0.601357,0.353505,-0.157634,3.138991,-0.497727,0.164633,9.605332,-10.141285,3.657041,0.035386,-0.060258,0.000000,-0.049869,-0.314572,0.000000
0.500000,-2.689675,-0.190811,-1.473110,0.094441,0.103983,-0.043792,0.633227,0.348019,-0.155804,3.234828,-0.599846,0.201400,9.546243,-10.289770,3.615798,0.034837,-0.063455,0.000000,-0.060011,-0.324370,0.000000
0.510000,-2.688699,-0.189754,-1.473556,0.100936,0.107432,-0.045339,0.666051,0.341503,-0.153612,3.329751,-0.703516,0.236862,9.463801,-10.426365,3.559003,0.034185,-0.066749,0.000000,-0.070320,-0.334091,-0.000000
0.520000,-2.687655,-0.188662,-1.474017,0.107765,0.110810,-0.046863,0.699821,0.333945,-0.151062,3.424300,-0.808186,0.273321,9.414042,-10.520622,3.649243,0.033430,-0.070140,0.000000,-0.080735,-0.343806,0.000000
0.530000,-2.686542,-0.187538,-1.474493,0.114936,0.114107,-0.048359,0.734532,0.325335,-0.148151,3.517364,-0.914203,0.308094,9.194069,-10.681026,3.301322,0.032570,-0.073628,0.000000,-0.091301,-0.353385,0.000000
0.540000,-2.685355,-0.186380,-1.474984,0.122459,0.117313,-0.049825,0.770163,0.315657,-0.144907,3.608676,-1.021456,0.340973,9.093079,-10.751915,3.355536,0.031604,-0.077211,0.000000,-0.102006,-0.362798,-0.000000
0.550000,-2.684092,-0.185192,-1.475490,0.130342,0.120417,-0.051256,0.806702,0.304904,-0.141328,3.698903,-1.129327,0.374477,8.919954,-10.835338,3.261444,0.030530,-0.080888,0.000000,-0.112781,-0.372130,0.000000
0.560000,-2.682747,-0.183972,-1.476009,0.138596,0.123408,-0.052650,0.844133,0.293067,-0.137424,3.786892,-1.238084,0.406226,8.719419,-10.905210,3.157447,0.029348,-0.084657,0.000000,-0.123662,-0.381245,0.000000
0.570000,-2.681319,-0.182724,-1.476543,0.147228,0.126274,-0.054003,0.882436,0.280141,-0.133202,3.873629,-1.347306,0.438250,8.579543,-10.945369,3.178297,0.028056,-0.088516,0.000000,-0.134599,-0.390259,0.000000
0.580000,-2.679802,-0.181447,-1.477089,0.156247,0.129007,-0.055313,0.921595,0.266119,-0.128666,3.957469,-1.457120,0.468347,8.182957,-11.015243,2.838238,0.026655,-0.092464,0.000000,-0.145612,-0.398985,0.000000
0.590000,-2.678192,-0.180144,-1.477649,0.165662,0.131593,-0.056576,0.961575,0.250997,-0.123842,4.038099,-1.567396,0.496378,7.983436,-11.029334,2.836086,0.025144,-0.096497,0.000000,-0.156686,-0.407389,0.000000
0.600000,-2.676487,-0.178816,-1.478221,0.175481,0.134023,-0.057789,1.002351,0.234771,-0.118737,4.116673,-1.677731,0.524477,7.682404,-11.043551,2.714849,0.023522,-0.100614,0.000000,-0.167774,-0.415603,0.000000
0.610000,-2.674681,-0.177464,-1.478804,0.185712,0.136285,-0.058950,1.043895,0.217441,-0.113359,4.191546,-1.788191,0.550821,7.350704,-11.043266,2.592112,0.021788,-0.104810,0.000000,-0.178888,-0.423443,0.000000
0.620000,-2.672771,-0.176091,-1.479399,0.196362,0.138368,-0.060055,1.086176,0.199008,-0.107721,4.264168,-1.898521,0.576665,7.108982,-11.023110,2.540214,0.019944,-0.109084,0.000000,-0.189996,-0.431065,-0.000000
0.630000,-2.670753,-0.174698,-1.480005,0.207438,0.140261,-0.061103,1.129163,0.179472,-0.101832,4.332374,-2.008664,0.600858,6.525979,-11.003121,2.297534,0.017989,-0.113432,0.000000,-0.201093,-0.438238,-0.000000
0.640000,-2.668621,-0.173286,-1.480621,0.218947,0.141954,-0.062091,1.172807,0.158836,-0.095710,4.395816,-2.118477,0.623368,6.218813,-10.954200,2.242026,0.015922,-0.117848,0.000000,-0.212164,-0.444923,0.000000
0.650000,-2.666372,-0.171859,-1.481247,0.230896,0.143434,-0.063017,1.217070,0.137104,-0.089365,4.456152,-2.227722,0.645399,5.782613,-10.895115,2.127814,0.013745,-0.122330,0.000000,-0.223179,-0.451296,0.000000
0.660000,-2.664002,-0.170419,-1.481881,0.243291,0.144692,-0.063878,1.261912,0.114283,-0.082806,4.511272,-2.336299,0.666189,5.314959,-10.820497,2.022392,0.011459,-0.126873,0.000000,-0.234129,-0.457137,-0.000000
0.670000,-2.661505,-0.168966,-1.482524,0.256136,0.145717,-0.064672,1.307286,0.090381,-0.076046,4.563080,-2.444105,0.685787,4.966675,-10.735505,1.907213,0.009063,-0.131473,0.000000,-0.245000,-0.462632,-0.000000
0.680000,-2.658877,-0.167505,-1.483175,0.269438,0.146496,-0.065398,1.353153,0.065405,-0.069093,4.608934,-2.550905,0.704541,4.197475,-10.621865,1.845322,0.006559,-0.136124,0.000000,-0.255765,-0.467521,0.000000
0.690000,-2.656115,-0.166037,-1.483832,0.283201,0.147021,-0.066053,1.399443,0.039366,-0.061957,4.648473,-2.656541,0.722551,3.782283,-10.505394,1.749610,0.003948,-0.140821,0.000000,-0.266407,-0.471768,0.000000
0.700000,-2.653212,-0.164565,-1.484495,0.297428,0.147280,-0.066637,1.446110,0.012278,-0.054646,4.683846,-2.760938,0.739646,3.212484,-10.368869,1.679746,0.001231,-0.145558,0.000000,-0.276916,-0.475582,0.000000
0.710000,-2.650165,-0.163092,-1.485164,0.312124,0.147263,-0.067146,1.493097,-0.015847,-0.047165,4.712544,-2.863848,0.756487,2.613045,-10.216045,1.628275,-0.001590,-0.150330,0.000000,-0.287264,-0.478723,-0.000000
0.720000,-2.646968,-0.161621,-1.485838,0.327291,0.146960,-0.067579,1.540348,-0.044994,-0.039522,4.736854,-2.965257,0.771684,2.157811,-10.057686,1.473717,-0.004513,-0.155131,0.000000,-0.297448,-0.481396,0.000000
0.730000,-2.643617,-0.160154,-1.486516,0.342931,0.146360,-0.067936,1.587809,-0.075146,-0.031729,4.753791,-3.064835,0.787277,1.222991,-9.854869,1.649380,-0.007538,-0.159956,0.000000,-0.307435,-0.483335,-0.000000
0.740000,-2.640108,-0.158695,-1.487196,0.359047,0.145454,-0.068213,1.635397,-0.106284,-0.023774,4.763005,-3.162410,0.803501,0.704234,-9.663058,1.537032,-0.010661,-0.164796,0.000000,-0.317206,-0.484512,-0.000000
0.750000,-2.636435,-0.157246,-1.487880,0.375640,0.144231,-0.068411,1.683053,-0.138388,-0.015664,4.767057,-3.257995,0.818589,0.014693,-9.445633,1.544262,-0.013881,-0.169645,0.000000,-0.326760,-0.485151,0.000000
0.760000,-2.632593,-0.155811,-1.488564,0.392708,0.142683,-0.068526,1.730711,-0.171436,-0.007398,4.763162,-3.351270,0.834735,-0.700432,-9.211543,1.577165,-0.017196,-0.174497,0.000000,-0.336069,-0.485017,0.000000
0.770000,-2.628579,-0.154394,-1.489250,0.410254,0.140799,-0.068558,1.778300,-0.205406,0.001023,4.753870,-3.442216,0.849171,-1.254592,-8.970173,1.420578,-0.020602,-0.179345,0.000000,-0.345124,-0.484315,0.000000
0.780000,-2.624387,-0.152997,-1.489935,0.428274,0.138572,-0.068505,1.825759,-0.240272,0.009592,4.736047,-3.530517,0.865467,-2.315908,-8.686948,1.844944,-0.024097,-0.184183,0.000000,-0.353903,-0.482801,-0.000000
0.790000,-2.620012,-0.151623,-1.490620,0.446768,0.135991,-0.068366,1.872991,-0.276007,0.018341,4.709389,-3.615997,0.883956,-2.923816,-8.411156,1.747514,-0.027679,-0.189001,0.000000,-0.362394,-0.480457,-0.000000
0.800000,-2.615450,-0.150278,-1.491302,0.465733,0.133049,-0.068138,1.919928,-0.312582,0.027266,4.676711,-3.698643,0.901404,-3.707643,-8.110328,1.853416,-0.031344,-0.193794,0.000000,-0.370586,-0.477506,-0.000000
0.810000,-2.610696,-0.148964,-1.491982,0.485165,0.129737,-0.067820,1.966495,-0.349969,0.036378,4.635217,-3.778161,0.921317,-4.508346,-7.792598,1.987708,-0.035090,-0.198553,0.000000,-0.378467,-0.473742,0.000000
0.820000,-2.605745,-0.147685,-1.492658,0.505061,0.126047,-0.067410,2.012612,-0.388135,0.045686,4.587285,-3.854458,0.939890,-5.162394,-7.461983,1.870571,-0.038912,-0.203272,0.000000,-0.386015,-0.469331,0.000000
0.830000,-2.600593,-0.146444,-1.493330,0.525416,0.121971,-0.066905,2.058209,-0.427047,0.055188,4.530204,-3.927298,0.961740,-6.257896,-7.103040,2.506987,-0.042809,-0.207944,0.000000,-0.393231,-0.464104,0.000000
0.840000,-2.595235,-0.145246,-1.493996,0.546223,0.117503,-0.066305,2.103185,-0.466669,0.064934,4.463765,-3.996505,0.987251,-6.948166,-6.737693,2.456517,-0.046776,-0.212560,0.000000,-0.400109,-0.458058,0.000000
0.850000,-2.589667,-0.144095,-1.494656,0.567477,0.112636,-0.065606,2.147463,-0.506964,0.074929,4.390511,-4.061976,1.012136,-7.786670,-6.351409,2.664881,-0.050810,-0.217113,0.000000,-0.406622,-0.451359,0.000000
0.860000,-2.583884,-0.142995,-1.495308,0.589170,0.107362,-0.064806,2.190965,-0.547895,0.085191,4.308441,-4.123526,1.040768,-8.623828,-5.948653,2.899262,-0.054907,-0.221597,0.000000,-0.412783,-0.443911,-0.000000
0.870000,-2.577882,-0.141949,-1.495952,0.611294,0.101676,-0.063901,2.233605,-0.589421,0.095738,4.218097,-4.180827,1.068636,-9.452078,-5.515414,2.838913,-0.059064,-0.226002,0.000000,-0.418543,-0.435676,-0.000000
0.880000,-2.571657,-0.140963,-1.496586,0.633839,0.095572,-0.062890,2.275299,-0.631498,0.106579,4.119253,-4.233917,1.100997,-10.316999,-5.099965,3.640839,-0.063277,-0.230323,0.000000,-0.423944,-0.426754,-0.000000
0.890000,-2.565204,-0.140039,-1.497209,0.656796,0.089044,-0.061768,2.315961,-0.674084,0.117776,4.011896,-4.282630,1.138225,-11.147478,-4.632845,3.643525,-0.067542,-0.234552,0.000000,-0.428986,-0.417164,-0.000000
0.900000,-2.558519,-0.139183,-1.497821,0.680155,0.082089,-0.060533,2.355509,-0.717134,0.129341,3.896258,-4.326572,1.175303,-11.986768,-4.159452,3.936674,-0.071855,-0.238683,0.000000,-0.433608,-0.406819,0.000000
0.910000,-2.551599,-0.138399,-1.498419,0.703902,0.074700,-0.059180,2.393860,-0.760601,0.141299,3.772492,-4.365883,1.217033,-12.816039,-3.670857,4.248692,-0.076213,-0.242708,0.000000,-0.437866,-0.395852,0.000000
0.920000,-2.544440,-0.137691,-1.499004,0.728027,0.066875,-0.057706,2.430927,-0.804433,0.153679,3.639492,-4.399663,1.258816,-13.733909,-3.110066,4.266850,-0.080611,-0.246620,0.000000,-0.441652,-0.384051,-0.000000
0.930000,-2.537038,-0.137063,-1.499573,0.752516,0.058610,-0.056105,2.466624,-0.848578,0.166494,3.498867,-4.428612,1.305703,-14.388057,-2.677361,5.116496,-0.085045,-0.250412,0.000000,-0.445083,-0.371699,-0.000000
0.940000,-2.529389,-0.136520,-1.500125,0.777355,0.049903,-0.054374,2.500880,-0.892989,0.179812,3.350769,-4.452581,1.357979,-15.279479,-2.085144,5.180462,-0.089511,-0.254079,0.000000,-0.448162,-0.358825,-0.000000
0.950000,-2.521489,-0.136067,-1.500660,0.802529,0.040750,-0.052507,2.533609,-0.937609,0.193652,3.193736,-4.470492,1.410671,-16.076280,-1.521903,5.517236,-0.094006,-0.257615,0.000000,-0.450755,-0.345168,0.000000
0.960000,-2.513337,-0.135707,-1.501175,0.828022,0.031150,-0.050499,2.564730,-0.982381,0.208043,3.029224,-4.482972,1.468181,-16.860291,-0.940825,5.859042,-0.098525,-0.261012,0.000000,-0.452975,-0.330980,-0.000000
0.970000,-2.504928,-0.135445,-1.501670,0.853818,0.021102,-0.048344,2.594165,-1.027246,0.223017,2.856240,-4.488967,1.526691,-17.698982,-0.283959,5.964494,-0.103064,-0.264264,0.000000,-0.454694,-0.316068,0.000000
0.980000,-2.496260,-0.135286,-1.502142,0.879899,0.010605,-0.046037,2.621831,-1.072141,0.238594,2.676037,-4.489194,1.590016,-18.337933,0.240881,6.703334,-0.107618,-0.267365,0.000000,-0.456033,-0.300651,-0.000000
0.990000,-2.487329,-0.135234,-1.502590,0.906248,-0.000341,-0.043570,2.647662,-1.117011,0.254835,2.488820,-4.483492,1.658269,-19.138343,0.932456,6.822813,-0.112183,-0.270310,0.000000,-0.456990,-0.284754,0.000000
1.000000,-2.478134,-0.135294,-1.503012,0.932846,-0.011735,-0.040938,2.671581,-1.161787,0.271760,2.293631,-4.470725,1.727488,-19.860665,1.595256,7.141461,-0.116756,-0.273094,0.000000,-0.457425,-0.268174,0.000000
1.010000,-2.468671,-0.135471,-1.503408,0.959673,-0.023576,-0.038133,2.693513,-1.206402,0.289399,2.091719,-4.451079,1.800851,-20.561632,2.286923,7.448464,-0.121330,-0.275709,0.000000,-0.457401,-0.251111,0.000000
1.020000,-2.458940,-0.135767,-1.503774,0.986710,-0.035862,-0.035147,2.713388,-1.250789,0.307781,1.882068,-4.425378,1.875666,-21.323200,2.905936,7.589596,-0.125903,-0.278151,0.000000,-0.456981,-0.233388,0.000000
1.030000,-2.448937,-0.136189,-1.504110,1.013934,-0.048591,-0.031975,2.731134,-1.294883,0.326926,1.666205,-4.391860,1.954217,-21.844634,3.802861,8.119697,-0.130468,-0.280412,0.000000,-0.456023,-0.215205,0.000000
1.040000,-2.438660,-0.136741,-1.504413,1.041325,-0.061758,-0.028606,2.746693,-1.338599,0.346878,1.444403,-4.350238,2.036410,-22.554061,4.475876,8.236311,-0.135021,-0.282490,0.000000,-0.454507,-0.196577,-0.000000
1.050000,-2.428110,-0.137426,-1.504682,1.068860,-0.075361,-0.025034,2.759998,-1.381866,0.367655,1.215561,-4.301849,2.119522,-23.168258,5.254873,8.460777,-0.139557,-0.284378,0.000000,-0.452543,-0.177309,0.000000
1.060000,-2.417283,-0.138249,-1.504913,1.096517,-0.089394,-0.021250,2.770983,-1.424607,0.389277,0.980455,-4.244888,2.205162,-23.769323,6.061733,8.653075,-0.144070,-0.286069,0.000000,-0.449975,-0.157506,-0.000000
1.070000,-2.406179,-0.139215,-1.505106,1.124272,-0.103851,-0.017246,2.779594,-1.466743,0.411764,0.740993,-4.181270,2.292394,-24.195713,6.742452,8.796607,-0.148555,-0.287560,0.000000,-0.446979,-0.137310,-0.000000
1.080000,-2.394797,-0.140328,-1.505257,1.152101,-0.118727,-0.013012,2.785781,-1.508201,0.435130,0.495013,-4.108350,2.381165,-24.997885,7.847436,8.951666,-0.153007,-0.288844,0.000000,-0.443301,-0.116493,0.000000
1.090000,-2.383137,-0.141591,-1.505365,1.179979,-0.134013,-0.008540,2.789472,-1.548877,0.459391,0.242692,-4.025805,2.471120,-25.383604,8.587556,9.023806,-0.157419,-0.289915,0.000000,-0.438906,-0.095039,0.000000
1.100000,-2.371198,-0.143009,-1.505427,1.207882,-0.149701,-0.003821,2.790624,-1.588693,0.484554,-0.013213,-3.935869,2.561588,-25.870218,9.480706,9.070570,-0.161784,-0.290767,0.000000,-0.433991,-0.073175,0.000000
1.110000,-2.358979,-0.144586,-1.505441,1.235783,-0.165783,0.001154,2.789187,-1.627559,0.510622,-0.275098,-3.835567,2.651852,-26.337657,10.409044,9.062204,-0.166096,-0.291395,0.000000,-0.428255,-0.050624,0.000000
1.120000,-2.346482,-0.146326,-1.505403,1.263657,-0.182249,0.006394,2.785120,-1.665388,0.537597,-0.538347,-3.729221,2.743480,-26.464801,11.032171,9.170301,-0.170348,-0.291793,0.000000,-0.422129,-0.027853,0.000000
1.130000,-2.333706,-0.148233,-1.505312,1.291477,-0.199087,0.011909,2.778399,-1.702103,0.565485,-0.807600,-3.611318,2.833306,-27.384413,12.556835,8.783608,-0.174535,-0.291957,0.000000,-0.415021,-0.004293,0.000000
1.140000,-2.320653,-0.150309,-1.505164,1.319216,-0.216287,0.017707,2.768948,-1.737573,0.594255,-1.082696,-3.481439,2.920696,-27.467808,13.251397,8.771153,-0.178645,-0.291877,0.000000,-0.406862,0.020093,0.000000
1.150000,-2.307322,-0.152560,-1.504957,1.346847,-0.233835,0.023797,2.756746,-1.771713,0.623899,-1.358178,-3.344788,3.007813,-27.780832,14.251291,8.557348,-0.182670,-0.291548,0.000000,-0.398169,0.044736,0.000000
1.160000,-2.293716,-0.154987,-1.504687,1.374342,-0.251716,0.030188,2.741768,-1.804425,0.654396,-1.637900,-3.195783,3.091032,-28.050683,15.284856,8.269586,-0.186604,-0.290964,0.000000,-0.388316,0.070152,0.000000
1.170000,-2.279836,-0.157595,-1.504352,1.401673,-0.269918,0.036888,2.723989,-1.835615,0.685725,-1.918066,-3.041507,3.174779,-28.076536,15.831533,8.282397,-0.190436,-0.290120,0.000000,-0.378057,0.095871,0.000000
1.180000,-2.265683,-0.160386,-1.503949,1.428812,-0.288423,0.043905,2.703396,-1.865208,0.717871,-2.201405,-2.873674,3.252542,-28.585665,17.744658,7.253893,-0.194160,-0.289009,0.000000,-0.366421,0.122386,0.000000
1.190000,-2.251260,-0.163364,-1.503473,1.455731,-0.307216,0.051247,2.679950,-1.893040,0.750751,-2.487538,-2.691833,3.323432,-28.528983,18.362855,7.102258,-0.197759,-0.287622,0.000000,-0.353306,0.149722,-0.000000
1.200000,-2.236570,-0.166532,-1.502923,1.482401,-0.326278,0.058922,2.653650,-1.919030,0.784337,-2.772672,-2.504177,3.392764,-28.590715,19.429889,6.564824,-0.201225,-0.285954,0.000000,-0.339590,0.177378,-0.000000
1.210000,-2.221613,-0.169891,-1.502294,1.508795,-0.345590,0.066936,2.624493,-1.943076,0.818576,-3.058816,-2.303263,3.453788,-28.590293,20.509267,5.938130,-0.204546,-0.283998,0.000000,-0.324353,0.205785,0.000000
1.220000,-2.206395,-0.173444,-1.501583,1.534882,-0.365133,0.075296,2.592478,-1.965079,0.853416,-3.343917,-2.096239,3.514146,-28.456237,21.131455,5.822253,-0.207710,-0.281749,0.000000,-0.308428,0.234547,0.000000
1.230000,-2.190917,-0.177194,-1.500786,1.560635,-0.384885,0.084007,2.557616,-1.984954,0.888821,-3.628498,-1.875686,3.563710,-28.449864,22.985205,4.069959,-0.210708,-0.279202,0.000000,-0.290802,0.264041,0.000000
1.240000,-2.175183,-0.181143,-1.499901,1.586025,-0.404824,0.093074,2.519911,-2.002545,0.924649,-3.911936,-1.641348,3.601387,-28.188682,23.641791,3.756934,-0.213520,-0.276347,0.000000,-0.271357,0.294263,-0.000000
1.250000,-2.159198,-0.185291,-1.498924,1.611023,-0.424928,0.102501,2.479388,-2.017765,0.960844,-4.192353,-1.400867,3.636049,-27.919033,24.689988,2.862620,-0.216133,-0.273179,0.000000,-0.251007,0.324791,-0.000000
1.260000,-2.142964,-0.189642,-1.497850,1.635603,-0.445171,0.112291,2.436077,-2.030517,0.997322,-4.469235,-1.147662,3.657725,-27.558940,25.729776,1.874740,-0.218533,-0.269694,0.000000,-0.228791,0.355878,0.000000
1.270000,-2.126487,-0.194195,-1.496677,1.659736,-0.465530,0.122448,2.390007,-2.040702,1.033998,-4.744323,-0.888350,3.677126,-27.334506,26.339917,1.593790,-0.220706,-0.265886,0.000000,-0.205586,0.387416,-0.000000
1.280000,-2.109771,-0.198952,-1.495400,1.683394,-0.485977,0.132972,2.341211,-2.048241,1.070810,-5.013329,-0.616513,3.680969,-26.449565,28.029236,-0.848270,-0.222638,-0.261752,0.000000,-0.180334,0.419351,0.000000
1.290000,-2.092821,-0.203915,-1.494016,1.706551,-0.506485,0.143864,2.289765,-2.052989,1.107558,-5.275280,-0.332151,3.668066,-26.038561,28.623955,-1.337713,-0.224305,-0.257286,0.000000,-0.152920,0.451608,-0.000000
1.300000,-2.075642,-0.209082,-1.492521,1.729181,-0.527027,0.155123,2.235718,-2.054869,1.144163,-5.532859,-0.042345,3.650582,-25.351638,29.543508,-2.572747,-0.225693,-0.252486,0.000000,-0.124325,0.484127,-0.000000
1.310000,-2.058239,-0.214455,-1.490912,1.751257,-0.547573,0.166746,2.179141,-2.053798,1.180508,-5.781121,0.258181,3.615955,-24.554340,30.421670,-3.891016,-0.226784,-0.247351,0.000000,-0.093600,0.516719,-0.000000
1.320000,-2.040619,-0.220034,-1.489185,1.772755,-0.568093,0.178731,2.120102,-2.049688,1.216475,-6.026117,0.564710,3.576916,-24.169313,31.004138,-4.382047,-0.227561,-0.241879,0.000000,-0.061522,0.549664,0.000000
1.330000,-2.022786,-0.225817,-1.487337,1.793651,-0.588556,0.191074,2.058662,-2.042471,1.251978,-6.258736,0.880783,3.518564,-22.331197,32.205079,-7.310351,-0.228007,-0.236068,0.000000,-0.027241,0.582361,0.000000
1.340000,-2.004748,-0.231804,-1.485363,1.813921,-0.608931,0.203769,1.994975,-2.032041,1.286775,-6.477702,1.206014,3.439801,-21.709445,32.700915,-7.988084,-0.228098,-0.229924,0.000000,0.009302,0.614631,0.000000
1.350000,-1.986510,-0.237995,-1.483260,1.833543,-0.629186,0.216807,1.929124,-2.018338,1.320761,-6.690384,1.535686,3.354756,-20.548936,33.351486,-9.486686,-0.227817,-0.223449,0.000000,0.047259,0.646854,-0.000000
1.360000,-1.968079,-0.244388,-1.481025,1.852497,-0.649287,0.230181,1.861224,-2.001305,1.353799,-6.887325,1.871840,3.249941,-19.262796,33.917230,-11.038848,-0.227146,-0.216647,0.000000,0.087273,0.678272,0.000000
1.370000,-1.949462,-0.250980,-1.478655,1.870761,-0.669201,0.243879,1.791386,-1.980879,1.385744,-7.079369,2.214238,3.137960,-18.704543,34.500428,-11.790862,-0.226066,-0.209525,0.000000,0.128982,0.709689,-0.000000
1.380000,-1.930666,-0.257771,-1.476147,1.888318,-0.688893,0.257892,1.719704,-1.957007,1.416485,-7.252162,2.560550,3.005035,-15.825469,34.746224,-14.810380,-0.224560,-0.202088,0.000000,0.172565,0.739762,0.000000
1.390000,-1.911698,-0.264757,-1.473496,1.905150,-0.708329,0.272204,1.646416,-1.929659,1.445769,-7.404194,2.909858,2.850395,-14.996022,35.149685,-15.685849,-0.222609,-0.194355,0.000000,0.217942,0.768189,-0.000000
1.400000,-1.892566,-0.271937,-1.470702,1.921242,-0.727475,0.286802,1.571639,-1.898797,1.473473,-7.548129,3.262815,2.687612,-13.347400,35.376561,-17.303451,-0.220196,-0.186337,0.000000,0.264771,0.795966,-0.000000
1.410000,-1.873276,-0.279306,-1.467760,1.936579,-0.746293,0.301668,1.495533,-1.864406,1.499451,-7.669845,3.615502,2.504970,-11.572985,35.472134,-18.925843,-0.217309,-0.178050,0.000000,0.312932,0.821625,-0.000000
1.420000,-1.853837,-0.286861,-1.464668,1.951148,-0.764751,0.316784,1.418255,-1.826459,1.523543,-7.784750,3.974932,2.311870,-10.820287,36.078338,-19.981518,-0.213931,-0.169511,0.000000,0.362861,0.846577,-0.000000
1.430000,-1.834255,-0.294599,-1.461423,1.964940,-0.782811,0.332132,1.339928,-1.784924,1.545621,-7.873932,4.330035,2.099317,-6.985110,34.914186,-22.534556,-0.210049,-0.160734,0.000000,0.413533,0.868699,-0.000000
1.440000,-1.814540,-0.302516,-1.458024,1.977945,-0.800438,0.347689,1.260872,-1.739880,1.565462,-7.935809,4.679285,1.867121,-5.957491,35.238325,-23.607291,-0.205659,-0.151758,0.000000,0.464648,0.887604,0.000000
1.450000,-1.794699,-0.310607,-1.454469,1.990156,-0.817597,0.363433,1.181234,-1.691322,1.582935,-7.987922,5.031695,1.624803,-3.875822,34.904241,-25.141428,-0.200752,-0.142604,0.000000,0.516821,0.904990,-0.000000
1.460000,-1.774740,-0.318866,-1.450755,2.001568,-0.834252,0.379340,1.101210,-1.639279,1.597900,-8.012927,5.375771,1.365837,-1.700338,34.415770,-26.616997,-0.195324,-0.133301,0.000000,0.568790,0.918792,-0.000000
1.470000,-1.754671,-0.327290,-1.446881,2.012179,-0.850371,0.395383,1.021002,-1.583782,1.610205,-8.027134,5.724439,1.092880,-0.562278,34.789241,-27.990930,-0.189372,-0.123878,0.000000,0.621766,0.930714,-0.000000
1.480000,-1.734499,-0.335872,-1.442847,2.021988,-0.865917,0.411534,0.940770,-1.524836,1.619710,-8.012039,6.060475,0.805674,3.607375,32.381972,-29.440322,-0.182893,-0.114363,0.000000,0.673611,0.938429,0.000000
1.490000,-1.714233,-0.344606,-1.438650,2.030996,-0.880856,0.427767,0.860867,-1.462625,1.626273,-7.966357,6.381968,0.504828,4.960863,32.410064,-30.690453,-0.175906,-0.104807,0.000000,0.723843,0.941609,0.000000
1.500000,-1.693882,-0.353487,-1.434291,2.039207,-0.895158,0.444050,0.781475,-1.397186,1.629767,-7.907816,6.703910,0.191901,7.326577,31.445892,-31.907436,-0.168416,-0.095243,0.000000,0.773925,0.942212,-0.000000
1.510000,-1.673452,-0.362507,-1.429769,2.046628,-0.908790,0.460352,0.702815,-1.328604,1.630079,-7.820013,7.010361,-0.131167,9.740281,30.336146,-33.002388,-0.160436,-0.085709,0.000000,0.821736,0.938158,0.000000
1.520000,-1.652952,-0.371660,-1.425084,2.053266,-0.921720,0.476640,0.625115,-1.256977,1.627083,-7.717524,7.314940,-0.470697,11.243094,30.063027,-34.585551,-0.151982,-0.076245,0.000000,0.868739,0.931164,0.000000
1.530000,-1.632389,-0.380939,-1.420237,2.059134,-0.933919,0.492882,0.548568,-1.182372,1.620647,-7.584975,7.600796,-0.816205,15.282621,27.072814,-34.489220,-0.143072,-0.066886,0.000000,0.912515,0.919220,-0.000000
1.540000,-1.611772,-0.390336,-1.415227,2.064243,-0.945359,0.509042,0.473522,-1.105033,1.610747,-7.421643,7.866054,-1.166229,16.895251,26.460794,-35.801753,-0.133745,-0.057688,0.000000,0.952585,0.902209,-0.000000
1.550000,-1.591107,-0.399844,-1.410056,2.068610,-0.956011,0.525085,0.400178,-1.025062,1.597274,-7.242958,8.125369,-1.529272,19.324994,24.883214,-36.483253,-0.124026,-0.048688,0.000000,0.990609,0.882054,0.000000
1.560000,-1.570402,-0.409454,-1.404726,2.072253,-0.965852,0.540975,0.328758,-0.942625,1.580163,-7.037050,8.358317,-1.893485,21.717819,23.072360,-36.991140,-0.113950,-0.039926,0.000000,1.023779,0.857283,0.000000
1.570000,-1.549664,-0.419158,-1.399237,2.075192,-0.974856,0.556676,0.259505,-0.857845,1.559337,-6.809943,8.599198,-2.274679,23.828007,23.744105,-38.593431,-0.103550,-0.031442,0.000000,1.056248,0.828765,-0.000000
1.580000,-1.528900,-0.428948,-1.393593,2.077451,-0.983001,0.572149,0.192643,-0.770769,1.534688,-6.557891,8.804682,-2.651634,26.578567,17.295357,-36.756014,-0.092848,-0.023275,0.000000,1.082400,0.796047,-0.000000
1.590000,-1.508117,-0.438815,-1.387795,2.079054,-0.990265,0.587357,0.128431,-0.681889,1.506330,-6.281186,8.971978,-3.022160,28.620947,17.505521,-37.965737,-0.081925,-0.015466,0.000000,1.101842,0.759327,0.000000
1.600000,-1.487321,-0.448750,-1.381847,2.080029,-0.996633,0.602263,0.067083,-0.591293,1.474192,-5.984564,9.143019,-3.405071,30.823284,15.339059,-37.956244,-0.070813,-0.008047,0.000000,1.119730,0.719368,0.000000
1.610000,-1.466519,-0.458745,-1.375751,2.080406,-1.002086,0.616828,0.008815,-0.499130,1.438266,-5.665453,9.286072,-3.779497,32.947036,13.197626,-37.754975,-0.059550,-0.001053,0.000000,1.132066,0.676010,-0.000000
1.620000,-1.445715,-0.468789,-1.369512,2.080216,-1.006611,0.631016,-0.046160,-0.405649,1.398542,-5.326261,9.406192,-4.167520,34.913586,10.878744,-39.002657,-0.048188,0.005488,0.000000,1.139653,0.629745,-0.000000
1.630000,-1.424916,-0.478874,-1.363132,2.079494,-1.010195,0.644786,-0.097642,-0.311077,1.354967,-4.966719,9.504771,-4.541792,36.978967,8.831323,-35.803033,-0.036773,0.011548,0.000000,1.142543,0.580754,-0.000000
1.640000,-1.404127,-0.488990,-1.356617,2.078276,-1.012830,0.658103,-0.145429,-0.215626,1.307767,-4.587794,9.581436,-4.899789,38.749683,6.433526,-36.605330,-0.025352,0.017103,0.000000,1.140876,0.529416,0.000000
1.650000,-1.383352,-0.499127,-1.349972,2.076599,-1.014506,0.670930,-0.189341,-0.119530,1.256928,-4.191798,9.633860,-5.266382,40.466188,4.108334,-35.861506,-0.013971,0.022134,0.000000,1.134615,0.476182,0.000000
1.660000,-1.362596,-0.509276,-1.343201,2.074502,-1.015219,0.683230,-0.229223,-0.023027,1.202506,-3.782211,9.662772,-5.616165,41.989541,1.746814,-34.940916,-0.002674,0.026624,0.000000,1.123969,0.421733,0.000000
1.670000,-1.341863,-0.519428,-1.336309,2.072028,-1.014966,0.694968,-0.264892,0.073652,1.144567,-3.347309,9.669447,-5.972753,44.423418,-0.487267,-35.513596,0.008495,0.030559,0.000000,1.109313,0.364859,0.000000
1.680000,-1.321157,-0.529573,-1.329303,2.069219,-1.013746,0.706109,-0.296150,0.170279,1.083127,-2.905649,9.651456,-6.308344,43.866548,-3.113563,-31.557964,0.019498,0.033922,0.000000,1.090595,0.308010,0.000000
1.690000,-1.300480,-0.539700,-1.322189,2.066120,-1.011561,0.716620,-0.322994,0.266598,1.018485,-2.459488,9.608682,-6.620550,45.888490,-5.365365,-31.714045,0.030295,0.036723,0.000000,1.068131,0.251635,0.000000
1.700000,-1.279835,-0.549801,-1.314973,2.062775,-1.008416,0.726468,-0.345263,0.362379,0.950693,-1.993081,9.543557,-6.935029,46.817948,-7.731104,-30.316158,0.040850,0.038952,0.000000,1.042372,0.194006,-0.000000
1.710000,-1.259225,-0.559865,-1.307662,2.059230,-1.004316,0.735624,-0.362861,0.457371,0.879868,-1.525868,9.450312,-7.227208,47.511932,-10.153698,-28.789792,0.051130,0.040611,0.000000,1.013022,0.137575,-0.000000
1.720000,-1.238651,-0.569884,-1.300263,2.055533,-0.999272,0.744056,-0.375686,0.551367,0.806146,-1.035009,9.347586,-7.516810,49.743479,-11.121802,-28.449125,0.061107,0.041701,0.000000,0.982313,0.079829,-0.000000
1.730000,-1.218115,-0.579847,-1.292783,2.051733,-0.993293,0.751737,-0.383588,0.644209,0.729618,-0.550220,9.212559,-7.781913,47.156731,-15.897552,-24.536507,0.070764,0.042219,0.000000,0.948070,0.024287,-0.000000
1.740000,-1.197617,-0.589747,-1.285231,2.047877,-0.986393,0.758640,-0.386728,0.735503,0.650601,-0.074521,9.044744,-8.020744,48.848756,-16.910408,-23.889508,0.080057,0.042197,0.000000,0.910584,-0.028694,0.000000
1.750000,-1.177157,-0.599572,-1.277613,2.044015,-0.978588,0.764741,-0.385005,0.825088,0.569211,0.418536,8.868280,-8.253762,48.839124,-19.110916,-22.032573,0.088975,0.041640,0.000000,0.872537,-0.082037,0.000000
1.760000,-1.156736,-0.609315,-1.269939,2.040194,-0.969897,0.770017,-0.378399,0.912801,0.485610,0.901812,8.671340,-8.463089,48.610779,-21.086296,-20.124469,0.097503,0.040559,0.000000,0.832980,-0.132696,0.000000
1.770000,-1.136353,-0.618967,-1.262216,2.036463,-0.960339,0.774447,-0.366913,0.998384,0.399989,1.397732,8.439289,-8.658853,49.741669,-24.506763,-18.728894,0.105623,0.038972,0.000000,0.790482,-0.183110,0.000000
1.780000,-1.116007,-0.628519,-1.254453,2.032872,-0.949938,0.778011,-0.350499,1.081563,0.312512,1.879216,8.198362,-8.831406,46.499525,-23.635279,-15.766948,0.113314,0.036888,0.000000,0.748092,-0.230378,0.000000
1.790000,-1.095695,-0.637963,-1.246659,2.029469,-0.938716,0.780692,-0.329392,1.162335,0.223443,2.343319,7.950779,-8.980002,47.099374,-26.669238,-14.242999,0.120587,0.034346,0.000000,0.706152,-0.274291,0.000000
1.800000,-1.075416,-0.647291,-1.238842,2.026300,-0.926700,0.782475,-0.303597,1.240461,0.132957,2.813731,7.672249,-9.113707,46.147253,-28.209918,-12.201825,0.127429,0.031363,0.000000,0.662192,-0.317401,0.000000
1.810000,-1.055168,-0.656495,-1.231012,2.023412,-0.913916,0.783347,-0.273193,1.315761,0.041240,3.264604,7.385653,-9.226343,44.961883,-29.612436,-10.187576,0.133833,0.027959,0.000000,0.618731,-0.357097,-0.000000
1.820000,-1.034947,-0.665567,-1.223178,2.020851,-0.900394,0.783296,-0.238269,1.388087,-0.051492,3.721259,7.075626,-9.316203,45.405565,-31.859480,-7.919414,0.139799,0.024157,0.000000,0.574342,-0.396043,-0.000000
1.830000,-1.014750,-0.674500,-1.215349,2.018662,-0.886165,0.782314,-0.198860,1.457257,-0.145023,4.152521,6.759650,-9.387581,40.790126,-31.295271,-6.363321,0.145323,0.019973,0.000000,0.530776,-0.431198,0.000000
1.840000,-0.994572,-0.683288,-1.207535,2.016887,-0.871260,0.780394,-0.155321,1.523271,-0.239184,4.555444,6.439907,-9.440847,40.712317,-33.142385,-4.159837,0.150419,0.015455,0.000000,0.488254,-0.462442,0.000000
1.850000,-0.974411,-0.691923,-1.199744,2.015569,-0.855711,0.777529,-0.107735,1.585985,-0.333764,4.958236,6.101694,-9.472037,38.879462,-33.960598,-2.218731,0.155086,0.010620,0.000000,0.445439,-0.492673,-0.000000
1.860000,-0.954259,-0.700400,-1.191987,2.014746,-0.839551,0.773718,-0.056243,1.645341,-0.428576,5.336751,5.769724,-9.487509,36.943379,-34.427901,-0.368963,0.159336,0.005493,0.000000,0.404626,-0.519647,0.000000
1.870000,-0.934114,-0.708712,-1.184273,2.014456,-0.822815,0.768958,-0.001055,1.701202,-0.523412,5.697959,5.395070,-9.474853,35.135926,-38.515663,2.391693,0.163168,0.000102,0.000000,0.361362,-0.544180,0.000000
1.880000,-0.913968,-0.716855,-1.176611,2.014736,-0.805540,0.763250,0.057638,1.753326,-0.618037,6.036097,5.041102,-9.450354,32.465724,-32.191223,2.482111,0.166575,-0.005527,0.000000,0.321421,-0.565865,0.000000
1.890000,-0.893817,-0.724821,-1.169011,2.015620,-0.787760,0.756598,0.119584,1.802123,-0.712388,6.349675,4.712076,-9.415331,30.370244,-35.568990,5.014773,0.169609,-0.011364,0.000000,0.285034,-0.584687,-0.000000
1.900000,-0.873654,-0.732608,-1.161483,2.017138,-0.769509,0.749004,0.184563,1.847413,-0.806249,6.641910,4.347018,-9.354585,27.917107,-35.445298,6.619476,0.172267,-0.017383,0.000000,0.246777,-0.601102,0.000000
1.910000,-0.853472,-0.740210,-1.154034,2.019320,-0.750824,0.740475,0.252291,1.889031,-0.899459,6.898140,3.974495,-9.285266,25.158523,-35.677044,8.082542,0.174546,-0.023553,0.000000,0.209038,-0.613874,0.000000
1.920000,-0.833265,-0.747623,-1.146676,2.022192,-0.731740,0.731018,0.322582,1.927170,-0.991838,7.161751,3.664868,-9.185375,25.756970,-29.480857,11.055012,0.176477,-0.029855,0.000000,0.178419,-0.627155,0.000000
1.930000,-0.813026,-0.754844,-1.139417,2.025780,-0.712291,0.720642,0.395346,1.962176,-1.083160,7.375386,3.316998,-9.081812,16.902037,-40.167441,9.616872,0.178103,-0.036277,0.000000,0.145296,-0.635739,0.000000
1.940000,-0.792747,-0.761868,-1.132266,2.030105,-0.692510,0.709358,0.469898,1.993347,-1.173475,7.535831,2.928013,-8.976613,16.986809,-34.310197,12.242260,0.179371,-0.042756,0.000000,0.109508,-0.639524,-0.000000
1.950000,-0.772421,-0.768693,-1.125233,2.035184,-0.672435,0.697176,0.546105,2.021009,-1.262588,7.699604,2.603482,-8.844362,13.958205,-33.842668,13.360585,0.180322,-0.049281,0.000000,0.080663,-0.643778,-0.000000
1.960000,-0.752041,-0.775316,-1.118326,2.041032,-0.652100,0.684110,0.623815,2.045526,-1.350363,7.839223,2.305943,-8.709571,11.308116,-32.238354,14.352891,0.180997,-0.055837,0.000000,0.054927,-0.646016,-0.000000
1.970000,-0.731598,-0.781734,-1.111554,2.047664,-0.631536,0.670174,0.702585,2.066648,-1.436685,7.901283,1.898564,-8.550523,3.674692,-42.798529,16.693281,0.181383,-0.062389,0.000000,0.020872,-0.641798,-0.000000
1.980000,-0.711085,-0.787946,-1.104925,2.055085,-0.610781,0.655382,0.781870,2.083857,-1.521380,7.966706,1.585111,-8.391720,9.487511,-19.665028,15.028414,0.181447,-0.068891,0.000000,-0.004381,-0.638224,0.000000
1.990000,-0.690494,-0.793949,-1.098449,2.063304,-0.589866,0.639751,0.861962,2.098749,-1.604532,8.038907,1.376091,-8.235126,2.351536,-28.587093,17.030475,0.181330,-0.075371,0.000000,-0.020324,-0.635511,0.000000
2.000000,-0.669816,-0.799743,-1.092133,2.072326,-0.568815,0.623297,0.942352,2.110939,-1.686001,8.035761,1.068730,-8.057824,-0.391807,-26.415852,17.662331,0.181007,-0.081789,0.000000,-0.043717,-0.626856,0.000000
2.010000,-0.649044,-0.805325,-1.085986,2.082151,-0.547657,0.606037,1.022625,2.120280,-1.765704,8.013442,0.800971,-7.882392,-3.388134,-24.812964,18.170720,0.180471,-0.088114,0.000000,-0.063318,-0.617026,-0.000000
2.020000,-0.628171,-0.810696,-1.080015,2.092777,-0.526417,0.587989,1.102577,2.127200,-1.843571,7.974282,0.593983,-7.687687,-5.109924,-18.811200,20.018630,0.179763,-0.094332,0.000000,-0.077186,-0.606414,-0.000000
2.030000,-0.607186,-0.815853,-1.074228,2.104200,-0.505119,0.569172,1.181979,2.132113,-1.919479,7.897273,0.377963,-7.497780,-10.312264,-24.451667,17.927118,0.178924,-0.100431,0.000000,-0.091539,-0.593126,0.000000
2.040000,-0.586084,-0.820798,-1.068634,2.116413,-0.483783,0.549606,1.260388,2.134704,-1.993554,7.781510,0.150464,-7.314453,-12.167333,-18.777534,19.471713,0.177929,-0.106377,0.000000,-0.106576,-0.577138,-0.000000
2.050000,-0.564855,-0.825529,-1.063239,2.129404,-0.462431,0.529308,1.337563,2.135363,-2.065701,7.648263,-0.016611,-7.114899,-15.149032,-16.883340,19.685557,0.176814,-0.112158,0.000000,-0.116188,-0.560449,-0.000000
2.060000,-0.543493,-0.830047,-1.058050,2.143159,-0.441081,0.508298,1.413206,2.134336,-2.135877,7.474600,-0.186841,-6.920320,-18.218825,-15.032534,19.819173,0.175602,-0.117753,0.000000,-0.125889,-0.541033,-0.000000
2.070000,-0.521990,-0.834351,-1.053075,2.157662,-0.419750,0.486597,1.487064,2.131861,-2.204055,7.296499,-0.297577,-6.713196,-18.714278,-9.166586,21.017517,0.174316,-0.123151,0.000000,-0.130491,-0.522013,-0.000000
2.080000,-0.500338,-0.838442,-1.048320,2.172894,-0.398448,0.464224,1.558974,2.128352,-2.270166,7.072761,-0.413264,-6.512298,-26.066185,-14.027439,19.137139,0.172990,-0.128343,0.000000,-0.135436,-0.499889,0.000000
2.090000,-0.478530,-0.842320,-1.043793,2.188833,-0.377187,0.441200,1.628352,2.123555,-2.334331,6.802060,-0.536298,-6.318842,-26.731263,-8.491802,20.134107,0.171604,-0.133288,0.000000,-0.140904,-0.474602,0.000000
2.100000,-0.456559,-0.845986,-1.039499,2.205452,-0.355979,0.417544,1.695025,2.117858,-2.396497,6.527065,-0.600593,-6.114684,-29.582273,-6.431360,20.110152,0.170191,-0.137980,0.000000,-0.141533,-0.449766,0.000000
2.110000,-0.434418,-0.849440,-1.035444,2.222724,-0.334831,0.393277,1.758849,2.111704,-2.456641,6.235654,-0.622701,-5.914363,-31.908189,-3.571966,20.089352,0.168786,-0.142414,0.000000,-0.138894,-0.424246,-0.000000
2.120000,-0.412102,-0.852682,-1.031635,2.240618,-0.313747,0.368418,1.819400,2.105046,-2.514774,5.859541,-0.723347,-5.711664,-40.173348,-11.131815,20.315958,0.167386,-0.146563,0.000000,-0.142240,-0.392768,-0.000000
2.130000,-0.389604,-0.855715,-1.028077,2.259099,-0.292734,0.342988,1.876112,2.097585,-2.570882,5.498120,-0.731466,-5.510849,-31.999194,9.676235,19.843596,0.165968,-0.150389,0.000000,-0.138434,-0.363119,-0.000000
2.140000,-0.366918,-0.858537,-1.024777,2.278130,-0.271792,0.317007,1.929453,2.090793,-2.624999,5.156574,-0.639593,-5.312064,-39.453345,3.217941,20.050379,0.164646,-0.153936,0.000000,-0.127067,-0.335607,-0.000000
2.150000,-0.344040,-0.861151,-1.021739,2.297675,-0.250916,0.290495,1.978926,2.084454,-2.677113,4.736116,-0.620792,-5.110926,-41.478935,5.988482,20.046445,0.163401,-0.157170,0.000000,-0.121300,-0.302627,0.000000
2.160000,-0.320963,-0.863556,-1.018969,2.317694,-0.230102,0.263471,2.024147,2.078482,-2.727216,4.303736,-0.572690,-4.909596,-43.767710,7.860859,20.092579,0.162227,-0.160070,0.000000,-0.113362,-0.269354,0.000000
2.170000,-0.297684,-0.865753,-1.016471,2.338144,-0.209344,0.235957,2.065024,2.073406,-2.775314,3.872203,-0.424846,-4.710173,-43.707969,17.573632,19.926947,0.161164,-0.162633,0.000000,-0.097965,-0.236703,-0.000000
2.180000,-0.274199,-0.867743,-1.014251,2.358980,-0.188629,0.207972,2.101464,2.069852,-2.821411,3.405025,-0.308017,-4.508214,-49.751882,5.645861,20.477052,0.160258,-0.164858,0.000000,-0.085025,-0.201909,0.000000
2.190000,-0.250504,-0.869526,-1.012313,2.380156,-0.167944,0.179536,2.132994,2.067088,-2.865466,2.901319,-0.228989,-4.303054,-49.783562,14.298175,20.434817,0.159452,-0.166715,0.000000,-0.074990,-0.164917,0.000000
2.200000,-0.226595,-0.871102,-1.010662,2.401623,-0.147282,0.150669,2.159517,2.065652,-2.907475,2.399495,-0.057731,-4.098212,-51.756006,15.790226,20.673559,0.158786,-0.168203,0.000000,-0.058129,-0.128564,0.000000
2.210000,-0.202470,-0.872471,-1.009301,2.423330,-0.126626,0.121393,2.180888,2.065928,-2.947403,1.871592,0.116739,-3.886520,-53.591572,17.595035,21.043119,0.158289,-0.169314,0.000000,-0.041072,-0.090790,0.000000
2.220000,-0.178128,-0.873634,-1.008235,2.445223,-0.105958,0.091728,2.196907,2.067924,-2.985243,1.329972,0.280054,-3.682929,-54.929310,16.490238,20.303000,0.157959,-0.170039,0.000000,-0.025088,-0.052301,0.000000
2.230000,-0.153565,-0.874590,-1.007468,2.467249,-0.085262,0.061695,2.207421,2.071650,-3.021017,0.768867,0.476411,-3.467282,-57.282365,22.802314,22.859467,0.157796,-0.170370,0.000000,-0.006596,-0.012885,0.000000
2.240000,-0.128782,-0.875339,-1.007003,2.489352,-0.064517,0.031315,2.212220,2.077575,-3.054538,0.188938,0.706372,-3.237892,-58.472824,21.704946,22.412683,0.157836,-0.170297,0.000000,0.014449,0.027428,-0.000000
2.250000,-0.103778,-0.875881,-1.006843,2.511474,-0.043703,0.000612,2.211167,2.085705,-3.085802,-0.402069,0.922344,-3.013456,-59.924321,22.914271,23.108884,0.158079,-0.169813,0.000000,0.034265,0.068348,-0.000000
2.260000,-0.078553,-0.876213,-1.006991,2.533556,-0.022796,-0.030393,2.204120,2.096073,-3.114744,-1.009593,1.152276,-2.772848,-61.286256,23.770408,23.976529,0.158526,-0.168910,0.000000,0.055214,0.110060,-0.000000
2.270000,-0.053108,-0.876336,-1.007452,2.555536,-0.001773,-0.061675,2.190954,2.108835,-3.141314,-1.624881,1.403825,-2.543286,-62.020262,25.799188,22.972643,0.159188,-0.167582,0.000000,0.077538,0.152316,0.000000
2.280000,-0.027443,-0.876248,-1.008226,2.577354,0.019389,-0.093211,2.171571,2.124136,-3.165528,-2.255232,1.652734,-2.291643,-64.038234,23.926177,27.403776,0.160076,-0.165822,0.000000,0.099853,0.195294,-0.000000
2.290000,-0.001561,-0.875948,-1.009317,2.598946,0.040717,-0.124977,2.145800,2.141866,-3.187058,-2.899818,1.895961,-2.015543,-64.587470,25.397752,26.801592,0.161185,-0.163623,0.000000,0.121987,0.238979,-0.000000
2.300000,0.024535,-0.875433,-1.010726,2.620249,0.062235,-0.156944,2.113564,2.162116,-3.205881,-3.548850,2.153888,-1.746544,-65.466662,25.438363,28.041192,0.162520,-0.160978,0.000000,0.145078,0.283100,0.000000
2.310000,0.050843,-0.874702,-1.012456,2.641196,0.083968,-0.189085,2.074780,2.184907,-3.221893,-4.209372,2.403499,-1.452924,-66.235761,25.211610,29.445983,0.164085,-0.157883,0.000000,0.167838,0.327868,0.000000
2.320000,0.077358,-0.873753,-1.014508,2.661722,0.105942,-0.221372,2.029384,2.210237,-3.234993,-4.869608,2.664389,-1.168851,-66.154698,26.183151,28.597046,0.165880,-0.154331,0.000000,0.191303,0.372892,0.000000
2.330000,0.104075,-0.872583,-1.016884,2.681761,0.128182,-0.253775,1.977353,2.238141,-3.245163,-5.539685,2.910747,-0.855211,-67.846745,23.024757,34.181923,0.167908,-0.150319,0.000000,0.214087,0.418542,-0.000000
2.340000,0.130991,-0.871188,-1.019584,2.701247,0.150712,-0.286264,1.918558,2.268386,-3.251981,-6.218584,3.139106,-0.509540,-67.535210,23.356215,33.737713,0.170158,-0.145838,0.000000,0.236006,0.464826,0.000000
2.350000,0.158098,-0.869567,-1.022609,2.720110,0.173557,-0.318803,1.853003,2.300947,-3.255395,-6.892992,3.370658,-0.169821,-67.688029,22.163586,35.438716,0.172630,-0.140886,0.000000,0.258147,0.511267,0.000000
2.360000,0.185391,-0.867716,-1.025960,2.738284,0.196739,-0.351360,1.780686,2.335704,-3.255262,-7.570261,3.577513,0.199938,-67.653614,20.604442,37.258412,0.175316,-0.135457,0.000000,0.278952,0.558116,-0.000000
2.370000,0.212861,-0.865631,-1.029636,2.755701,0.220278,-0.383896,1.701608,2.372558,-3.251437,-8.244701,3.795143,0.563876,-67.283800,21.482258,36.761226,0.178213,-0.129548,0.000000,0.300585,0.605417,-0.000000
2.380000,0.240502,-0.863309,-1.033638,2.772294,0.244197,-0.416376,1.615799,2.411478,-3.243865,-8.916991,3.976981,0.961003,-67.144652,14.799642,42.706671,0.181320,-0.123153,0.000000,0.320152,0.652927,0.000000
2.390000,0.268304,-0.860746,-1.037964,2.787995,0.268513,-0.448760,1.523281,2.451952,-3.232090,-9.585314,4.118557,1.393276,-66.405554,14.883975,42.512508,0.184608,-0.116271,0.000000,0.337387,0.700641,0.000000
2.400000,0.296259,-0.857938,-1.042613,2.802737,0.293241,-0.481004,1.424122,2.493879,-3.216034,-10.245106,4.261854,1.821775,-65.598679,12.328339,44.420271,0.188070,-0.108896,0.000000,0.354863,0.748672,-0.000000
2.410000,0.324356,-0.854880,-1.047583,2.816455,0.318394,-0.513065,1.318411,2.537027,-3.195541,-10.895292,4.361986,2.280448,-64.556452,9.422644,46.344659,0.191695,-0.101028,0.000000,0.369756,0.796760,0.000000
2.420000,0.352584,-0.851568,-1.052873,2.829084,0.343984,-0.544899,1.206242,2.581161,-3.170440,-11.536918,4.465750,2.739681,-63.581834,9.580119,46.433224,0.195469,-0.092662,0.000000,0.385109,0.845327,-0.000000
2.430000,0.380933,-0.847999,-1.058480,2.840559,0.370021,-0.576459,1.087726,2.626154,-3.140642,-12.163028,4.516903,3.228640,-61.596791,0.560443,51.378396,0.199385,-0.083793,0.000000,0.397188,0.893748,-0.000000
2.440000,0.409391,-0.844166,-1.064401,2.850818,0.396508,-0.607695,0.963043,2.671295,-3.105758,-12.771096,4.510872,3.748061,-60.127998,-0.073338,51.546712,0.203400,-0.074426,0.000000,0.405674,0.941987,-0.000000
2.450000,0.437946,-0.840067,-1.070633,2.859800,0.423446,-0.638557,0.832353,2.716386,-3.065697,-13.363497,4.500088,4.267327,-58.160634,-3.838234,53.234299,0.207500,-0.064555,0.000000,0.413977,0.990517,0.000000
2.460000,0.466583,-0.835696,-1.077171,2.867446,0.450834,-0.668991,0.695869,2.761085,-3.020330,-13.928962,4.431959,4.808933,-55.848091,-7.892877,54.787444,0.211665,-0.054183,0.000000,0.418516,1.038470,-0.000000
2.470000,0.495290,-0.831049,-1.084011,2.873699,0.478665,-0.698945,0.553778,2.805043,-2.969492,-14.488428,4.359374,5.360080,-55.073581,-8.517425,55.691217,0.215873,-0.043306,0.000000,0.423018,1.087615,-0.000000
2.480000,0.524052,-0.826121,-1.091148,2.878503,0.506932,-0.728362,0.406234,2.848042,-2.913070,-15.010072,4.221917,5.927981,-49.183553,-19.055175,57.871459,0.220110,-0.031918,0.000000,0.423042,1.135614,-0.000000
2.490000,0.552855,-0.820909,-1.098576,2.881807,0.535620,-0.757187,0.253722,2.889237,-2.850878,-15.490038,4.015622,6.511456,-47.704479,-20.337928,58.519715,0.224316,-0.020037,0.000000,0.418218,1.182282,0.000000
2.500000,0.581683,-0.815407,-1.106290,2.883562,0.564710,-0.785361,0.096465,2.928352,-2.782829,-15.955331,3.798804,7.100085,-44.375537,-24.919991,59.446950,0.228474,-0.007660,0.000000,0.412696,1.229812,0.000000
2.510000,0.610521,-0.809613,-1.114281,2.883721,0.594179,-0.812824,-0.065210,2.964979,-2.708860,-16.372746,3.517875,7.694440,-40.669203,-29.641862,60.074435,0.232553,0.005209,0.000000,0.402382,1.275722,-0.000000
2.520000,0.639352,-0.803523,-1.122544,2.882244,0.624000,-0.839518,-0.230992,2.998684,-2.628867,-16.782626,3.220837,8.307141,-39.707675,-31.357861,61.760978,0.236521,0.018568,0.000000,0.391048,1.323246,0.000000
2.530000,0.668160,-0.797132,-1.131069,2.879088,0.654142,-0.865381,-0.400654,3.029163,-2.542738,-17.133374,2.857343,8.914872,-30.352045,-41.391668,59.722831,0.240355,0.032423,0.000000,0.374383,1.368434,-0.000000
2.540000,0.696928,-0.790439,-1.139848,2.874220,0.684569,-0.890352,-0.573435,3.055589,-2.450603,-17.420351,2.425121,9.514209,-28.575095,-43.447331,60.772487,0.243988,0.046736,0.000000,0.352020,1.410890,-0.000000
2.550000,0.725639,-0.783440,-1.148873,2.867610,0.715239,-0.914373,-0.749033,3.077633,-2.352408,-17.690739,1.974929,10.123698,-23.896168,-48.178172,60.407740,0.247392,0.061508,0.000000,0.328043,1.454443,0.000000
2.560000,0.754274,-0.776134,-1.158132,2.859232,0.746106,-0.937381,-0.927006,3.094879,-2.248202,-17.894466,1.466058,10.715342,-18.862487,-52.819470,59.604764,0.250530,0.076727,0.000000,0.298710,1.495026,0.000000
2.570000,0.782817,-0.768517,-1.167617,2.849064,0.777119,-0.959317,-1.106917,3.106863,-2.137993,-18.086137,0.925899,11.330737,-17.448422,-55.930979,61.742238,0.253359,0.092381,0.000000,0.266736,1.537273,0.000000
2.580000,0.811250,-0.760591,-1.177315,2.837088,0.808225,-0.980120,-1.288458,3.113213,-2.021707,-18.201010,0.332385,11.913860,-5.432355,-62.768955,54.777795,0.255846,0.108471,0.000000,0.229243,1.575652,0.000000
2.590000,0.839553,-0.752353,-1.187215,2.823293,0.839363,-0.999732,-1.470650,3.113329,-1.899854,-18.234423,-0.313949,12.459252,-3.229799,-65.719827,55.944879,0.257924,0.124937,0.000000,0.185990,1.609498,-0.000000
2.600000,0.867709,-0.743804,-1.197305,2.807674,0.870469,-1.018099,-1.653116,3.106856,-1.772451,-18.248009,-0.987653,13.017268,2.540196,-69.727306,53.911765,0.259557,0.141768,0.000000,0.139698,1.644254,0.000000
2.610000,0.895700,-0.734944,-1.207573,2.790231,0.901477,-1.035163,-1.835327,3.093446,-1.639680,-18.183189,-1.700204,13.531259,8.536051,-73.374488,51.378396,0.260701,0.158943,0.000000,0.088261,1.674445,-0.000000
2.620000,0.923508,-0.725775,-1.218004,2.770970,0.932314,-1.050875,-2.016733,3.072683,-1.501708,-18.094463,-2.460067,14.067179,11.079322,-77.933717,53.281471,0.261306,0.176433,0.000000,0.032008,1.705306,-0.000000
2.630000,0.951114,-0.716298,-1.228586,2.749900,0.962904,-1.065180,-2.196924,3.044165,-1.358552,-17.922398,-3.244925,14.543952,23.404652,-78.964958,41.942958,0.261325,0.194227,0.000000,-0.028986,1.730728,-0.000000
2.640000,0.978500,-0.706518,-1.239303,2.727039,0.993171,-1.078032,-2.374877,3.007720,-1.211068,-17.663635,-4.050702,14.954969,26.485906,-82.753601,42.702728,0.260711,0.212240,0.000000,-0.094660,1.749824,0.000000
2.650000,1.005649,-0.696436,-1.250141,2.702412,1.023031,-1.089387,-2.550136,2.963017,-1.059377,-17.376674,-4.893489,15.375802,32.774668,-85.119952,38.926933,0.259416,0.230449,0.000000,-0.165182,1.768620,0.000000
2.660000,1.032542,-0.686059,-1.261085,2.676047,1.052403,-1.099206,-2.722128,2.909845,-0.903803,-17.010686,-5.742838,15.730553,39.097334,-86.885438,34.710229,0.257395,0.248812,0.000000,-0.239607,1.781203,-0.000000
2.670000,1.059164,-0.675390,-1.272120,2.647982,1.081199,-1.107452,-2.890246,2.847929,-0.744689,-16.606999,-6.650072,16.094233,42.917877,-92.351778,35.326978,0.254598,0.267283,0.000000,-0.321095,1.792396,-0.000000
2.680000,1.085497,-0.664437,-1.283229,2.618257,1.109331,-1.114089,-3.054000,2.776905,-0.582196,-16.125548,-7.543516,16.380506,53.399750,-86.194990,21.802775,0.250964,0.285828,0.000000,-0.405425,1.796631,-0.000000
2.690000,1.111524,-0.653206,-1.294396,2.586920,1.136708,-1.119088,-3.212485,2.697147,-0.417378,-15.565311,-8.415694,16.583166,57.331929,-90.320981,21.369791,0.246483,0.304348,0.000000,-0.492051,1.792945,0.000000
2.700000,1.137230,-0.641706,-1.305605,2.554026,1.163244,-1.122429,-3.365206,2.608413,-0.250490,-14.968322,-9.330014,16.784419,63.334819,-90.309750,16.175229,0.241099,0.322798,0.000000,-0.585230,1.786794,-0.000000
2.710000,1.162599,-0.629944,-1.316839,2.519637,1.188846,-1.124093,-3.511631,2.510683,-0.081977,-14.307107,-10.212947,16.908075,69.070355,-89.569710,10.713748,0.234775,0.341120,0.000000,-0.680041,1.773319,-0.000000
2.720000,1.187618,-0.617932,-1.328082,2.483817,1.213427,-1.124065,-3.651145,2.403913,0.087664,-13.585805,-11.150800,17.018268,74.967916,-94.642226,9.176887,0.227466,0.359246,0.000000,-0.783111,1.754388,0.000000
2.730000,1.212271,-0.605679,-1.339315,2.446639,1.236894,-1.122336,-3.783174,2.287869,0.258100,-12.812437,-12.035350,17.046591,79.658517,-82.081486,-3.598518,0.219114,0.377110,0.000000,-0.886245,1.728121,-0.000000
2.740000,1.236546,-0.593198,-1.350523,2.408180,1.259157,-1.118904,-3.907230,2.163441,0.428292,-11.989740,-12.857007,16.988896,85.022461,-85.472274,-5.812002,0.209747,0.394626,0.000000,-0.988359,1.693831,-0.000000
2.750000,1.260431,-0.580501,-1.361687,2.368523,1.280134,-1.113773,-4.022791,2.030550,0.597851,-11.114579,-13.715034,16.911917,89.769600,-82.753005,-11.729394,0.199319,0.411725,0.000000,-1.097533,1.653181,-0.000000
2.760000,1.283913,-0.567600,-1.372792,2.327754,1.299740,-1.106951,-4.129414,1.889407,0.766265,-10.203901,-14.505789,16.760658,94.011438,-79.303394,-17.644249,0.187805,0.428333,0.000000,-1.205103,1.605135,-0.000000
2.770000,1.306982,-0.554511,-1.383821,2.285966,1.317896,-1.098453,-4.226595,1.740233,0.932939,-9.219874,-15.336168,16.567137,101.080714,-82.824038,-21.911992,0.175184,0.444366,0.000000,-1.320535,1.547008,0.000000
2.780000,1.329629,-0.541247,-1.394756,2.243256,1.334518,-1.088299,-4.313765,1.583002,1.097372,-8.218242,-16.079475,16.304587,99.128311,-65.639885,-30.615644,0.161409,0.459733,0.000000,-1.432297,1.482163,-0.000000
2.790000,1.351845,-0.527826,-1.405581,2.199724,1.349533,-1.076516,-4.390935,1.418998,1.258791,-7.205240,-16.725740,15.972360,105.070201,-67.445858,-34.951524,0.146559,0.474379,0.000000,-1.538783,1.410496,0.000000
2.800000,1.373621,-0.514262,-1.416281,2.155472,1.362876,-1.063135,-4.457642,1.248347,1.416696,-6.132433,-17.393796,15.598593,107.755448,-62.202118,-40.641219,0.130608,0.488213,0.000000,-1.651093,1.328346,-0.000000
2.810000,1.394952,-0.500574,-1.426839,2.110607,1.374479,-1.048195,-4.513608,1.071460,1.570578,-5.058932,-17.972544,15.169457,109.775684,-56.473724,-46.033341,0.113558,0.501158,0.000000,-1.758178,1.239987,0.000000
2.820000,1.415832,-0.486779,-1.437240,2.065236,1.384286,-1.031739,-4.558524,0.888850,1.719837,-3.911715,-18.549550,14.670478,116.769065,-55.966751,-52.881221,0.095428,0.513122,0.000000,-1.868499,1.137341,0.000000
