time,x,y,z,vx,vy,vz,ax,ay,az,jx,jy,jz,sx,sy,sz,roll,pitch,yaw,p,q,r
0.000000,-3.299262,-0.215002,-1.466506,-0.006306,0.001986,0.005250,0.230063,-0.047729,-0.030983,7.941464,-1.694578,-1.235646,-307.183607,61.711495,26.712877,-0.004849,-0.023374,0.000000,-0.171445,-0.803595,-0.000000
0.010000,-3.299325,-0.214982,-1.466453,-0.004006,0.001509,0.004940,0.309478,-0.064675,-0.043339,4.869628,-1.077463,-0.968517,-614.452512,128.094630,66.684467,-0.006560,-0.031398,0.000000,-0.108546,-0.490629,-0.000000
0.020000,-3.299342,-0.214972,-1.466407,-0.000117,0.000693,0.004383,0.327456,-0.069278,-0.050353,-4.347586,0.867314,0.098044,-686.192159,151.147790,85.427037,-0.007022,-0.033197,0.000000,0.087735,0.440089,-0.000000
0.030000,-3.299327,-0.214969,-1.466366,0.002544,0.000123,0.003933,0.222526,-0.047328,-0.041378,-8.854215,1.945492,0.740024,-76.099679,31.215428,17.636796,-0.004803,-0.022585,0.000000,0.196971,0.896615,-0.000000
0.040000,-3.299291,-0.214970,-1.466329,0.004334,-0.000254,0.003556,0.150372,-0.030368,-0.035552,-5.869580,1.491623,0.450780,270.961866,-41.157910,-26.505711,-0.003084,-0.015272,0.000000,0.151314,0.595325,-0.000000
0.050000,-3.299240,-0.214974,-1.466295,0.005551,-0.000484,0.003222,0.105135,-0.017496,-0.032363,-3.434978,1.122334,0.209910,219.417193,-33.244075,-21.953635,-0.001777,-0.010681,0.000000,0.113980,0.348731,-0.000000
0.060000,-3.299180,-0.214979,-1.466264,0.006437,-0.000604,0.002908,0.081672,-0.007921,-0.031354,-1.481236,0.826741,0.011707,174.568871,-26.383630,-17.954208,-0.000805,-0.008299,0.000000,0.084002,0.150491,0.000000
0.070000,-3.299112,-0.214986,-1.466237,0.007184,-0.000642,0.002595,0.075510,-0.000961,-0.032128,0.056399,0.594662,-0.149175,135.974933,-20.506312,-14.471338,-0.000098,-0.007672,0.000000,0.060420,-0.005614,-0.000000
0.080000,-3.299036,-0.214992,-1.466212,0.007947,-0.000623,0.002266,0.082800,0.003972,-0.034338,1.238263,0.416615,-0.277720,103.193460,-15.541854,-11.468941,0.000403,-0.008411,0.000000,0.042307,-0.125538,-0.000000
0.090000,-3.298953,-0.214998,-1.466191,0.008840,-0.000563,0.001908,0.100275,0.007371,-0.037683,2.120268,0.283824,-0.378553,75.782489,-11.419995,-8.910914,0.000748,-0.010182,0.000000,0.028790,-0.214893,-0.000000
0.100000,-3.298859,-0.215003,-1.466174,0.009952,-0.000476,0.001512,0.125205,0.009648,-0.041909,2.753912,0.188215,-0.455938,53.300057,-8.070472,-6.761147,0.000979,-0.012708,0.000000,0.019054,-0.278898,-0.000000
0.110000,-3.298754,-0.215008,-1.466161,0.011345,-0.000370,0.001070,0.155354,0.011136,-0.046802,3.186270,0.122415,-0.513776,35.304231,-5.423020,-4.983567,0.001130,-0.015760,0.000000,0.012353,-0.322354,0.000000
0.120000,-3.298633,-0.215011,-1.466153,0.013059,-0.000253,0.000576,0.188931,0.012097,-0.052184,3.459997,0.079755,-0.555609,21.352998,-3.407377,-3.542069,0.001226,-0.019155,0.000000,0.008008,-0.349627,0.000000
0.130000,-3.298493,-0.215013,-1.466149,0.015123,-0.000128,0.000026,0.224553,0.012731,-0.057914,3.613330,0.054267,-0.584618,11.004408,-1.953281,-2.400546,0.001290,-0.022752,0.000000,0.005411,-0.364632,-0.000000
0.140000,-3.298330,-0.215013,-1.466152,0.017550,0.000002,-0.000582,0.261197,0.013182,-0.063877,3.680085,0.040689,-0.603620,3.816723,-0.990453,-1.522956,0.001335,-0.026447,0.000000,0.004025,-0.370832,-0.000000
0.150000,-3.298142,-0.215013,-1.466161,0.020347,0.000135,-0.001251,0.298155,0.013545,-0.069986,3.689664,0.034458,-0.615077,-0.652177,-0.448643,-0.873171,0.001370,-0.030169,0.000000,0.003385,-0.371231,0.000000
0.160000,-3.297923,-0.215011,-1.466177,0.023514,0.000273,-0.001982,0.334991,0.013871,-0.076178,3.667042,0.031716,-0.621084,-2.844506,-0.257601,-0.415033,0.001402,-0.033872,0.000000,0.003101,-0.368374,0.000000
0.170000,-3.297671,-0.215007,-1.466201,0.027047,0.000413,-0.002775,0.371496,0.014179,-0.082408,3.632774,0.029306,-0.623377,-3.268169,-0.336694,-0.106884,0.001432,-0.037536,0.000000,0.002851,-0.364348,0.000000
0.180000,-3.297382,-0.215002,-1.466233,0.030943,0.000556,-0.003630,0.407646,0.014457,-0.088646,3.601678,0.024982,-0.623221,-3.522888,-0.434843,0.185821,0.001459,-0.041159,0.000000,0.002408,-0.360651,-0.000000
0.190000,-3.297052,-0.214996,-1.466273,0.035200,0.000702,-0.004548,0.443530,0.014678,-0.094872,3.562316,0.020610,-0.619661,-3.650469,-0.544321,0.465178,0.001480,-0.044749,0.000000,0.001962,-0.356137,-0.000000
0.200000,-3.296678,-0.214988,-1.466324,0.039814,0.000850,-0.005527,0.478893,0.014869,-0.101039,3.528669,0.014096,-0.613918,4.451154,-1.929084,0.040637,0.001499,-0.048282,0.000000,0.001302,-0.352218,-0.000000
0.210000,-3.296256,-0.214979,-1.466384,0.044778,0.000999,-0.006568,0.514103,0.014960,-0.107151,3.651339,-0.017972,-0.618848,19.424677,-4.375913,-0.973865,0.001507,-0.051793,0.000000,-0.001932,-0.363971,0.000000
0.220000,-3.295783,-0.214968,-1.466455,0.050096,0.001149,-0.007670,0.551919,0.014510,-0.113416,3.917162,-0.073422,-0.633395,16.326973,-3.988321,-0.458729,0.001460,-0.055561,0.000000,-0.007512,-0.389983,0.000000
0.230000,-3.295254,-0.214956,-1.466537,0.055816,0.001290,-0.008837,0.592446,0.013492,-0.119819,3.977879,-0.097739,-0.628023,-5.771310,-0.617238,1.659346,0.001356,-0.059593,0.000000,-0.009943,-0.395418,0.000000
0.240000,-3.294666,-0.214943,-1.466632,0.061945,0.001419,-0.010067,0.631477,0.012555,-0.125976,3.801736,-0.085767,-0.600208,-13.285293,0.493077,2.524057,0.001261,-0.063469,0.000000,-0.008721,-0.377260,-0.000000
0.250000,-3.294015,-0.214928,-1.466739,0.068446,0.001541,-0.011356,0.668481,0.011777,-0.131823,3.712173,-0.087877,-0.577542,-2.762278,-1.215165,1.871524,0.001182,-0.067138,0.000000,-0.008917,-0.367820,-0.000000
0.260000,-3.293297,-0.214912,-1.466859,0.075315,0.001654,-0.012703,0.705720,0.010798,-0.137527,3.746491,-0.110070,-0.562778,2.740231,-2.137949,1.657853,0.001083,-0.070826,0.000000,-0.011127,-0.370745,0.000000
0.270000,-3.292509,-0.214895,-1.466993,0.082560,0.001757,-0.014107,0.743411,0.009575,-0.143078,3.766977,-0.130636,-0.544385,0.112342,-1.731261,2.056527,0.000959,-0.074553,0.000000,-0.013168,-0.372311,0.000000
0.280000,-3.291646,-0.214877,-1.467141,0.090183,0.001846,-0.015565,0.781060,0.008185,-0.148415,3.748737,-0.144696,-0.521647,-2.730095,-1.226058,2.392144,0.000819,-0.078272,0.000000,-0.014552,-0.370054,0.000000
0.290000,-3.290705,-0.214858,-1.467304,0.098181,0.001920,-0.017075,0.818385,0.006681,-0.153511,3.712376,-0.155157,-0.496542,-3.728090,-1.022724,2.612111,0.000668,-0.081954,0.000000,-0.015574,-0.366034,0.000000
0.300000,-3.289683,-0.214838,-1.467482,0.106551,0.001979,-0.018635,0.855307,0.005082,-0.158346,3.674176,-0.165150,-0.469405,-3.916009,-0.988161,2.809205,0.000508,-0.085593,0.000000,-0.016546,-0.361880,-0.000000
0.310000,-3.288574,-0.214818,-1.467677,0.115287,0.002022,-0.020242,0.891869,0.003378,-0.162899,3.634055,-0.174920,-0.440358,-4.402761,-0.893123,2.994429,0.000337,-0.089192,0.000000,-0.017496,-0.357584,0.000000
0.320000,-3.287377,-0.214798,-1.467887,0.124388,0.002047,-0.021893,0.927989,0.001583,-0.167153,3.586120,-0.183013,-0.409516,-4.986239,-0.702511,3.162108,0.000158,-0.092745,0.000000,-0.018276,-0.352565,-0.000000
0.330000,-3.286087,-0.214777,-1.468115,0.133847,0.002054,-0.023585,0.963591,-0.000282,-0.171090,3.534331,-0.188971,-0.377116,-5.283855,-0.492480,3.308901,-0.000028,-0.096243,0.000000,-0.018843,-0.347219,-0.000000
0.340000,-3.284700,-0.214757,-1.468359,0.143660,0.002041,-0.025315,0.998675,-0.002196,-0.174695,3.480443,-0.192862,-0.343338,-5.666292,-0.292145,3.442458,-0.000219,-0.099689,0.000000,-0.019205,-0.341720,-0.000000
0.350000,-3.283213,-0.214736,-1.468621,0.153821,0.002010,-0.027079,1.033200,-0.004139,-0.177956,3.421005,-0.194814,-0.308266,-6.256725,-0.093520,3.568234,-0.000412,-0.103078,0.000000,-0.019374,-0.335728,-0.000000
0.360000,-3.281624,-0.214716,-1.468901,0.164324,0.001959,-0.028874,1.067095,-0.006092,-0.180861,3.355309,-0.194733,-0.271974,-6.783734,0.118960,3.679997,-0.000606,-0.106404,0.000000,-0.019343,-0.329175,0.000000
0.370000,-3.279927,-0.214697,-1.469198,0.175163,0.001888,-0.030696,1.100306,-0.008034,-0.183396,3.285330,-0.192434,-0.234666,-7.114363,0.343499,3.763277,-0.000799,-0.109662,0.000000,-0.019093,-0.322258,0.000000
0.380000,-3.278120,-0.214679,-1.469514,0.186330,0.001798,-0.032542,1.132802,-0.009941,-0.185554,3.213022,-0.187863,-0.196708,-7.338144,0.573551,3.818580,-0.000988,-0.112849,0.000000,-0.018620,-0.315167,-0.000000
0.390000,-3.276200,-0.214661,-1.469849,0.197819,0.001689,-0.034407,1.164567,-0.011791,-0.187330,3.138567,-0.180963,-0.158295,-7.611717,0.810868,3.864899,-0.001172,-0.115965,0.000000,-0.017919,-0.307918,-0.000000
0.400000,-3.274164,-0.214645,-1.470203,0.209621,0.001562,-0.036289,1.195573,-0.013560,-0.188720,3.060787,-0.171645,-0.119410,-7.941928,1.055706,3.909487,-0.001347,-0.119008,0.000000,-0.016981,-0.300395,-0.000000
0.410000,-3.272008,-0.214630,-1.470575,0.221730,0.001418,-0.038182,1.225783,-0.015224,-0.189718,2.979729,-0.159849,-0.080105,-8.226192,1.305101,3.938810,-0.001511,-0.121973,0.000000,-0.015800,-0.292602,0.000000
0.420000,-3.269729,-0.214617,-1.470966,0.234137,0.001258,-0.040083,1.255168,-0.016757,-0.190322,2.896263,-0.145543,-0.040634,-8.443059,1.557527,3.934768,-0.001663,-0.124860,0.000000,-0.014374,-0.284623,0.000000
0.430000,-3.267325,-0.214605,-1.471377,0.246833,0.001083,-0.041988,1.283708,-0.018135,-0.190531,2.810867,-0.128699,-0.001410,-8.629043,1.812749,3.900621,-0.001799,-0.127666,0.000000,-0.012700,-0.276497,0.000000
0.440000,-3.264793,-0.214595,-1.471806,0.259811,0.000895,-0.043893,1.311385,-0.019331,-0.190350,2.723682,-0.109288,0.037378,-8.806405,2.070489,3.860252,-0.001917,-0.130390,0.000000,-0.010775,-0.268236,-0.000000
0.450000,-3.262129,-0.214587,-1.472254,0.273061,0.000696,-0.045795,1.338181,-0.020321,-0.189783,2.634739,-0.087289,0.075795,-8.970686,2.329904,3.821063,-0.002014,-0.133031,0.000000,-0.008597,-0.259840,-0.000000
0.460000,-3.259331,-0.214581,-1.472722,0.286575,0.000489,-0.047689,1.364080,-0.021077,-0.188834,2.544269,-0.062690,0.113800,-9.110288,2.589659,3.766769,-0.002089,-0.135587,0.000000,-0.006164,-0.251331,-0.000000
0.470000,-3.256397,-0.214577,-1.473208,0.300343,0.000275,-0.049572,1.389067,-0.021574,-0.187507,2.452534,-0.035496,0.151131,-9.232911,2.848461,3.679915,-0.002137,-0.138057,0.000000,-0.003477,-0.242728,0.000000
0.480000,-3.253325,-0.214576,-1.473713,0.314356,0.000057,-0.051439,1.413131,-0.021787,-0.185812,2.359611,-0.005721,0.187398,-9.344758,3.105373,3.565272,-0.002158,-0.140442,0.000000,-0.000536,-0.234032,-0.000000
0.490000,-3.250110,-0.214576,-1.474237,0.328605,-0.000161,-0.053288,1.436259,-0.021689,-0.183759,2.265638,0.026612,0.222436,-9.436878,3.360007,3.446198,-0.002148,-0.142738,0.000000,0.002657,-0.225251,0.000000
0.500000,-3.246752,-0.214579,-1.474779,0.343081,-0.000377,-0.055114,1.458443,-0.021255,-0.181363,2.170873,0.061479,0.256322,-9.506383,3.612610,3.329028,-0.002105,-0.144947,0.000000,0.006101,-0.216408,0.000000
0.510000,-3.243249,-0.214584,-1.475339,0.357774,-0.000586,-0.056915,1.479677,-0.020459,-0.178633,2.075511,0.098864,0.289017,-9.561724,3.861833,3.198443,-0.002026,-0.147067,0.000000,0.009794,-0.207519,-0.000000
0.520000,-3.239597,-0.214590,-1.475917,0.372675,-0.000786,-0.058687,1.499954,-0.019277,-0.175582,1.979639,0.138716,0.320291,-9.611760,4.103485,3.040569,-0.001909,-0.149097,0.000000,0.013733,-0.198587,-0.000000
0.530000,-3.235795,-0.214599,-1.476513,0.387773,-0.000972,-0.060427,1.519269,-0.017685,-0.172227,1.883276,0.180934,0.349828,-9.655553,4.336586,2.860537,-0.001751,-0.151038,0.000000,0.017908,-0.189604,0.000000
0.540000,-3.231841,-0.214610,-1.477126,0.403060,-0.001140,-0.062132,1.537619,-0.015659,-0.168586,1.786527,0.225448,0.377501,-9.684204,4.564783,2.677416,-0.001551,-0.152889,0.000000,0.022314,-0.180578,0.000000
0.550000,-3.227734,-0.214622,-1.477756,0.418526,-0.001285,-0.063799,1.555000,-0.013176,-0.164677,1.689591,0.272229,0.403376,-9.696373,4.788526,2.495760,-0.001305,-0.154650,0.000000,0.026948,-0.171524,0.000000
0.560000,-3.223471,-0.214636,-1.478402,0.434160,-0.001403,-0.065425,1.571411,-0.010214,-0.160518,1.592600,0.321218,0.427417,-9.699925,5.003818,2.303687,-0.001012,-0.156320,0.000000,0.031806,-0.162452,0.000000
0.570000,-3.219051,-0.214650,-1.479064,0.449954,-0.001489,-0.067009,1.586852,-0.006752,-0.156129,1.495593,0.372306,0.449450,-9.701767,5.206917,2.092489,-0.000669,-0.157899,0.000000,0.036879,-0.153360,0.000000
0.580000,-3.214472,-0.214665,-1.479742,0.465897,-0.001538,-0.068548,1.601323,-0.002768,-0.151529,1.398565,0.425357,0.469266,-9.700881,5.397858,1.866823,-0.000274,-0.159387,0.000000,0.042152,-0.144242,0.000000
0.590000,-3.209733,-0.214681,-1.480435,0.481980,-0.001545,-0.070040,1.614823,0.001756,-0.146743,1.301575,0.480263,0.486787,-9.690637,5.579543,1.639392,0.000174,-0.160784,0.000000,0.047618,-0.135099,-0.000000
0.600000,-3.204832,-0.214696,-1.481143,0.498194,-0.001503,-0.071483,1.627354,0.006837,-0.141794,1.204752,0.536947,0.502054,-9.670612,5.752219,1.412584,0.000678,-0.162089,0.000000,0.053268,-0.125941,-0.000000
0.610000,-3.199769,-0.214711,-1.481865,0.514527,-0.001408,-0.072875,1.638918,0.012494,-0.136702,1.108163,0.595307,0.515038,-9.647020,5.912499,1.179178,0.001239,-0.163303,0.000000,0.059094,-0.116772,0.000000
0.620000,-3.194542,-0.214724,-1.482600,0.530972,-0.001253,-0.074217,1.649517,0.018743,-0.131493,1.011812,0.655197,0.525638,-9.624284,6.056856,0.936290,0.001860,-0.164425,0.000000,0.065081,-0.107587,-0.000000
0.630000,-3.189150,-0.214736,-1.483349,0.547518,-0.001033,-0.075505,1.659154,0.025598,-0.126190,0.915677,0.716444,0.533764,-9.601744,6.185195,0.687548,0.002541,-0.165454,0.000000,0.071214,-0.098382,-0.000000
0.640000,-3.183591,-0.214745,-1.484111,0.564155,-0.000741,-0.076741,1.667831,0.033072,-0.120818,0.819777,0.778901,0.539389,-9.575780,6.300293,0.438324,0.003284,-0.166392,0.000000,0.077478,-0.089155,-0.000000
0.650000,-3.177866,-0.214751,-1.484884,0.580874,-0.000372,-0.077922,1.675550,0.041176,-0.115402,0.724162,0.842450,0.542530,-9.546143,6.402299,0.188986,0.004091,-0.167238,0.000000,0.083861,-0.079910,0.000000
0.660000,-3.171974,-0.214753,-1.485669,0.597666,0.000082,-0.079049,1.682314,0.049921,-0.109967,0.628854,0.906947,0.543169,-9.516879,6.487996,-0.062490,0.004962,-0.167990,0.000000,0.090349,-0.070646,0.000000
0.670000,-3.165913,-0.214749,-1.486465,0.614521,0.000627,-0.080121,1.688127,0.059315,-0.104538,0.533824,0.972210,0.541281,-9.491836,6.554382,-0.313724,0.005898,-0.168650,0.000000,0.096925,-0.061358,0.000000
0.680000,-3.159683,-0.214740,-1.487271,0.631429,0.001269,-0.081139,1.692991,0.069365,-0.099141,0.439017,1.038035,0.536894,-9.471023,6.601417,-0.562433,0.006900,-0.169218,0.000000,0.103567,-0.052041,-0.000000
0.690000,-3.153285,-0.214724,-1.488088,0.648380,0.002014,-0.082104,1.696907,0.080076,-0.093801,0.344404,1.104238,0.530032,-9.451491,6.631232,-0.810105,0.007969,-0.169691,0.000000,0.110256,-0.042690,0.000000
0.700000,-3.146716,-0.214700,-1.488913,0.665367,0.002870,-0.083015,1.699879,0.091450,-0.088541,0.249987,1.170660,0.520692,-9.432684,6.643675,-1.058322,0.009105,-0.170071,0.000000,0.116977,-0.033305,-0.000000
0.710000,-3.139977,-0.214666,-1.489748,0.682378,0.003843,-0.083875,1.701907,0.103489,-0.083387,0.155750,1.237112,0.508866,-9.418055,6.636054,-1.304361,0.010309,-0.170357,0.000000,0.123709,-0.023883,0.000000
0.720000,-3.133068,-0.214623,-1.490591,0.699405,0.004940,-0.084683,1.702994,0.116192,-0.078363,0.061626,1.303381,0.494605,-9.412174,6.606248,-1.541126,0.011579,-0.170549,0.000000,0.130430,-0.014418,-0.000000
0.730000,-3.125989,-0.214568,-1.491442,0.716438,0.006167,-0.085442,1.703140,0.129557,-0.073495,-0.032493,1.369237,0.478043,-9.415387,6.554156,-1.767725,0.012917,-0.170646,0.000000,0.137117,-0.004901,0.000000
0.740000,-3.118740,-0.214500,-1.492300,0.733468,0.007531,-0.086153,1.702344,0.143577,-0.068803,-0.126682,1.434464,0.459250,-9.423482,6.480804,-1.991839,0.014322,-0.170647,0.000000,0.143745,0.004673,0.000000
0.750000,-3.111320,-0.214417,-1.493165,0.750485,0.009039,-0.086818,1.700606,0.158246,-0.064310,-0.220963,1.498853,0.438206,-9.434832,6.385631,-2.216720,0.015792,-0.170552,0.000000,0.150293,0.014308,-0.000000
0.760000,-3.103730,-0.214319,-1.494036,0.767480,0.010696,-0.087439,1.697925,0.173554,-0.060038,-0.315378,1.562176,0.414916,-9.453758,6.266762,-2.435539,0.017328,-0.170361,0.000000,0.156736,0.024007,-0.000000
0.770000,-3.095970,-0.214203,-1.494914,0.784443,0.012510,-0.088019,1.694298,0.189490,-0.056011,-0.410038,1.624188,0.389496,-9.487246,6.123167,-2.637388,0.018927,-0.170072,0.000000,0.163048,0.033779,0.000000
0.780000,-3.088041,-0.214069,-1.495797,0.801366,0.014486,-0.088559,1.689724,0.206038,-0.052249,-0.505123,1.684640,0.362168,-9.535619,5.954603,-2.822712,0.020589,-0.169685,0.000000,0.169202,0.043636,-0.000000
0.790000,-3.079943,-0.213913,-1.496685,0.818238,0.016630,-0.089064,1.684196,0.223182,-0.048768,-0.600751,1.743280,0.333041,-9.591197,5.760686,-3.004365,0.022311,-0.169199,0.000000,0.175171,0.053587,-0.000000
0.800000,-3.071676,-0.213736,-1.497578,0.835050,0.018949,-0.089535,1.677709,0.240904,-0.045588,-0.696947,1.799853,0.302081,-9.649627,5.540166,-3.186939,0.024092,-0.168613,0.000000,0.180927,0.063635,0.000000
0.810000,-3.063242,-0.213534,-1.498475,0.851792,0.021448,-0.089975,1.670257,0.259180,-0.042726,-0.793743,1.854084,0.269302,-9.717583,5.292177,-3.360362,0.025930,-0.167926,0.000000,0.186441,0.073781,0.000000
0.820000,-3.054640,-0.213307,-1.499377,0.868455,0.024133,-0.090389,1.661834,0.277985,-0.040202,-0.891299,1.905697,0.234874,-9.809092,5.017498,-3.510863,0.027821,-0.167137,0.000000,0.191682,0.084037,-0.000000
0.830000,-3.045873,-0.213052,-1.500283,0.885029,0.027008,-0.090780,1.652431,0.297293,-0.038029,-0.989925,1.954434,0.199085,-9.925014,4.715570,-3.640100,0.029763,-0.166244,0.000000,0.196623,0.094426,-0.000000
0.840000,-3.036940,-0.212767,-1.501193,0.901503,0.030079,-0.091150,1.642036,0.317074,-0.036220,-1.089799,2.000008,0.162072,-10.047433,4.383601,-3.765082,0.031753,-0.165247,0.000000,0.201234,0.104963,0.000000
0.850000,-3.027843,-0.212450,-1.502106,0.917869,0.033350,-0.091504,1.630635,0.337294,-0.034787,-1.190874,2.042106,0.123784,-10.161704,4.020371,-3.890875,0.033788,-0.164144,0.000000,0.205480,0.115642,-0.000000
0.860000,-3.018582,-0.212100,-1.503023,0.934116,0.036825,-0.091846,1.618218,0.357916,-0.033744,-1.293033,2.080416,0.084254,-10.281877,3.626588,-4.004875,0.035863,-0.162933,0.000000,0.209329,0.126448,-0.000000
0.870000,-3.009160,-0.211714,-1.503943,0.950234,0.040508,-0.092179,1.604774,0.378902,-0.033102,-1.396511,2.114637,0.043686,-10.449170,3.202417,-4.093137,0.037974,-0.161614,0.000000,0.212748,0.137400,0.000000
0.880000,-2.999578,-0.211290,-1.504867,0.966212,0.044403,-0.092508,1.590288,0.400209,-0.032871,-1.502016,2.144464,0.002391,-10.664018,2.745348,-4.158627,0.040118,-0.160183,0.000000,0.215707,0.148559,0.000000
0.890000,-2.989836,-0.210826,-1.505793,0.982039,0.048512,-0.092836,1.574734,0.421791,-0.033055,-1.609792,2.169544,-0.039486,-10.870365,2.253903,-4.218847,0.042288,-0.158640,0.000000,0.218169,0.159947,-0.000000
0.900000,-2.979937,-0.210319,-1.506723,0.997706,0.052839,-0.093169,1.558092,0.443600,-0.033660,-1.719424,2.189542,-0.081986,-11.038125,1.736950,-4.277976,0.044481,-0.156981,0.000000,0.220099,0.171520,-0.000000
0.910000,-2.969882,-0.209769,-1.507657,1.013201,0.057384,-0.093509,1.540346,0.465582,-0.034694,-1.830554,2.204283,-0.125046,-11.207118,1.193508,-4.323565,0.046690,-0.155206,0.000000,0.221478,0.183240,-0.000000
0.920000,-2.959673,-0.209172,-1.508593,1.028513,0.062150,-0.093863,1.521481,0.487685,-0.036161,-1.943566,2.213412,-0.168457,-11.453244,0.595066,-4.344957,0.048911,-0.153313,0.000000,0.222270,0.195138,0.000000
0.930000,-2.949312,-0.208526,-1.509534,1.043631,0.067138,-0.094233,1.501474,0.509850,-0.038063,-2.059619,2.216185,-0.211945,-11.768359,-0.062750,-4.345949,0.051136,-0.151299,0.000000,0.222403,0.207324,0.000000
0.940000,-2.938800,-0.207829,-1.510478,1.058543,0.072347,-0.094624,1.480289,0.532009,-0.040400,-2.178933,2.212157,-0.255376,-12.049159,-0.741295,-4.339728,0.053358,-0.149161,0.000000,0.221831,0.219814,0.000000
0.950000,-2.928141,-0.207079,-1.511426,1.073237,0.077778,-0.095041,1.457896,0.554093,-0.043171,-2.300602,2.201359,-0.298740,-12.259355,-1.416152,-4.326677,0.055572,-0.146896,0.000000,0.220558,0.232517,0.000000
0.960000,-2.917336,-0.206273,-1.512379,1.087701,0.083429,-0.095487,1.434277,0.576036,-0.046375,-2.424120,2.183834,-0.341909,-12.468735,-2.115826,-4.297906,0.057770,-0.144503,0.000000,0.218588,0.245378,-0.000000
0.970000,-2.906387,-0.205410,-1.513336,1.101922,0.089299,-0.095968,1.409413,0.597770,-0.050009,-2.549977,2.159042,-0.384698,-12.760347,-2.903622,-4.253306,0.059944,-0.141981,0.000000,0.215868,0.258440,-0.000000
0.980000,-2.895297,-0.204487,-1.514298,1.115889,0.095385,-0.096487,1.383277,0.619217,-0.054069,-2.679327,2.125762,-0.426976,-13.112796,-3.774044,-4.196705,0.062087,-0.139325,0.000000,0.212280,0.271815,0.000000
0.990000,-2.884069,-0.203503,-1.515266,1.129588,0.101683,-0.097050,1.355827,0.640285,-0.058549,-2.812233,2.083561,-0.468632,-13.413139,-4.641771,-4.127151,0.064189,-0.136534,0.000000,0.207782,0.285504,0.000000
1.000000,-2.872705,-0.202454,-1.516239,1.143005,0.108190,-0.097658,1.327032,0.660888,-0.063442,-2.947590,2.032926,-0.509519,-13.635178,-5.483877,-4.038469,0.066242,-0.133604,0.000000,0.202425,0.299395,-0.000000
1.010000,-2.861209,-0.201339,-1.517219,1.156128,0.114901,-0.098318,1.296875,0.680944,-0.068739,-3.084936,1.973884,-0.549401,-13.851855,-6.358317,-3.931815,0.068238,-0.130533,0.000000,0.196213,0.313436,-0.000000
1.020000,-2.849583,-0.200156,-1.518206,1.168943,0.121809,-0.099033,1.265334,0.700366,-0.074430,-3.224627,1.905760,-0.588155,-14.114263,-7.314407,-3.823446,0.070167,-0.127320,0.000000,0.189083,0.327659,0.000000
1.030000,-2.837830,-0.198903,-1.519200,1.181435,0.128908,-0.099807,1.232382,0.719059,-0.080502,-3.367222,1.827596,-0.625870,-14.395437,-8.334892,-3.714504,0.072019,-0.123964,0.000000,0.180941,0.342120,0.000000
1.040000,-2.825954,-0.197578,-1.520202,1.193591,0.136190,-0.100643,1.197989,0.736918,-0.086947,-3.512536,1.739062,-0.662445,-14.624565,-9.354258,-3.582132,0.073785,-0.120460,0.000000,0.171759,0.356798,-0.000000
1.050000,-2.813958,-0.196179,-1.521213,1.205395,0.143647,-0.101546,1.162132,0.753840,-0.093751,-3.659713,1.640511,-0.697513,-14.790864,-10.350129,-3.415900,0.075454,-0.116808,0.000000,0.161575,0.371601,0.000000
1.060000,-2.801846,-0.194705,-1.522233,1.216833,0.151267,-0.102518,1.124795,0.769728,-0.100897,-3.808353,1.532060,-0.730763,-14.935969,-11.365330,-3.231544,0.077017,-0.113007,0.000000,0.150407,0.386485,0.000000
1.070000,-2.789622,-0.193153,-1.523263,1.227891,0.159041,-0.103564,1.085965,0.784482,-0.108366,-3.958432,1.413204,-0.762144,-15.073110,-12.453115,-3.053414,0.078463,-0.109056,0.000000,0.138208,0.401448,-0.000000
1.080000,-2.777288,-0.191524,-1.524304,1.238553,0.166957,-0.104686,1.045626,0.797992,-0.116140,-4.109815,1.282997,-0.791831,-15.182181,-13.600670,-2.877141,0.079781,-0.104954,0.000000,0.124886,0.416478,-0.000000
1.090000,-2.764851,-0.189814,-1.525357,1.248803,0.175001,-0.105887,1.003768,0.810142,-0.124203,-4.262076,1.141191,-0.819687,-15.240547,-14.733703,-2.669451,0.080960,-0.100700,0.000000,0.110421,0.431529,-0.000000
1.100000,-2.752312,-0.188024,-1.526422,1.258628,0.183160,-0.107170,0.960385,0.820816,-0.132534,-4.414626,0.988323,-0.845220,-15.253696,-15.826993,-2.421737,0.081989,-0.096295,0.000000,0.094873,0.446540,0.000000
1.110000,-2.739678,-0.186151,-1.527500,1.268011,0.191417,-0.108537,0.915476,0.829908,-0.141107,-4.567150,0.824651,-0.868121,-15.229238,-16.928100,-2.155812,0.082858,-0.091739,0.000000,0.078275,0.461477,0.000000
1.120000,-2.726952,-0.184195,-1.528592,1.276937,0.199758,-0.109992,0.869042,0.837309,-0.149896,-4.719211,0.649761,-0.888337,-15.138303,-18.091301,-1.889155,0.083555,-0.087034,0.000000,0.060589,0.476297,-0.000000
1.130000,-2.714139,-0.182156,-1.529700,1.285392,0.208163,-0.111535,0.821091,0.842903,-0.158874,-4.869916,0.462825,-0.905904,-14.969405,-19.300594,-1.613885,0.084070,-0.082180,0.000000,0.041736,0.490915,0.000000
1.140000,-2.701244,-0.180032,-1.530823,1.293359,0.216616,-0.113169,0.771643,0.846566,-0.168014,-5.018599,0.263749,-0.920614,-14.755120,-20.478778,-1.306104,0.084390,-0.077181,0.000000,0.021711,0.505264,0.000000
1.150000,-2.688272,-0.177824,-1.531963,1.300825,0.225095,-0.114896,0.720719,0.848178,-0.177286,-5.165018,0.053249,-0.932026,-14.516414,-21.602624,-0.963183,0.084504,-0.072039,0.000000,0.000595,0.519320,0.000000
1.160000,-2.675228,-0.175530,-1.533121,1.307774,0.233579,-0.116715,0.668343,0.847631,-0.186655,-5.308928,-0.168303,-0.939878,-14.223383,-22.719852,-0.599582,0.084402,-0.066757,0.000000,-0.021572,0.533061,-0.000000
1.170000,-2.662117,-0.173152,-1.534298,1.314192,0.242047,-0.118629,0.614541,0.844812,-0.196084,-5.449486,-0.401148,-0.944018,-13.810981,-23.875870,-0.217283,0.084072,-0.061340,0.000000,-0.044809,0.546406,-0.000000
1.180000,-2.648944,-0.170689,-1.535494,1.320064,0.250476,-0.120637,0.559353,0.839608,-0.205535,-5.585147,-0.645820,-0.944224,-13.279549,-25.053628,0.190875,0.083505,-0.055791,0.000000,-0.069165,0.559208,-0.000000
1.190000,-2.635715,-0.168143,-1.536710,1.325379,0.258840,-0.122739,0.502838,0.831896,-0.214968,-5.715077,-0.902220,-0.940201,-12.709695,-26.186030,0.628299,0.082689,-0.050117,0.000000,-0.094624,0.571387,-0.000000
1.200000,-2.622436,-0.165513,-1.537948,1.330121,0.267114,-0.124936,0.445052,0.821563,-0.224339,-5.839341,-1.169541,-0.931658,-12.130747,-27.246616,1.088922,0.081613,-0.044324,0.000000,-0.121102,0.582956,-0.000000
1.210000,-2.609113,-0.162800,-1.539209,1.334280,0.275271,-0.127226,0.386051,0.808505,-0.233601,-5.957692,-1.447153,-0.918422,-11.481629,-28.275137,1.572844,0.080267,-0.038419,0.000000,-0.148533,0.593899,0.000000
1.220000,-2.595751,-0.160007,-1.540493,1.337842,0.283284,-0.129608,0.325898,0.792620,-0.242708,-6.068974,-1.735044,-0.900201,-10.681593,-29.325676,2.100002,0.078643,-0.032408,0.000000,-0.176914,0.604109,-0.000000
1.230000,-2.582356,-0.157135,-1.541801,1.340798,0.291123,-0.132080,0.264672,0.773804,-0.251605,-6.171324,-2.033666,-0.876422,-9.741535,-30.382499,2.674499,0.076729,-0.026299,0.000000,-0.206285,0.613409,-0.000000
1.240000,-2.568935,-0.154185,-1.543135,1.343136,0.298760,-0.134640,0.202472,0.751947,-0.260236,-6.263804,-2.342694,-0.846711,-8.763665,-31.364060,3.270370,0.074517,-0.020103,0.000000,-0.236611,0.621720,-0.000000
1.250000,-2.555493,-0.151159,-1.544494,1.344847,0.306162,-0.137285,0.139396,0.726950,-0.268540,-6.346597,-2.660948,-0.811015,-7.787219,-32.246460,3.869694,0.071997,-0.013830,0.000000,-0.267777,0.629072,-0.000000
1.260000,-2.542038,-0.148061,-1.545880,1.345924,0.313299,-0.140011,0.075540,0.698728,-0.276456,-6.419549,-2.987623,-0.769317,-6.738258,-33.077444,4.492668,0.069161,-0.007489,0.000000,-0.299708,0.635465,0.000000
1.270000,-2.528575,-0.144893,-1.547294,1.346358,0.320137,-0.142814,0.011005,0.667198,-0.283926,-6.481362,-3.322496,-0.721161,-5.512528,-33.896092,5.188112,0.066003,-0.001090,0.000000,-0.332382,0.640784,0.000000
1.280000,-2.515111,-0.141659,-1.548737,1.346144,0.326643,-0.145690,-0.054088,0.632278,-0.290880,-6.529799,-3.665545,-0.665555,-4.125887,-34.680721,5.955098,0.062514,0.005355,0.000000,-0.365796,0.644825,-0.000000
1.290000,-2.501652,-0.138361,-1.550208,1.345276,0.332782,-0.148632,-0.119591,0.593887,-0.297237,-6.563880,-4.016111,-0.602059,-2.714888,-35.369667,6.728257,0.058687,0.011832,0.000000,-0.399893,0.647511,-0.000000
1.300000,-2.488205,-0.135003,-1.551709,1.343752,0.338520,-0.151634,-0.185365,0.551956,-0.302921,-6.584097,-4.372938,-0.530989,-1.326285,-35.951289,7.475407,0.054516,0.018327,0.000000,-0.434560,0.648912,0.000000
1.310000,-2.474777,-0.131590,-1.553241,1.341569,0.343821,-0.154690,-0.251273,0.506428,-0.307857,-6.590406,-4.735137,-0.452551,0.134553,-36.457615,8.242960,0.049996,0.024830,0.000000,-0.469723,0.649040,-0.000000
1.320000,-2.461374,-0.128127,-1.554803,1.338726,0.348649,-0.157791,-0.317173,0.457253,-0.311972,-6.581406,-5.102090,-0.366130,1.782283,-36.895224,9.112464,0.045121,0.031325,0.000000,-0.505334,0.647780,-0.000000
1.330000,-2.448002,-0.124617,-1.556397,1.335225,0.352966,-0.160930,-0.382901,0.404386,-0.315180,-6.554760,-5.473041,-0.270302,3.592494,-37.244258,10.075204,0.039889,0.037799,0.000000,-0.541329,0.644926,-0.000000
1.340000,-2.434669,-0.121067,-1.558022,1.331068,0.356737,-0.164095,-0.448269,0.347792,-0.317378,-6.509556,-5.846976,-0.164626,5.412098,-37.485623,11.020577,0.034295,0.044234,0.000000,-0.577630,0.640416,-0.000000
1.350000,-2.421381,-0.117482,-1.559678,1.326260,0.359922,-0.167277,-0.513093,0.287447,-0.318472,-6.446518,-6.222754,-0.049890,7.188450,-37.623554,11.902101,0.028336,0.050615,0.000000,-0.614153,0.634342,0.000000
1.360000,-2.408144,-0.113869,-1.561367,1.320806,0.362486,-0.170464,-0.577199,0.223337,-0.318376,-6.365787,-6.599447,0.073416,9.024373,-37.659852,12.795319,0.022011,0.056927,0.000000,-0.650836,0.626735,0.000000
1.370000,-2.394965,-0.110233,-1.563088,1.314716,0.364389,-0.173645,-0.640408,0.155458,-0.317004,-6.266030,-6.975951,0.206016,11.044296,-37.561488,13.812394,0.015319,0.063154,0.000000,-0.687598,0.617489,-0.000000
1.380000,-2.381850,-0.106581,-1.564840,1.307998,0.365595,-0.176805,-0.702520,0.083818,-0.314255,-6.144901,-7.350676,0.349664,13.219538,-37.315859,14.934563,0.008259,0.069279,0.000000,-0.724317,0.606404,-0.000000
1.390000,-2.368805,-0.102921,-1.566624,1.300666,0.366065,-0.179930,-0.763306,0.008444,-0.310010,-6.001640,-7.722268,0.504707,15.379718,-36.956188,16.008064,0.000832,0.075283,0.000000,-0.760903,0.593432,0.000000
1.400000,-2.355837,-0.099260,-1.568439,1.292732,0.365764,-0.183005,-0.822552,-0.070627,-0.304161,-5.837307,-8.089800,0.669825,17.463867,-36.503831,16.975668,-0.006960,0.081148,0.000000,-0.797312,0.578686,-0.000000
1.410000,-2.342950,-0.095606,-1.570284,1.284215,0.364653,-0.186013,-0.880052,-0.153352,-0.296614,-5.652362,-8.452344,0.844221,19.583477,-35.924918,17.939464,-0.015115,0.086858,0.000000,-0.833498,0.562220,0.000000
1.420000,-2.330152,-0.091967,-1.572159,1.275131,0.362697,-0.188937,-0.935600,-0.239674,-0.287277,-5.445637,-8.808299,1.028614,21.877139,-35.145421,19.030912,-0.023631,0.092395,0.000000,-0.869354,0.543933,-0.000000
1.430000,-2.317448,-0.088352,-1.574063,1.265503,0.359859,-0.191759,-0.988965,-0.329518,-0.276042,-5.214820,-9.155253,1.224839,24.310527,-34.160706,20.219999,-0.032503,0.097740,0.000000,-0.904705,0.523627,-0.000000
1.440000,-2.304842,-0.084770,-1.575994,1.255352,0.356106,-0.194458,-1.039896,-0.422779,-0.262780,-4.959427,-9.491513,1.433014,26.689767,-33.059722,21.324370,-0.041726,0.102874,0.000000,-0.939451,0.501263,0.000000
1.450000,-2.292341,-0.081230,-1.577952,1.244705,0.351404,-0.197014,-1.088154,-0.519348,-0.247381,-4.681024,-9.816447,1.651326,28.952669,-31.896101,22.284784,-0.051294,0.107775,0.000000,-0.973591,0.476977,0.000000
1.460000,-2.279948,-0.077741,-1.579934,1.233589,0.345719,-0.199405,-1.133516,-0.619108,-0.229754,-4.380373,-10.129435,1.878710,31.222558,-30.598082,23.218847,-0.061200,0.112427,0.000000,-1.007123,0.450827,0.000000
1.470000,-2.267669,-0.074315,-1.581940,1.222034,0.339022,-0.201609,-1.175761,-0.721937,-0.209807,-4.056573,-10.428409,2.115703,33.629651,-29.009235,24.253732,-0.071438,0.116810,0.000000,-1.039913,0.422716,-0.000000
1.480000,-2.255507,-0.070961,-1.583967,1.210074,0.331281,-0.203602,-1.214648,-0.827676,-0.187439,-3.707780,-10.709619,2.363785,36.132072,-27.131225,25.349220,-0.082000,0.120903,0.000000,-1.071678,0.392463,0.000000
1.490000,-2.243467,-0.067690,-1.586012,1.197741,0.322468,-0.205358,-1.249917,-0.936129,-0.162531,-3.333932,-10.971033,2.622688,38.543415,-25.168217,26.325800,-0.092874,0.124686,0.000000,-1.102296,0.360035,-0.000000
1.500000,-2.231553,-0.064512,-1.588074,1.185075,0.312558,-0.206852,-1.281327,-1.047097,-0.134986,-2.936912,-11.212984,2.890301,40.801976,-23.227846,27.136668,-0.104049,0.128136,0.000000,-1.131860,0.325557,-0.000000
1.510000,-2.219766,-0.061438,-1.590149,1.172115,0.301526,-0.208058,-1.308655,-1.160389,-0.104725,-2.517892,-11.435590,3.165421,43.022020,-21.160939,27.892618,-0.115514,0.131232,0.000000,-1.160441,0.289085,-0.000000
1.520000,-2.208110,-0.058481,-1.592235,1.158902,0.289350,-0.208947,-1.331684,-1.275809,-0.071677,-2.076472,-11.636203,3.448153,45.327562,-18.684123,28.679909,-0.127260,0.133956,0.000000,-1.187850,0.250529,-0.000000
1.530000,-2.196588,-0.055651,-1.594328,1.145481,0.276010,-0.209491,-1.350184,-1.393113,-0.035762,-1.611341,-11.809273,3.739019,47.673390,-15.834197,29.452939,-0.139274,0.136284,0.000000,-1.213621,0.209703,0.000000
1.540000,-2.185201,-0.052961,-1.596425,1.131898,0.261488,-0.209662,-1.363911,-1.511994,0.003103,-1.123004,-11.952886,4.037212,49.876731,-12.988041,30.084676,-0.151536,0.138190,0.000000,-1.237631,0.166575,0.000000
1.550000,-2.173950,-0.050422,-1.598521,1.118203,0.245770,-0.209429,-1.372645,-1.632170,0.044982,-0.613806,-12.069034,4.340713,51.898775,-10.204954,30.558832,-0.164030,0.139653,0.000000,-1.260107,0.121264,0.000000
1.560000,-2.162837,-0.048046,-1.600613,1.104446,0.228845,-0.208762,-1.376187,-1.753375,0.089917,-0.085028,-12.156986,4.648388,53.845861,-7.231201,30.945744,-0.176742,0.140647,0.000000,-1.281012,0.073786,-0.000000
1.570000,-2.151861,-0.045845,-1.602696,1.090679,0.210703,-0.207631,-1.374345,-1.875310,0.137950,0.463111,-12.213658,4.959627,55.768175,-3.963410,31.248440,-0.189654,0.141150,0.000000,-1.300079,0.024048,-0.000000
1.580000,-2.141023,-0.043831,-1.604766,1.076959,0.191338,-0.206003,-1.366925,-1.997648,0.189110,1.030335,-12.236254,5.273357,57.618010,-0.465760,31.425144,-0.202747,0.141134,0.000000,-1.317052,-0.028053,0.000000
1.590000,-2.130322,-0.042018,-1.606816,1.063341,0.170750,-0.203849,-1.353738,-2.120035,0.243417,1.615471,-12.222973,5.588130,59.309684,3.129198,31.458897,-0.215999,0.140574,0.000000,-1.331747,-0.082551,-0.000000
1.600000,-2.119756,-0.040416,-1.608843,1.049884,0.148938,-0.201135,-1.334616,-2.242108,0.300873,2.216529,-12.173670,5.902535,60.813600,6.637026,31.383921,-0.229386,0.139440,0.000000,-1.344129,-0.139406,-0.000000
1.610000,-2.109324,-0.039039,-1.610839,1.036648,0.125907,-0.197831,-1.309408,-2.363509,0.361467,2.831743,-12.090232,6.215809,62.168010,10.151665,31.192234,-0.242886,0.137706,0.000000,-1.354355,-0.198599,-0.000000
1.620000,-2.099023,-0.037898,-1.612799,1.023696,0.101667,-0.193906,-1.277981,-2.483912,0.425189,3.459889,-11.970636,6.526380,63.412215,14.197056,30.758333,-0.256477,0.135343,0.000000,-1.362165,-0.260184,0.000000
1.630000,-2.088850,-0.037006,-1.614717,1.011089,0.076229,-0.189327,-1.240210,-2.602921,0.491995,4.099987,-11.806291,6.830975,64.511850,18.769935,30.057057,-0.270133,0.132321,0.000000,-1.366579,-0.324271,-0.000000
1.640000,-2.078801,-0.036374,-1.616586,0.998892,0.049609,-0.184066,-1.195981,-2.720038,0.561808,4.750126,-11.595238,7.127521,65.390065,23.135073,29.244259,-0.283813,0.128607,0.000000,-1.367261,-0.390864,0.000000
1.650000,-2.068872,-0.036014,-1.618399,0.987169,0.021828,-0.178091,-1.145208,-2.834826,0.634545,5.407789,-11.343590,7.415861,66.079071,27.078367,28.416106,-0.297481,0.124170,0.000000,-1.364701,-0.459879,0.000000
1.660000,-2.059058,-0.035937,-1.620148,0.975987,-0.007087,-0.171375,-1.087825,-2.946910,0.710125,6.071707,-11.053670,7.695843,66.605639,31.090217,27.446968,-0.311110,0.118978,0.000000,-1.358998,-0.531361,-0.000000
1.670000,-2.049353,-0.036155,-1.621826,0.965413,-0.037110,-0.163889,-1.023773,-3.055900,0.788462,6.739902,-10.721785,7.964800,66.820093,35.597671,26.065269,-0.324664,0.112998,0.000000,-1.349550,-0.605311,-0.000000
1.680000,-2.039750,-0.036679,-1.623426,0.955512,-0.068205,-0.155606,-0.953027,-3.161346,0.869421,7.408109,-10.341717,8.217148,66.677751,40.426789,24.278929,-0.338102,0.106195,0.000000,-1.335347,-0.681516,0.000000
1.690000,-2.030242,-0.037520,-1.624938,0.946352,-0.100337,-0.146500,-0.875611,-3.262734,0.952805,8.073457,-9.913250,8.450379,66.363760,44.999508,22.442014,-0.351372,0.098539,0.000000,-1.316025,-0.759840,0.000000
1.700000,-2.020823,-0.038686,-1.626356,0.938000,-0.133460,-0.136550,-0.791558,-3.359611,1.038429,8.735384,-9.441727,8.665989,65.990155,49.260349,20.710892,-0.364423,0.089998,0.000000,-1.291889,-0.840332,-0.000000
1.710000,-2.011482,-0.040189,-1.627669,0.930521,-0.167529,-0.125732,-0.700904,-3.451568,1.126125,9.393260,-8.928043,8.864596,65.404341,53.565423,18.829720,-0.377209,0.080539,0.000000,-1.262757,-0.923029,0.000000
1.720000,-2.002212,-0.042037,-1.628870,0.923982,-0.202491,-0.114027,-0.603693,-3.538171,1.215721,10.043471,-8.370418,9.042583,64.289006,57.950014,16.394310,-0.389677,0.070128,0.000000,-1.227977,-1.007674,-0.000000
1.730000,-1.993003,-0.044239,-1.629950,0.918447,-0.238292,-0.101417,-0.500034,-3.618977,1.306977,10.679040,-7.769042,9.192483,62.656308,62.275858,13.455511,-0.401766,0.058739,0.000000,-1.186867,-1.093611,0.000000
1.740000,-1.983843,-0.046803,-1.630899,0.913981,-0.274871,-0.087887,-0.390112,-3.693552,1.399571,11.296597,-7.124901,9.311693,60.913881,66.478437,10.550655,-0.413410,0.046351,0.000000,-1.138976,-1.180444,-0.000000
1.750000,-1.974723,-0.049736,-1.631707,0.910645,-0.312163,-0.073426,-0.274102,-3.761475,1.493211,11.897317,-6.439474,9.403496,59.216666,70.471156,7.882142,-0.424540,0.032946,0.000000,-1.084155,-1.268195,-0.000000
1.760000,-1.965631,-0.053046,-1.632367,0.908499,-0.350101,-0.058023,-0.152166,-3.822342,1.587640,12.480931,-5.715478,9.469336,57.268522,74.264529,5.079175,-0.435087,0.018504,0.000000,-1.022296,-1.356714,0.000000
1.770000,-1.956553,-0.056738,-1.632868,0.907601,-0.388610,-0.041673,-0.024484,-3.875784,1.682597,13.042688,-4.954183,9.505079,54.667982,78.069812,1.648992,-0.444978,0.003012,0.000000,-0.952879,-1.445313,0.000000
1.780000,-1.947478,-0.060818,-1.633201,0.908009,-0.427616,-0.024371,0.108688,-3.921425,1.777742,13.574290,-4.154082,9.502316,51.472528,81.853334,-2.311452,-0.454135,-0.013531,0.000000,-0.874881,-1.532783,-0.000000
1.790000,-1.938393,-0.065290,-1.633355,0.909775,-0.467039,-0.006118,0.247002,-3.958866,1.872644,14.072138,-3.317116,9.458850,48.207200,85.276698,-6.137554,-0.462465,-0.031109,0.000000,-0.787923,-1.618288,0.000000
1.800000,-1.929283,-0.070159,-1.633323,0.912949,-0.506794,0.013082,0.390131,-3.987768,1.966919,14.538434,-2.448548,9.379565,45.099760,88.356824,-9.615584,-0.469881,-0.049701,0.000000,-0.692356,-1.701597,0.000000
1.810000,-1.920134,-0.075426,-1.633094,0.917578,-0.546794,0.033220,0.537771,-4.007837,2.060235,14.974134,-1.549980,9.266538,41.781590,91.278112,-13.188209,-0.476299,-0.069281,0.000000,-0.588085,-1.782303,0.000000
1.820000,-1.910931,-0.081095,-1.632659,0.923705,-0.586950,0.054286,0.689613,-4.018767,2.152250,15.374066,-0.622986,9.115801,37.669606,93.834158,-17.341052,-0.481628,-0.089812,0.000000,-0.474776,-1.859190,0.000000
1.830000,-1.901660,-0.087165,-1.632008,0.931370,-0.627169,0.076265,0.845252,-4.020297,2.242551,15.727526,0.326703,8.919717,32.855730,95.917884,-21.934959,-0.485779,-0.111235,0.000000,-0.352449,-1.930219,0.000000
1.840000,-1.892304,-0.093638,-1.631133,0.940610,-0.667356,0.099137,1.004164,-4.012233,2.330644,16.031181,1.295372,8.677102,28.123960,97.778419,-26.305255,-0.488662,-0.133460,0.000000,-0.221373,-1.994116,-0.000000
1.850000,-1.882848,-0.100512,-1.630025,0.951453,-0.707414,0.122878,1.165876,-3.994389,2.416093,16.290005,2.282272,8.393612,23.683839,99.458547,-30.282005,-0.490191,-0.156393,0.000000,-0.081961,-2.050663,0.000000
1.860000,-1.873275,-0.107786,-1.628676,0.963927,-0.747244,0.147459,1.329964,-3.966588,2.498516,16.504858,3.284543,8.071462,19.010122,100.746773,-34.289849,-0.490286,-0.179933,0.000000,0.065192,-2.099159,-0.000000
1.870000,-1.863569,-0.115457,-1.627076,0.978053,-0.786746,0.172848,1.495973,-3.928698,2.577522,16.670207,4.297207,7.707815,13.649123,101.517182,-38.669464,-0.488874,-0.203965,0.000000,0.219330,-2.138059,0.000000
1.880000,-1.853714,-0.123521,-1.625219,0.993847,-0.825818,0.199010,1.663368,-3.880644,2.652673,16.777840,5.314887,7.298072,7.738621,101.712862,-43.261702,-0.485888,-0.228347,0.000000,0.379512,-2.165428,0.000000
1.890000,-1.843692,-0.131974,-1.623096,1.011320,-0.864359,0.225902,1.831530,-3.822401,2.723484,16.824980,6.331464,6.842581,1.896285,101.465772,-47.586447,-0.481274,-0.252918,0.000000,0.544294,-2.180109,-0.000000
1.900000,-1.833487,-0.140808,-1.620701,1.030477,-0.902266,0.253479,1.999868,-3.754014,2.789524,16.815766,7.344202,6.346343,-3.499672,101.486702,-51.568634,-0.474995,-0.277512,0.000000,0.712276,-2.182019,0.000000
1.910000,-1.823083,-0.150019,-1.618026,1.051317,-0.939439,0.281692,2.167845,-3.675517,2.850411,16.754986,8.361198,5.811209,-8.860161,101.599292,-55.490753,-0.467024,-0.301965,0.000000,0.883340,-2.171231,-0.000000
1.920000,-1.812461,-0.159597,-1.615067,1.073834,-0.975776,0.310487,2.334967,-3.586790,2.905749,16.638563,9.376188,5.236528,-15.151341,99.688879,-59.435710,-0.457326,-0.326118,0.000000,1.055746,-2.146849,0.000000
1.930000,-1.801606,-0.169534,-1.611817,1.098017,-1.011175,0.339807,2.500616,-3.487993,2.955141,16.451959,10.354976,4.622494,-22.213384,95.770227,-63.259308,-0.445911,-0.349794,0.000000,1.224255,-2.106925,-0.000000
1.940000,-1.790501,-0.179821,-1.608271,1.123847,-1.045536,0.369590,2.664007,-3.379691,2.998198,16.194295,11.291592,3.971342,-28.705644,92.711863,-66.818514,-0.432848,-0.372799,0.000000,1.386688,-2.051359,-0.000000
1.950000,-1.779129,-0.190445,-1.604425,1.151297,-1.078769,0.399771,2.824502,-3.262161,3.034568,15.877847,12.209213,3.286124,-34.663534,90.457796,-70.202004,-0.418187,-0.394968,0.000000,1.544468,-1.981851,-0.000000
1.960000,-1.767475,-0.201396,-1.600275,1.180337,-1.110779,0.430282,2.981564,-3.135507,3.063921,15.501024,13.100748,2.567302,-40.928948,87.096984,-73.449950,-0.401972,-0.416156,0.000000,1.695620,-1.898560,0.000000
1.970000,-1.755522,-0.212661,-1.595819,1.210928,-1.141479,0.461050,3.134523,-3.000146,3.085914,15.059268,13.951153,1.817125,-47.053272,83.422961,-76.219328,-0.384292,-0.436214,0.000000,1.837129,-1.801550,-0.000000
1.980000,-1.743256,-0.224226,-1.591054,1.243027,-1.170782,0.492000,3.282749,-2.856484,3.100263,14.559959,14.769208,1.042915,-52.697955,80.063358,-78.421483,-0.365249,-0.455012,0.000000,1.968900,-1.692688,-0.000000
1.990000,-1.730662,-0.236076,-1.585979,1.276583,-1.198608,0.523055,3.425722,-2.704762,3.106772,14.005309,15.552420,0.248695,-58.485336,75.788800,-80.482994,-0.344936,-0.472453,0.000000,2.089820,-1.573223,-0.000000
2.000000,-1.717725,-0.248198,-1.580593,1.311541,-1.224878,0.554135,3.562855,-2.545435,3.105237,13.390252,16.284984,-0.566744,-64.393466,71.000804,-82.638587,-0.323476,-0.488444,0.000000,2.197413,-1.443381,0.000000
2.010000,-1.704431,-0.260574,-1.574896,1.347840,-1.249517,0.585160,3.693527,-2.379062,3.095437,12.717439,16.972436,-1.404076,-69.948208,66.519725,-84.542944,-0.301012,-0.502902,0.000000,2.291991,-1.304325,-0.000000
2.020000,-1.690768,-0.273188,-1.568890,1.385412,-1.272459,0.616044,3.817204,-2.205986,3.077156,11.991288,17.615378,-2.257603,-75.368851,60.660567,-85.537787,-0.277661,-0.515765,0.000000,2.373306,-1.157813,-0.000000
2.030000,-1.676723,-0.286023,-1.562576,1.424184,-1.293637,0.646703,3.933353,-2.026755,3.050285,11.210062,18.185648,-3.114832,-80.795665,53.018054,-85.655050,-0.253571,-0.526991,0.000000,2.437612,-1.005374,-0.000000
2.040000,-1.662284,-0.299061,-1.555956,1.464079,-1.312994,0.677050,4.041405,-1.842273,3.014859,10.375375,18.675739,-3.970704,-85.816356,46.035163,-85.738597,-0.228933,-0.536550,0.000000,2.484197,-0.848452,-0.000000
2.050000,-1.647441,-0.312283,-1.549035,1.505012,-1.330482,0.707000,4.140860,-1.653240,2.970871,9.493735,19.106351,-4.829604,-90.324375,40.496361,-86.132799,-0.203910,-0.544429,0.000000,2.516218,-0.688345,-0.000000
2.060000,-1.632184,-0.325671,-1.541816,1.546896,-1.346059,0.736467,4.231280,-1.460146,2.918267,8.568887,19.485666,-5.693360,-94.556505,34.732197,-86.223107,-0.178630,-0.550624,0.000000,2.535276,-0.526117,-0.000000
2.070000,-1.616503,-0.339204,-1.534305,1.589638,-1.359685,0.765365,4.312238,-1.263527,2.857004,7.602605,19.800995,-6.554066,-98.550856,27.227587,-85.107087,-0.153224,-0.555139,0.000000,2.540351,-0.363164,0.000000
2.080000,-1.600391,-0.352864,-1.526509,1.633141,-1.371329,0.793607,4.383332,-1.064127,2.787186,6.597870,20.030218,-7.395502,-102.101088,18.631299,-82.912814,-0.127840,-0.557992,0.000000,2.529411,-0.201436,-0.000000
2.090000,-1.583840,-0.366631,-1.518433,1.677305,-1.380968,0.821109,4.444195,-0.862922,2.709094,5.560583,20.173621,-8.212322,-105.127862,10.940965,-80.823314,-0.102649,-0.559220,0.000000,2.503536,-0.042356,0.000000
2.100000,-1.566845,-0.380484,-1.510086,1.722025,-1.388588,0.847789,4.494544,-0.660654,2.622939,4.495313,20.249037,-9.011968,-108.223172,3.767116,-79.240456,-0.077780,-0.558862,0.000000,2.465971,0.113727,0.000000
2.110000,-1.549400,-0.394402,-1.501477,1.767196,-1.394181,0.873568,4.534102,-0.457941,2.528855,3.396120,20.248963,-9.797132,-111.337515,-4.104113,-77.343413,-0.053338,-0.556957,0.000000,2.416762,0.267292,-0.000000
2.120000,-1.531501,-0.408367,-1.492615,1.812707,-1.397746,0.898366,4.562466,-0.255675,2.426997,2.268562,20.166955,-10.558837,-112.669300,-11.173433,-74.150494,-0.029451,-0.553527,0.000000,2.356144,0.417019,-0.000000
2.130000,-1.513146,-0.422357,-1.483510,1.858445,-1.399294,0.922108,4.579473,-0.054602,2.317678,1.142734,20.025494,-11.280141,-112.108551,-16.944420,-69.891556,-0.006218,-0.548630,0.000000,2.287690,0.558897,0.000000
2.140000,-1.494332,-0.436353,-1.474173,1.904296,-1.398839,0.944720,4.585321,0.144835,2.201394,0.026391,19.828067,-11.956668,-112.092095,-23.482523,-65.870249,0.016302,-0.542365,0.000000,2.212610,0.692091,-0.000000
2.150000,-1.475060,-0.450334,-1.464616,1.950151,-1.396398,0.966136,4.580001,0.341959,2.078545,-1.099108,19.555844,-12.597546,-113.063486,-30.700101,-62.404743,0.038035,-0.534802,0.000000,2.129599,0.819135,0.000000
2.160000,-1.455329,-0.464281,-1.454850,1.995896,-1.391999,0.986291,4.563339,0.535952,1.949443,-2.234878,19.214065,-13.204763,-113.334460,-37.142534,-58.628658,0.058898,-0.525985,0.000000,2.040058,0.940418,0.000000
2.170000,-1.435142,-0.478174,-1.444890,2.041418,-1.385679,1.005124,4.535303,0.726240,1.814449,-3.365797,18.812993,-13.770120,-112.127851,-43.562522,-53.855248,0.078842,-0.515974,0.000000,1.945794,1.054293,0.000000
2.180000,-1.414501,-0.491995,-1.434748,2.086603,-1.377475,1.022580,4.496023,0.912212,1.674040,-4.477435,18.342814,-14.281867,-109.965394,-50.383673,-48.379174,0.097821,-0.504846,0.000000,1.846397,1.159136,-0.000000
2.190000,-1.393410,-0.505724,-1.424438,2.131338,-1.367434,1.038605,4.445754,1.093097,1.528812,-5.565105,17.805320,-14.737703,-107.773107,-56.371118,-43.120897,0.115778,-0.492691,0.000000,1.742701,1.254870,0.000000
2.200000,-1.371874,-0.519343,-1.413976,2.175518,-1.355613,1.053156,4.384720,1.268318,1.379286,-6.632898,17.215392,-15.144285,-105.856308,-61.811506,-38.229886,0.132684,-0.479589,0.000000,1.636739,1.342688,-0.000000
2.210000,-1.349900,-0.532836,-1.403375,2.219033,-1.342068,1.066191,4.313097,1.437404,1.225926,-7.682231,16.569090,-15.502301,-103.595743,-67.456089,-33.132303,0.148523,-0.465608,0.000000,1.528493,1.423197,-0.000000
2.220000,-1.327493,-0.546185,-1.392652,2.261780,-1.326865,1.077674,4.231076,1.599700,1.069240,-8.704812,15.866270,-15.806931,-100.104776,-71.858158,-27.580222,0.163265,-0.450817,0.000000,1.418349,1.495880,-0.000000
2.230000,-1.304664,-0.559373,-1.381822,2.303654,-1.310074,1.087576,4.139000,1.754730,0.909788,-9.684327,15.131927,-16.053905,-95.559587,-74.601470,-21.817545,0.176902,-0.435295,0.000000,1.309045,1.559576,-0.000000
2.240000,-1.281420,-0.572386,-1.370900,2.344560,-1.291770,1.095870,4.037389,1.902338,0.748162,-10.616004,14.374241,-16.243282,-91.163504,-77.685475,-16.201565,0.189457,-0.419137,0.000000,1.201473,1.614411,0.000000
2.250000,-1.257773,-0.585209,-1.359904,2.384402,-1.272027,1.102539,3.926680,2.042215,0.584922,-11.507597,13.578217,-16.377937,-87.191133,-81.695986,-10.677698,0.200943,-0.402423,0.000000,1.094302,1.661738,0.000000
2.260000,-1.233732,-0.597827,-1.348849,2.423093,-1.250926,1.107569,3.807237,2.173903,0.420604,-12.359827,12.740321,-16.456836,-82.854113,-85.193685,-5.074039,0.211355,-0.385224,0.000000,0.987382,1.702093,0.000000
2.270000,-1.209311,-0.610227,-1.337753,2.460547,-1.228549,1.110951,3.679484,2.297021,0.255785,-13.164679,11.874343,-16.479417,-77.616183,-86.951969,0.332498,0.220702,-0.367610,0.000000,0.882083,1.735255,-0.000000
2.280000,-1.184521,-0.622398,-1.326630,2.496683,-1.204985,1.112684,3.543944,2.411390,0.091015,-13.912150,11.001282,-16.450186,-71.766413,-87.359847,5.397852,0.229009,-0.349658,0.000000,0.780206,1.760993,-0.000000
2.290000,-1.159377,-0.634327,-1.315499,2.531426,-1.180321,1.112771,3.401241,2.517047,-0.073218,-14.600007,10.127146,-16.371460,-66.031566,-87.956413,10.452047,0.236318,-0.331448,0.000000,0.682145,1.779649,-0.000000
2.300000,-1.133893,-0.646004,-1.304375,2.564708,-1.154644,1.111220,3.251944,2.613933,-0.236414,-15.232782,9.242153,-16.241145,-60.472226,-89.186883,15.732390,0.242662,-0.313048,0.000000,0.587011,1.792010,-0.000000
2.310000,-1.108083,-0.657420,-1.293275,2.596465,-1.128043,1.108043,3.096585,2.701890,-0.398041,-15.809452,8.343409,-16.056812,-54.656137,-89.987338,20.942164,0.248068,-0.294525,0.000000,0.494547,1.798377,-0.000000
2.320000,-1.081964,-0.668565,-1.282214,2.626639,-1.100607,1.103259,2.935755,2.780801,-0.557550,-16.325905,7.442407,-15.822302,-48.569887,-89.199517,25.382623,0.252564,-0.275944,0.000000,0.405599,1.798950,-0.000000
2.330000,-1.055550,-0.679432,-1.271209,2.655180,-1.072427,1.096892,2.770067,2.850738,-0.714487,-16.780850,6.559418,-15.549160,-42.422990,-87.127518,29.057562,0.256190,-0.257365,0.000000,0.321538,1.794289,-0.000000
2.340000,-1.028860,-0.690013,-1.260276,2.682041,-1.043592,1.088969,2.600138,2.911989,-0.868533,-17.174364,5.699856,-15.241151,-36.264275,-85.290387,32.851256,0.259003,-0.238844,0.000000,0.242544,1.784784,-0.000000
2.350000,-1.001909,-0.700304,-1.249430,2.707183,-1.014187,1.079521,2.426580,2.964735,-1.019310,-17.506135,4.853611,-14.892135,-29.983264,-84.014422,37.096105,0.261049,-0.220434,0.000000,0.167713,1.770583,0.000000
2.360000,-0.974716,-0.710297,-1.238686,2.730572,-0.984297,1.068583,2.250015,3.009061,-1.166376,-17.774030,4.019568,-14.499229,-23.617670,-82.287912,41.136128,0.262365,-0.202186,0.000000,0.096862,1.751787,0.000000
2.370000,-0.947298,-0.719990,-1.228058,2.752183,-0.954006,1.056194,2.071099,3.045126,-1.309295,-17.978489,3.207852,-14.069412,-17.554890,-79.411083,44.090082,0.262993,-0.184151,0.000000,0.030529,1.728874,-0.000000
2.380000,-0.919673,-0.729377,-1.217562,2.771994,-0.923395,1.042397,1.890445,3.073218,-1.447764,-18.125127,2.431346,-13.617427,-11.867211,-75.729760,46.099137,0.262982,-0.166371,0.000000,-0.030712,1.702779,0.000000
2.390000,-0.891858,-0.738458,-1.207210,2.789992,-0.892541,1.027239,1.708596,3.093753,-1.581644,-18.215833,1.693257,-13.147430,-6.087746,-72.167186,48.291808,0.262385,-0.148877,0.000000,-0.086891,1.673848,0.000000
2.400000,-0.863873,-0.747228,-1.197017,2.806166,-0.861519,1.010764,1.526128,3.107084,-1.710713,-18.246882,0.988002,-12.651591,0.022566,-68.852727,50.990964,0.261249,-0.131701,0.000000,-0.138498,1.641815,0.000000
2.410000,-0.835735,-0.755688,-1.186995,2.820514,-0.830400,0.993024,1.343659,3.113513,-1.834675,-18.215381,0.316203,-12.127610,6.081313,-65.212747,53.403619,0.259620,-0.114880,0.000000,-0.185612,1.606600,0.000000
2.420000,-0.807463,-0.763836,-1.177157,2.833039,-0.799249,0.974071,1.161821,3.113408,-1.953265,-18.125256,-0.316253,-11.583519,11.395726,-61.036016,54.727581,0.257541,-0.098448,0.000000,-0.228094,1.568764,0.000000
2.430000,-0.779074,-0.771673,-1.167514,2.843751,-0.768131,0.953959,0.981154,3.107188,-2.066346,-17.987467,-0.904518,-11.033059,16.013081,-56.565012,55.183298,0.255061,-0.082427,0.000000,-0.265999,1.529390,0.000000
2.440000,-0.750587,-0.779199,-1.158078,2.852662,-0.737105,0.932744,0.802072,3.095317,-2.173926,-17.804994,-1.447553,-10.479853,20.805816,-52.105674,55.805593,0.252224,-0.066829,0.000000,-0.299481,1.488739,0.000000
2.450000,-0.722021,-0.786415,-1.148859,2.859792,-0.706225,0.910481,0.625054,3.078237,-2.275943,-17.571351,-1.946631,-9.916947,26.033313,-47.611468,56.832206,0.249074,-0.051671,0.000000,-0.328664,1.446260,-0.000000
2.460000,-0.693392,-0.793323,-1.139868,2.865163,-0.675541,0.887225,0.450645,3.056385,-2.372265,-17.284328,-2.399782,-9.343209,31.059063,-42.942911,57.563835,0.245653,-0.036975,0.000000,-0.353517,1.401817,0.000000
2.470000,-0.664718,-0.799926,-1.131114,2.868805,-0.645097,0.863035,0.279367,3.030242,-2.462807,-16.950169,-2.805489,-8.765670,35.208675,-38.338970,57.450399,0.242005,-0.022759,0.000000,-0.374191,1.355951,-0.000000
2.480000,-0.636016,-0.806225,-1.122607,2.870751,-0.614936,0.837969,0.111641,3.000275,-2.547579,-16.580155,-3.166562,-8.194201,38.638854,-33.922208,56.718688,0.238170,-0.009034,0.000000,-0.391204,1.309539,-0.000000
2.490000,-0.607303,-0.812225,-1.114355,2.871038,-0.585092,0.812084,-0.052236,2.966910,-2.626691,-16.177392,-3.483934,-7.631296,42.195664,-29.418262,56.087161,0.234182,0.004200,0.000000,-0.404778,1.262745,-0.000000
2.500000,-0.578595,-0.817927,-1.106366,2.869706,-0.555598,0.785435,-0.211907,2.930596,-2.700205,-15.736241,-3.754927,-7.072457,46.086905,-24.653121,55.669354,0.230075,0.016937,0.000000,-0.414720,1.215054,0.000000
2.510000,-0.549908,-0.823336,-1.098646,2.866800,-0.526480,0.758080,-0.366961,2.891812,-2.768140,-15.255654,-3.976996,-6.517909,49.718738,-19.880112,55.004495,0.225888,0.029166,0.000000,-0.420928,1.166332,-0.000000
2.520000,-0.521259,-0.828457,-1.091204,2.862367,-0.497761,0.730072,-0.517020,2.851056,-2.830563,-14.741867,-4.152529,-5.972367,52.562071,-15.630273,53.878031,0.221657,0.040879,0.000000,-0.423744,1.116982,-0.000000
2.530000,-0.492661,-0.833292,-1.084045,2.856459,-0.469459,0.701468,-0.661798,2.808761,-2.887588,-14.204413,-4.289601,-5.440349,54.787185,-11.898187,52.469040,0.217413,0.052073,0.000000,-0.423920,1.067630,0.000000
2.540000,-0.464130,-0.837846,-1.077175,2.849131,-0.441586,0.672321,-0.801108,2.765264,-2.939370,-13.646123,-4.390493,-4.922987,57.063701,-8.030996,51.068508,0.213178,0.062753,0.000000,-0.421690,1.018374,0.000000
2.550000,-0.435678,-0.842123,-1.070598,2.840437,-0.414154,0.642681,-0.934720,2.720951,-2.986047,-13.063139,-4.450221,-4.418979,59.516573,-3.800004,49.666282,0.208979,0.072918,0.000000,-0.416696,0.968815,-0.000000
2.560000,-0.407321,-0.846129,-1.064321,2.830437,-0.387167,0.612600,-1.062371,2.676260,-3.027749,-12.455791,-4.466493,-3.929661,61.692140,0.298788,48.104748,0.204844,0.082566,0.000000,-0.408818,0.918868,-0.000000
2.570000,-0.379070,-0.849867,-1.058346,2.819190,-0.360628,0.582126,-1.183836,2.631621,-3.064640,-11.829296,-4.444246,-3.456884,63.298373,3.631610,46.481000,0.200802,0.091693,0.000000,-0.398481,0.868806,-0.000000
2.580000,-0.350937,-0.853341,-1.052678,2.806760,-0.334535,0.551307,-1.298957,2.587375,-3.096887,-11.189824,-4.393861,-3.000041,64.483815,6.298117,44.892223,0.196874,0.100303,0.000000,-0.386467,0.818982,0.000000
2.590000,-0.322935,-0.856557,-1.047320,2.793211,-0.308881,0.520188,-1.407633,2.543744,-3.124641,-10.539620,-4.318283,-2.559039,65.618390,9.089448,43.230143,0.193072,0.108400,0.000000,-0.372998,0.769453,0.000000
2.600000,-0.295073,-0.859519,-1.042275,2.778607,-0.283660,0.488814,-1.509749,2.501009,-3.148068,-9.877456,-4.212072,-2.135438,66.745164,12.227009,41.392222,0.189413,0.115987,0.000000,-0.357692,0.719999,-0.000000
2.610000,-0.267362,-0.862231,-1.037544,2.763016,-0.258861,0.457227,-1.605182,2.459503,-3.167350,-9.204716,-4.073743,-1.731195,67.626662,15.141249,39.493249,0.185917,0.123066,0.000000,-0.340459,0.670592,-0.000000
2.620000,-0.239813,-0.864696,-1.033130,2.746504,-0.234470,0.425467,-1.693843,2.419534,-3.182692,-8.524923,-3.909247,-1.345573,68.179342,17.250170,37.849085,0.182603,0.129638,0.000000,-0.321721,0.621385,-0.000000
2.630000,-0.212432,-0.866920,-1.029035,2.729139,-0.210470,0.393573,-1.775680,2.381318,-3.194262,-7.841130,-3.728740,-0.974213,68.497768,18.698945,36.471757,0.179482,0.135707,0.000000,-0.302157,0.572540,-0.000000
2.640000,-0.185230,-0.868906,-1.025259,2.710990,-0.186843,0.361582,-1.850666,2.344960,-3.202176,-7.154968,-3.535268,-0.616138,68.690593,20.221095,34.969922,0.176559,0.141278,0.000000,-0.281964,0.524088,-0.000000
2.650000,-0.158212,-0.870657,-1.021803,2.692125,-0.163571,0.329530,-1.918780,2.310613,-3.206584,-6.467318,-3.324318,-0.274815,68.723673,21.996966,33.189118,0.173843,0.146356,0.000000,-0.260834,0.475956,0.000000
2.660000,-0.131387,-0.872177,-1.018668,2.672614,-0.140631,0.297450,-1.980012,2.278473,-3.207672,-5.780494,-3.095329,0.047644,68.542844,23.515933,31.428800,0.171342,0.150945,0.000000,-0.238731,0.428190,0.000000
2.670000,-0.104760,-0.873470,-1.015854,2.652525,-0.118001,0.265376,-2.034390,2.248706,-3.205631,-5.096461,-2.853999,0.353761,68.266279,24.324330,30.114942,0.169068,0.155049,0.000000,-0.216019,0.380865,0.000000
2.680000,-0.078337,-0.874537,-1.013361,2.631927,-0.095657,0.233338,-2.081942,2.221393,-3.200597,-4.415169,-2.608842,0.649943,67.932348,24.567686,29.192064,0.167022,0.158674,0.000000,-0.193220,0.333960,0.000000
2.690000,-0.052122,-0.875383,-1.011187,2.610886,-0.073574,0.201364,-2.122693,2.196529,-3.192633,-3.737814,-2.362645,0.937603,67.389645,24.826316,28.121869,0.165203,0.161824,0.000000,-0.170503,0.287501,-0.000000
2.700000,-0.026119,-0.876009,-1.009333,2.589473,-0.051726,0.169485,-2.156698,2.174140,-3.181845,-3.067376,-2.112316,1.212381,66.590580,25.238938,26.741567,0.163612,0.164504,0.000000,-0.147672,0.241574,0.000000
2.710000,-0.000332,-0.876417,-1.007798,2.567752,-0.030091,0.137727,-2.184040,2.154283,-3.168385,-2.406002,-1.857867,1.472434,65.653328,25.414072,25.437386,0.162250,0.166721,0.000000,-0.124730,0.196235,0.000000
2.720000,0.025236,-0.876610,-1.006579,2.545792,-0.008641,0.106117,-2.204818,2.136983,-3.152396,-1.754309,-1.604034,1.721128,64.698623,25.019524,24.629987,0.161117,0.168481,0.000000,-0.101963,0.151495,-0.000000
2.730000,0.050584,-0.876590,-1.005675,2.523656,0.012649,0.074679,-2.219127,2.122202,-3.133962,-1.112030,-1.357476,1.965034,63.701823,24.180476,24.221257,0.160210,0.169790,0.000000,-0.079763,0.107349,-0.000000
2.740000,0.075709,-0.876357,-1.005085,2.501409,0.033803,0.043438,-2.227059,2.109833,-3.113096,-0.480273,-1.120425,2.205553,62.520099,23.333957,23.673997,0.159522,0.170655,0.000000,-0.058266,0.063834,-0.000000
2.750000,0.100612,-0.875914,-1.004806,2.479115,0.054846,0.012417,-2.228732,2.099794,-3.089851,0.138372,-0.890797,2.438514,61.118661,22.557556,22.850071,0.159045,0.171083,0.000000,-0.037355,0.021029,0.000000
2.760000,0.125291,-0.875261,-1.004837,2.456835,0.075799,-0.018359,-2.224291,2.092018,-3.064325,0.742101,-0.669274,2.662555,59.604224,21.569938,22.120594,0.158775,0.171081,0.000000,-0.017084,-0.021009,-0.000000
2.770000,0.149748,-0.874398,-1.005174,2.434629,0.096686,-0.048869,-2.213890,2.086408,-3.036600,1.330457,-0.459398,2.880926,58.079911,20.220033,21.823759,0.158704,0.170657,0.000000,0.002331,-0.062254,0.000000
2.780000,0.173984,-0.873327,-1.005814,2.412557,0.117527,-0.079091,-2.197682,2.082830,-3.006707,1.903699,-0.264873,3.099030,56.519927,18.607558,21.850619,0.158822,0.169819,0.000000,0.020686,-0.102704,0.000000
2.790000,0.198000,-0.872047,-1.006755,2.390675,0.138343,-0.109003,-2.175816,2.081111,-2.974620,2.460855,-0.087247,3.317938,54.801231,16.940231,21.763224,0.159118,0.168575,0.000000,0.037881,-0.142321,-0.000000
2.800000,0.221798,-0.870560,-1.007994,2.369041,0.159149,-0.138583,-2.148465,2.081085,-2.940348,2.999723,0.073932,3.534294,52.906205,15.280337,21.463134,0.159580,0.166934,0.000000,0.053908,-0.181023,-0.000000
