time,x,y,z,vx,vy,vz,ax,ay,az,jx,jy,jz,sx,sy,sz,roll,pitch,yaw,p,q,r
0.000000,-3.004029,0.320328,-1.489375,-0.008292,0.001022,0.004957,0.618548,-0.083928,-0.020045,-20.629617,2.492967,0.096554,528.076804,-65.368543,-3.601428,-0.008521,-0.062841,0.000000,0.251884,2.089661,0.000000
0.010000,-3.004084,0.320334,-1.489326,-0.003053,0.000297,0.004761,0.437294,-0.062112,-0.019258,-15.753703,1.885457,0.061267,448.500831,-56.280429,-3.454887,-0.006313,-0.044460,0.000000,0.191135,1.599261,-0.000000
0.020000,-3.004095,0.320335,-1.489280,0.000604,-0.000239,0.004571,0.300959,-0.045931,-0.018815,-11.632410,1.364489,0.027480,377.081913,-48.052853,-3.301417,-0.004671,-0.030610,0.000000,0.138575,1.182294,0.000000
0.030000,-3.004076,0.320330,-1.489235,0.003092,-0.000637,0.004384,0.202396,-0.034562,-0.018703,-8.186295,0.921675,-0.004740,313.394115,-40.642814,-3.141516,-0.003516,-0.020589,0.000000,0.093694,0.832549,0.000000
0.040000,-3.004036,0.320322,-1.489192,0.004756,-0.000943,0.004196,0.135233,-0.027263,-0.018904,-5.340177,0.549051,-0.035331,257.011500,-34.007313,-2.975685,-0.002774,-0.013758,0.000000,0.055844,0.543258,0.000000
0.050000,-3.003983,0.320311,-1.489151,0.005882,-0.001194,0.004005,0.093829,-0.023372,-0.019404,-3.023134,0.239090,-0.064236,207.508135,-28.103351,-2.804423,-0.002378,-0.009545,0.000000,0.024331,0.307594,-0.000000
0.060000,-3.003919,0.320298,-1.489112,0.006702,-0.001420,0.003807,0.073230,-0.022296,-0.020183,-1.168503,-0.015311,-0.091403,164.458084,-22.887928,-2.628229,-0.002268,-0.007449,0.000000,-0.001538,0.118931,-0.000000
0.070000,-3.003849,0.320283,-1.489075,0.007402,-0.001648,0.003600,0.069126,-0.023515,-0.021226,0.286119,-0.220821,-0.116785,127.435413,-18.318045,-2.447604,-0.002392,-0.007031,0.000000,-0.022432,-0.029018,-0.000000
0.080000,-3.003771,0.320265,-1.489040,0.008127,-0.001897,0.003382,0.077813,-0.026571,-0.022513,1.398877,-0.383680,-0.140342,96.014187,-14.350703,-2.263045,-0.002702,-0.007914,0.000000,-0.038978,-0.142148,-0.000000
0.090000,-3.003686,0.320245,-1.489007,0.008990,-0.002184,0.003149,0.096144,-0.031066,-0.024026,2.223655,-0.509700,-0.162035,69.768470,-10.942902,-2.075054,-0.003159,-0.009776,0.000000,-0.051768,-0.225935,0.000000
0.100000,-3.003591,0.320222,-1.488977,0.010074,-0.002522,0.002901,0.121492,-0.036660,-0.025747,2.810078,-0.604260,-0.181833,48.272329,-8.051642,-1.884128,-0.003727,-0.012351,0.000000,-0.061348,-0.285427,-0.000000
0.110000,-3.003483,0.320194,-1.488949,0.011436,-0.002920,0.002634,0.151703,-0.043063,-0.027657,3.203513,-0.672311,-0.199709,31.099827,-5.633925,-1.690769,-0.004377,-0.015419,0.000000,-0.068220,-0.325244,0.000000
0.120000,-3.003361,0.320163,-1.488924,0.013118,-0.003385,0.002347,0.185056,-0.050033,-0.029735,3.445067,-0.718374,-0.215642,17.825031,-3.646750,-1.495475,-0.005084,-0.018805,0.000000,-0.072848,-0.349578,-0.000000
0.130000,-3.003220,0.320126,-1.488902,0.015143,-0.003921,0.002038,0.220221,-0.057371,-0.031963,3.571586,-0.746538,-0.229614,8.022004,-2.047119,-1.298746,-0.005828,-0.022372,0.000000,-0.075648,-0.362184,0.000000
0.140000,-3.003057,0.320084,-1.488884,0.017525,-0.004533,0.001707,0.256214,-0.064916,-0.034321,3.615660,-0.760464,-0.241614,1.264814,-0.792031,-1.101081,-0.006592,-0.026021,0.000000,-0.076995,-0.366389,0.000000
0.150000,-3.002868,0.320036,-1.488868,0.020268,-0.005220,0.001352,0.292355,-0.072543,-0.036789,3.605616,-0.763384,-0.251634,-2.872477,0.161511,-0.902980,-0.007364,-0.029682,0.000000,-0.077220,-0.365081,0.000000
0.160000,-3.002650,0.319980,-1.488857,0.023371,-0.005984,0.000971,0.328226,-0.080157,-0.039347,3.565523,-0.758096,-0.259674,-4.815802,0.856509,-0.704942,-0.008134,-0.033312,0.000000,-0.076609,-0.360715,-0.000000
0.170000,-3.002400,0.319916,-1.488849,0.026831,-0.006823,0.000564,0.363631,-0.087686,-0.041976,3.515193,-0.746972,-0.265735,-4.991096,1.335961,-0.507466,-0.008894,-0.036893,0.000000,-0.075405,-0.355307,0.000000
0.180000,-3.002113,0.319843,-1.488846,0.030642,-0.007737,0.000131,0.398548,-0.095083,-0.044655,3.470175,-0.731952,-0.269826,-3.824295,1.642867,-0.311053,-0.009640,-0.040421,0.000000,-0.073807,-0.350439,-0.000000
0.190000,-3.001786,0.319761,-1.488847,0.034801,-0.008724,-0.000329,0.433091,-0.102317,-0.047366,3.441761,-0.714546,-0.271961,-1.741333,1.820226,-0.116202,-0.010369,-0.043908,0.000000,-0.071967,-0.347255,0.000000
0.200000,-3.001415,0.319668,-1.488852,0.039304,-0.009783,-0.000816,0.467463,-0.109370,-0.050088,3.436983,-0.695836,-0.272157,0.831855,1.911038,0.076588,-0.011079,-0.047374,0.000000,-0.069995,-0.346467,-0.000000
0.210000,-3.000999,0.319565,-1.488863,0.044112,-0.010907,-0.001330,0.503365,-0.116367,-0.052804,3.591933,-0.688941,-0.270561,0.101971,2.273267,0.269922,-0.011783,-0.050992,0.000000,-0.069211,-0.361822,0.000000
0.220000,-3.000532,0.319450,-1.488879,0.049325,-0.012105,-0.001872,0.539278,-0.123137,-0.055493,3.589520,-0.664562,-0.266909,-0.577227,2.596380,0.459815,-0.012462,-0.054609,0.000000,-0.066668,-0.361259,0.000000
0.230000,-3.000011,0.319322,-1.488900,0.054897,-0.013369,-0.002440,0.575134,-0.129648,-0.058136,3.580512,-0.637129,-0.261379,-1.219343,2.884810,0.645388,-0.013115,-0.058216,0.000000,-0.063821,-0.360038,-0.000000
0.240000,-2.999433,0.319182,-1.488928,0.060827,-0.014697,-0.003034,0.610867,-0.135871,-0.060714,3.565211,-0.606967,-0.254019,-1.837982,3.142989,0.825762,-0.013738,-0.061808,0.000000,-0.060705,-0.358192,-0.000000
0.250000,-2.998793,0.319028,-1.488961,0.067114,-0.016085,-0.003654,0.646418,-0.141779,-0.063210,3.543785,-0.574355,-0.244884,-2.446749,3.375348,1.000057,-0.014328,-0.065379,0.000000,-0.057348,-0.355744,-0.000000
0.260000,-2.998089,0.318860,-1.489001,0.073753,-0.017531,-0.004298,0.681793,-0.147363,-0.065606,3.522685,-0.540736,-0.234067,-3.221432,3.616745,1.168059,-0.014885,-0.068929,0.000000,-0.053897,-0.353346,0.000000
0.270000,-2.997317,0.318678,-1.489047,0.080746,-0.019031,-0.004966,0.716845,-0.152586,-0.067886,3.486605,-0.503448,-0.221579,-3.993592,3.837462,1.328141,-0.015406,-0.072444,0.000000,-0.050085,-0.349461,0.000000
0.280000,-2.996473,0.318479,-1.489100,0.088089,-0.020581,-0.005656,0.751499,-0.157425,-0.070033,3.442842,-0.464053,-0.207534,-4.756976,4.038205,1.479344,-0.015886,-0.075916,0.000000,-0.046071,-0.344828,0.000000
0.290000,-2.995554,0.318266,-1.489160,0.095775,-0.022178,-0.006366,0.785677,-0.161861,-0.072032,3.391516,-0.422748,-0.192025,-5.505330,4.219681,1.620705,-0.016326,-0.079339,0.000000,-0.041876,-0.339464,-0.000000
0.300000,-2.994557,0.318036,-1.489228,0.103800,-0.023817,-0.007096,0.819305,-0.165875,-0.073869,3.332807,-0.379721,-0.175156,-6.232398,4.382597,1.751265,-0.016723,-0.082704,0.000000,-0.037518,-0.333390,-0.000000
0.310000,-2.993477,0.317789,-1.489302,0.112159,-0.025494,-0.007843,0.852292,-0.169451,-0.075530,3.265363,-0.335192,-0.156972,-6.891601,4.528600,1.868377,-0.017076,-0.086003,0.000000,-0.033020,-0.326474,-0.000000
0.320000,-2.992312,0.317526,-1.489385,0.120844,-0.027205,-0.008606,0.884590,-0.172574,-0.077004,3.193270,-0.289249,-0.137754,-7.521947,4.657342,1.972971,-0.017383,-0.089232,0.000000,-0.028392,-0.319127,-0.000000
0.330000,-2.991059,0.317245,-1.489475,0.129849,-0.028944,-0.009382,0.916137,-0.175232,-0.078282,3.115024,-0.242101,-0.117557,-8.122121,4.769413,2.064294,-0.017644,-0.092385,0.000000,-0.023653,-0.311200,0.000000
0.340000,-2.989714,0.316947,-1.489572,0.139164,-0.030708,-0.010171,0.946871,-0.177412,-0.079353,3.030933,-0.193914,-0.096515,-8.690806,4.865405,2.141592,-0.017856,-0.095456,0.000000,-0.018821,-0.302726,-0.000000
0.350000,-2.988275,0.316631,-1.489678,0.148783,-0.032491,-0.010969,0.976737,-0.179107,-0.080210,2.941318,-0.144845,-0.074774,-9.226685,4.945910,2.204109,-0.018020,-0.098439,0.000000,-0.013911,-0.293737,-0.000000
0.360000,-2.986738,0.316297,-1.489792,0.158696,-0.034288,-0.011774,1.005674,-0.180307,-0.080845,2.845913,-0.095020,-0.052350,-9.713292,5.010872,2.247686,-0.018134,-0.101329,0.000000,-0.008934,-0.284208,-0.000000
0.370000,-2.985100,0.315945,-1.489914,0.168894,-0.036095,-0.012585,1.033640,-0.181005,-0.081255,2.746487,-0.044646,-0.029721,-10.166316,5.061608,2.275392,-0.018198,-0.104122,0.000000,-0.003911,-0.274313,0.000000
0.380000,-2.983359,0.315575,-1.490043,0.179366,-0.037907,-0.013398,1.060589,-0.181198,-0.081439,2.642697,0.006167,-0.006896,-10.586294,5.098790,2.286887,-0.018212,-0.106815,0.000000,0.001148,-0.264016,0.000000
0.390000,-2.981512,0.315187,-1.490181,0.190102,-0.039718,-0.014213,1.086480,-0.180881,-0.081393,2.534870,0.057287,0.015961,-10.973766,5.123089,2.281837,-0.018175,-0.109402,0.000000,0.006232,-0.253348,-0.000000
0.400000,-2.979556,0.314781,-1.490328,0.201092,-0.041523,-0.015026,1.111274,-0.180052,-0.081120,2.423328,0.108588,0.038684,-11.329271,5.135175,2.259901,-0.018088,-0.111882,0.000000,0.011328,-0.242341,0.000000
0.410000,-2.977489,0.314356,-1.490482,0.212324,-0.043317,-0.015834,1.134935,-0.178709,-0.080619,2.308319,0.159934,0.061271,-11.651567,5.136183,2.216467,-0.017949,-0.114249,0.000000,0.016424,-0.231016,-0.000000
0.420000,-2.975309,0.313914,-1.490644,0.223786,-0.045095,-0.016637,1.157430,-0.176853,-0.079896,2.190320,0.211255,0.083148,-11.943191,5.126263,2.155998,-0.017759,-0.116502,0.000000,0.021516,-0.219414,-0.000000
0.430000,-2.973013,0.313455,-1.490815,0.235468,-0.046852,-0.017432,1.178732,-0.174485,-0.078958,2.069555,0.262425,0.104335,-12.204899,5.106029,2.078679,-0.017519,-0.118637,0.000000,0.026591,-0.207556,0.000000
0.440000,-2.970599,0.312977,-1.490993,0.247357,-0.048583,-0.018216,1.198813,-0.171606,-0.077812,1.946319,0.313343,0.124666,-12.437448,5.076096,1.984697,-0.017227,-0.120653,0.000000,0.031641,-0.195466,-0.000000
0.450000,-2.968065,0.312483,-1.491179,0.259440,-0.050283,-0.018987,1.217651,-0.168219,-0.076468,1.820900,0.363916,0.143974,-12.641595,5.037078,1.874238,-0.016886,-0.122546,0.000000,0.036658,-0.183170,-0.000000
0.460000,-2.965409,0.311972,-1.491373,0.271706,-0.051946,-0.019745,1.235225,-0.164329,-0.074935,1.693619,0.414020,0.162268,-12.819090,4.990516,1.743158,-0.016494,-0.124316,0.000000,0.041630,-0.170696,-0.000000
0.470000,-2.962630,0.311444,-1.491574,0.284141,-0.053568,-0.020485,1.251518,-0.159940,-0.073228,1.564653,0.463659,0.178979,-12.969575,4.935983,1.596503,-0.016053,-0.125960,0.000000,0.046561,-0.158052,0.000000
0.480000,-2.959726,0.310901,-1.491782,0.296732,-0.055143,-0.021209,1.266514,-0.155058,-0.071361,1.434315,0.512714,0.194148,-13.093683,4.873980,1.434992,-0.015563,-0.127477,0.000000,0.051438,-0.145268,0.000000
0.490000,-2.956695,0.310342,-1.491998,0.309466,-0.056667,-0.021912,1.280201,-0.149688,-0.069350,1.302865,0.561115,0.207631,-13.192051,4.805006,1.259340,-0.015025,-0.128865,0.000000,0.056255,-0.132363,-0.000000
0.500000,-2.953536,0.309768,-1.492220,0.322331,-0.058135,-0.022595,1.292568,-0.143838,-0.067214,1.170558,0.608793,0.219290,-13.265312,4.729564,1.070265,-0.014438,-0.130124,0.000000,0.061007,-0.119360,-0.000000
0.510000,-2.950248,0.309179,-1.492450,0.335313,-0.059542,-0.023256,1.303610,-0.137515,-0.064969,1.037665,0.655663,0.229141,-13.314732,4.648741,0.864785,-0.013805,-0.131253,0.000000,0.065686,-0.106281,0.000000
0.520000,-2.946830,0.308577,-1.492686,0.348399,-0.060884,-0.023894,1.313320,-0.130727,-0.062638,0.904371,0.701723,0.236713,-13.340238,4.562377,0.647767,-0.013125,-0.132250,0.000000,0.070293,-0.093137,-0.000000
0.530000,-2.943280,0.307962,-1.492928,0.361575,-0.062155,-0.024509,1.321697,-0.123484,-0.060242,0.770938,0.746894,0.242061,-13.342389,4.470901,0.420382,-0.012399,-0.133115,0.000000,0.074819,-0.079951,-0.000000
0.540000,-2.939598,0.307334,-1.493176,0.374829,-0.063352,-0.025099,1.328739,-0.115793,-0.057805,0.637599,0.791125,0.245090,-13.321742,4.374741,0.183797,-0.011629,-0.133849,0.000000,0.079260,-0.066744,-0.000000
0.550000,-2.935783,0.306695,-1.493429,0.388146,-0.064470,-0.025665,1.334450,-0.107664,-0.055349,0.504578,0.834374,0.245711,-13.278854,4.274325,-0.060816,-0.010814,-0.134450,0.000000,0.083612,-0.053533,0.000000
0.560000,-2.931835,0.306045,-1.493689,0.401513,-0.065504,-0.026206,1.338833,-0.099109,-0.052898,0.372096,0.876580,0.243951,-13.214325,4.170575,-0.314837,-0.009957,-0.134920,0.000000,0.087868,-0.040339,-0.000000
0.570000,-2.927753,0.305385,-1.493954,0.414918,-0.066450,-0.026723,1.341894,-0.090136,-0.050478,0.240363,0.917752,0.239510,-13.128667,4.063366,-0.574237,-0.009057,-0.135257,0.000000,0.092030,-0.027178,-0.000000
0.580000,-2.923536,0.304716,-1.494223,0.428347,-0.067305,-0.027216,1.343643,-0.080757,-0.048116,0.109591,0.957837,0.232454,-13.022432,3.953065,-0.837533,-0.008117,-0.135463,0.000000,0.096090,-0.014069,-0.000000
0.590000,-2.919186,0.304039,-1.494498,0.441786,-0.068064,-0.027685,1.344090,-0.070983,-0.045838,-0.020018,0.996804,0.222751,-12.896174,3.840040,-1.103244,-0.007136,-0.135539,0.000000,0.100046,-0.001032,-0.000000
0.600000,-2.914701,0.303355,-1.494777,0.455224,-0.068724,-0.028133,1.343247,-0.060825,-0.043670,-0.148268,1.034630,0.210386,-12.750445,3.724660,-1.369887,-0.006116,-0.135484,0.000000,0.103893,0.011915,-0.000000
0.610000,-2.910081,0.302665,-1.495060,0.468647,-0.069280,-0.028559,1.341130,-0.050295,-0.041639,-0.274985,1.071283,0.195398,-12.585271,3.607491,-1.637074,-0.005059,-0.135301,0.000000,0.107628,0.024754,-0.000000
0.620000,-2.905328,0.301970,-1.495348,0.482043,-0.069728,-0.028966,1.337753,-0.039403,-0.039771,-0.399936,1.106765,0.177700,-12.401796,3.488677,-1.902097,-0.003964,-0.134990,0.000000,0.111249,0.037462,0.000000
0.630000,-2.900441,0.301271,-1.495640,0.495398,-0.070066,-0.029355,1.333137,-0.028163,-0.038093,-0.522962,1.141052,0.157369,-12.200639,3.368563,-2.163342,-0.002834,-0.134552,0.000000,0.114753,0.050023,0.000000
0.640000,-2.895420,0.300569,-1.495935,0.508701,-0.070290,-0.029729,1.327301,-0.016586,-0.036632,-0.643891,1.174133,0.134451,-11.982417,3.247492,-2.419192,-0.001669,-0.133990,0.000000,0.118136,0.062417,-0.000000
0.650000,-2.890267,0.299866,-1.496234,0.521940,-0.070397,-0.030089,1.320267,-0.004685,-0.035413,-0.762556,1.206000,0.109009,-11.747746,3.125806,-2.668032,-0.000472,-0.133304,0.000000,0.121397,0.074626,-0.000000
0.660000,-2.884981,0.299162,-1.496537,0.535103,-0.070383,-0.030438,1.312058,0.007529,-0.034460,-0.878825,1.236649,0.081101,-11.496451,3.003826,-2.907777,0.000758,-0.132498,0.000000,0.124533,0.086634,0.000000
0.670000,-2.879565,0.298458,-1.496843,0.548177,-0.070246,-0.030779,1.302699,0.020044,-0.033799,-0.992470,1.266078,0.050866,-11.230040,2.881921,-3.137340,0.002019,-0.131573,0.000000,0.127541,0.098414,-0.000000
0.680000,-2.874018,0.297757,-1.497152,0.561153,-0.069981,-0.031115,1.292218,0.032847,-0.033451,-1.103378,1.294289,0.018393,-10.949229,2.760439,-3.355162,0.003309,-0.130530,0.000000,0.130421,0.109952,-0.000000
0.690000,-2.868342,0.297059,-1.497465,0.574018,-0.069588,-0.031449,1.280641,0.045926,-0.033438,-1.211409,1.321289,-0.016193,-10.654732,2.639727,-3.559687,0.004627,-0.129374,0.000000,0.133171,0.121228,0.000000
0.700000,-2.862538,0.296366,-1.497781,0.586762,-0.069062,-0.031785,1.267999,0.059269,-0.033781,-1.316429,1.347087,-0.052751,-10.347264,2.520129,-3.749357,0.005972,-0.128107,0.000000,0.135790,0.132226,-0.000000
0.710000,-2.856607,0.295678,-1.498101,0.599375,-0.068401,-0.032126,1.254323,0.072864,-0.034500,-1.418340,1.371701,-0.091202,-10.026868,2.401884,-3.920672,0.007342,-0.126731,0.000000,0.138278,0.142930,-0.000000
0.720000,-2.850551,0.294998,-1.498424,0.611845,-0.067604,-0.032476,1.239644,0.086699,-0.035610,-1.516958,1.395136,-0.131192,-9.695014,2.285460,-4.074254,0.008737,-0.125249,0.000000,0.140633,0.153316,-0.000000
0.730000,-2.844371,0.294327,-1.498750,0.624164,-0.066667,-0.032840,1.223995,0.100763,-0.037128,-1.612205,1.417418,-0.172624,-9.352497,2.171219,-4.208784,0.010154,-0.123665,0.000000,0.142856,0.163370,-0.000000
0.740000,-2.838068,0.293665,-1.499081,0.636322,-0.065588,-0.033220,1.207411,0.115043,-0.039067,-1.703975,1.438569,-0.215300,-9.000116,2.059520,-4.322942,0.011593,-0.121983,0.000000,0.144949,0.173076,0.000000
0.750000,-2.831645,0.293015,-1.499415,0.648310,-0.064365,-0.033622,1.189927,0.129530,-0.041438,-1.792177,1.458618,-0.259010,-8.638668,1.950723,-4.415407,0.013053,-0.120205,0.000000,0.146912,0.182419,0.000000
0.760000,-2.825103,0.292379,-1.499753,0.660118,-0.062997,-0.034050,1.171580,0.144212,-0.044251,-1.876727,1.477596,-0.303656,-8.268806,1.845139,-4.481713,0.014531,-0.118335,0.000000,0.148748,0.191386,0.000000
0.770000,-2.818443,0.291756,-1.500096,0.671738,-0.061480,-0.034509,1.152405,0.159079,-0.047513,-1.957534,1.495535,-0.348705,-7.891490,1.743183,-4.524072,0.016027,-0.116378,0.000000,0.150458,0.199960,-0.000000
0.780000,-2.811669,0.291149,-1.500444,0.683163,-0.059814,-0.035002,1.132442,0.174120,-0.051226,-2.034535,1.512473,-0.394055,-7.507532,1.645222,-4.541550,0.017540,-0.114337,0.000000,0.152046,0.208128,-0.000000
0.790000,-2.804781,0.290560,-1.500796,0.694385,-0.057997,-0.035535,1.111727,0.189325,-0.055394,-2.107665,1.528454,-0.439450,-7.117747,1.551621,-4.533214,0.019068,-0.112216,0.000000,0.153515,0.215881,0.000000
0.800000,-2.797782,0.289990,-1.501154,0.705395,-0.056027,-0.036112,1.090301,0.204686,-0.060015,-2.176873,1.543521,-0.484630,-6.722950,1.462746,-4.498128,0.020610,-0.110020,0.000000,0.154870,0.223206,-0.000000
0.810000,-2.790674,0.289440,-1.501519,0.716189,-0.053903,-0.036737,1.068203,0.220192,-0.065087,-2.242081,1.557717,-0.529478,-6.324712,1.379169,-4.431384,0.022165,-0.107753,0.000000,0.156114,0.230094,0.000000
0.820000,-2.783459,0.288912,-1.501889,0.726757,-0.051623,-0.037415,1.045473,0.235837,-0.070602,-2.303322,1.571114,-0.573341,-5.922997,1.301026,-4.336508,0.023732,-0.105418,0.000000,0.157256,0.236540,0.000000
0.830000,-2.776139,0.288408,-1.502267,0.737096,-0.049186,-0.038150,1.022150,0.251612,-0.076550,-2.360531,1.583757,-0.616113,-5.518530,1.228658,-4.213053,0.025310,-0.103022,0.000000,0.158300,0.242534,0.000000
0.840000,-2.768718,0.287929,-1.502652,0.747199,-0.046590,-0.038947,0.998276,0.267510,-0.082919,-2.413686,1.595707,-0.657505,-5.112031,1.162405,-4.060572,0.026897,-0.100568,0.000000,0.159253,0.248071,-0.000000
0.850000,-2.761196,0.287477,-1.503046,0.757060,-0.043835,-0.039810,0.973890,0.283524,-0.089694,-2.462768,1.607027,-0.697226,-4.704222,1.102609,-3.878618,0.028494,-0.098060,0.000000,0.160124,0.253147,0.000000
0.860000,-2.753577,0.287053,-1.503449,0.766675,-0.040920,-0.040742,0.949035,0.299648,-0.096859,-2.507687,1.617741,-0.735152,-4.297873,1.050646,-3.662353,0.030100,-0.095504,0.000000,0.160915,0.257752,0.000000
0.870000,-2.745863,0.286659,-1.503861,0.776039,-0.037842,-0.041748,0.923750,0.315878,-0.104390,-2.548633,1.628017,-0.770570,-3.891407,1.005694,-3.416256,0.031712,-0.092904,0.000000,0.161646,0.261899,-0.000000
0.880000,-2.738057,0.286297,-1.504284,0.785149,-0.034602,-0.042831,0.898076,0.332207,-0.112262,-2.585516,1.637879,-0.803378,-3.485298,0.967969,-3.140418,0.033332,-0.090265,0.000000,0.162321,0.265581,-0.000000
0.890000,-2.730161,0.285968,-1.504718,0.793999,-0.031198,-0.043994,0.872053,0.348634,-0.120448,-2.618342,1.647401,-0.833279,-3.080016,0.937684,-2.834929,0.034959,-0.087591,0.000000,0.162950,0.268798,-0.000000
0.900000,-2.722178,0.285673,-1.505164,0.802589,-0.027629,-0.045241,0.845723,0.365154,-0.128917,-2.647121,1.656658,-0.859978,-2.676033,0.915053,-2.499878,0.036591,-0.084888,0.000000,0.163544,0.271552,0.000000
0.910000,-2.714110,0.285416,-1.505623,0.810913,-0.023894,-0.046574,0.819125,0.381765,-0.137638,-2.671769,1.665589,-0.883367,-2.276337,0.903822,-2.130602,0.038229,-0.082158,0.000000,0.164097,0.273837,-0.000000
0.920000,-2.705961,0.285196,-1.506096,0.818970,-0.019993,-0.047994,0.792301,0.398466,-0.146571,-2.692542,1.674603,-0.902706,-1.878575,0.900241,-1.732526,0.039873,-0.079408,0.000000,0.164658,0.275677,-0.000000
0.930000,-2.697732,0.285016,-1.506583,0.826758,-0.015925,-0.049506,0.765288,0.415257,-0.155678,-2.709347,1.683618,-0.917924,-1.482911,0.904092,-1.306323,0.041523,-0.076642,0.000000,0.165218,0.277067,-0.000000
0.940000,-2.689427,0.284878,-1.507086,0.834276,-0.011688,-0.051108,0.738127,0.432139,-0.164915,-2.722208,1.692708,-0.928741,-1.089507,0.915157,-0.852664,0.043178,-0.073864,0.000000,0.165791,0.278012,-0.000000
0.950000,-2.681047,0.284783,-1.507606,0.841521,-0.007281,-0.052804,0.710857,0.449112,-0.174237,-2.731146,1.701945,-0.934888,-0.698528,0.933219,-0.372223,0.044838,-0.071078,0.000000,0.166387,0.278519,0.000000
0.960000,-2.672597,0.284733,-1.508143,0.848492,-0.002705,-0.054593,0.683518,0.466176,-0.183598,-2.736100,1.711187,-0.936291,-0.312337,0.963327,0.139203,0.046505,-0.068289,0.000000,0.166995,0.278587,0.000000
0.970000,-2.664078,0.284730,-1.508698,0.855191,0.002042,-0.056476,0.656148,0.483337,-0.192946,-2.737303,1.720996,-0.932238,0.071373,0.999350,0.675472,0.048178,-0.065502,0.000000,0.167678,0.278241,0.000000
0.980000,-2.655494,0.284774,-1.509273,0.861615,0.006962,-0.058452,0.628785,0.500597,-0.202225,-2.734680,1.731191,-0.922703,0.452706,1.040424,1.235314,0.049859,-0.062719,0.000000,0.168420,0.277481,0.000000
0.990000,-2.646847,0.284869,-1.509867,0.867767,0.012055,-0.060520,0.601467,0.517962,-0.211381,-2.728256,1.741818,-0.907458,0.831769,1.085687,1.817461,0.051547,-0.059946,0.000000,0.169232,0.276314,0.000000
1.000000,-2.638140,0.285016,-1.510483,0.873645,0.017322,-0.062679,0.574232,0.535435,-0.220354,-2.718052,1.752916,-0.886284,1.208667,1.134274,2.420645,0.053244,-0.057187,0.000000,0.170123,0.274750,-0.000000
1.010000,-2.629375,0.285216,-1.511121,0.879252,0.022764,-0.064926,0.547119,0.553020,-0.229088,-2.704024,1.764349,-0.859147,1.581843,1.189425,3.047852,0.054950,-0.054445,0.000000,0.171082,0.272790,-0.000000
1.020000,-2.620556,0.285472,-1.511782,0.884588,0.028382,-0.067260,0.520164,0.570724,-0.237516,-2.686347,1.776524,-0.825457,1.953270,1.245672,3.693038,0.056666,-0.051724,0.000000,0.172157,0.270457,-0.000000
1.030000,-2.611684,0.285785,-1.512467,0.889656,0.034179,-0.069675,0.493404,0.588552,-0.245575,-2.664963,1.789262,-0.785233,2.323257,1.301650,4.354412,0.058393,-0.049028,0.000000,0.173335,0.267752,-0.000000
1.040000,-2.602763,0.286156,-1.513176,0.894457,0.040154,-0.072170,0.466877,0.606511,-0.253198,-2.639885,1.802552,-0.738321,2.692114,1.355992,5.030183,0.060133,-0.046361,0.000000,0.174621,0.264685,0.000000
1.050000,-2.593796,0.286588,-1.513910,0.898994,0.046309,-0.074738,0.440619,0.624605,-0.260319,-2.611123,1.816372,-0.684587,3.060151,1.407332,5.718563,0.061886,-0.043726,0.000000,0.176018,0.261261,0.000000
1.060000,-2.584784,0.287083,-1.514671,0.903270,0.052647,-0.077374,0.414668,0.642841,-0.266869,-2.578558,1.830729,-0.624050,3.424482,1.453171,6.421201,0.063654,-0.041127,0.000000,0.177531,0.257478,-0.000000
1.070000,-2.575731,0.287642,-1.515458,0.907288,0.059167,-0.080073,0.389060,0.661221,-0.272776,-2.542491,1.845467,-0.556288,3.789003,1.493416,7.132447,0.065437,-0.038567,0.000000,0.179153,0.253369,0.000000
1.080000,-2.566639,0.288267,-1.516273,0.911053,0.065871,-0.082827,0.363830,0.679751,-0.277970,-2.502774,1.860575,-0.481380,4.154416,1.526841,7.850088,0.067237,-0.036050,0.000000,0.180888,0.248928,-0.000000
1.090000,-2.557511,0.288960,-1.517115,0.914566,0.072762,-0.085630,0.339017,0.698434,-0.282380,-2.459397,1.875977,-0.399272,4.521420,1.552219,8.571915,0.069055,-0.033579,0.000000,0.182734,0.244158,0.000000
1.100000,-2.548349,0.289723,-1.517985,0.917834,0.079841,-0.088472,0.314655,0.717271,-0.285932,-2.412338,1.891588,-0.309935,4.890718,1.568323,9.295715,0.070892,-0.031156,0.000000,0.184690,0.239064,-0.000000
1.110000,-2.539155,0.290557,-1.518884,0.920861,0.087108,-0.091345,0.290783,0.736266,-0.288556,-2.361495,1.907369,-0.213473,5.261041,1.572393,10.022174,0.072749,-0.028787,0.000000,0.186756,0.233640,-0.000000
1.120000,-2.529933,0.291466,-1.519812,0.923652,0.094566,-0.094240,0.267437,0.755419,-0.290177,-2.307017,1.923066,-0.109630,5.635299,1.564923,10.745831,0.074628,-0.026472,0.000000,0.188917,0.227905,-0.000000
1.130000,-2.520683,0.292449,-1.520769,0.926212,0.102217,-0.097145,0.244655,0.774727,-0.290724,-2.248772,1.938626,0.001425,6.014436,1.544874,11.464117,0.076528,-0.024217,0.000000,0.191173,0.221850,0.000000
1.140000,-2.511409,0.293511,-1.521755,0.928547,0.110062,-0.100050,0.222475,0.794190,-0.290125,-2.186708,1.953918,0.119626,6.399393,1.511209,12.174468,0.078451,-0.022023,0.000000,0.193517,0.215473,0.000000
1.150000,-2.502113,0.294651,-1.522770,0.930663,0.118101,-0.102944,0.200934,0.813804,-0.288308,-2.120762,1.968801,0.244880,6.791113,1.462888,12.874318,0.080399,-0.019895,0.000000,0.195942,0.208770,-0.000000
1.160000,-2.492796,0.295873,-1.523814,0.932568,0.126338,-0.105812,0.180072,0.833565,-0.285205,-2.050915,1.983161,0.376983,7.191908,1.397935,13.563270,0.082370,-0.017835,0.000000,0.198443,0.201740,0.000000
1.170000,-2.483462,0.297179,-1.524886,0.934267,0.134773,-0.108643,0.159929,0.853465,-0.280746,-1.976957,1.996746,0.515995,7.601182,1.316363,14.236322,0.084368,-0.015848,0.000000,0.201002,0.194365,-0.000000
1.180000,-2.474112,0.298569,-1.525987,0.935769,0.143408,-0.111422,0.140547,0.873497,-0.274863,-1.898860,2.009429,0.661647,8.019708,1.217248,14.890644,0.086391,-0.013935,0.000000,0.203614,0.186639,-0.000000
1.190000,-2.464747,0.300048,-1.527115,0.937081,0.152243,-0.114135,0.121966,0.893650,-0.267491,-1.816529,2.021030,0.813736,8.448260,1.099667,15.523402,0.088440,-0.012102,0.000000,0.206265,0.178552,0.000000
1.200000,-2.455371,0.301615,-1.528269,0.938211,0.161281,-0.116767,0.104231,0.913913,-0.258568,-1.729859,2.031358,0.972034,8.887612,0.962695,16.131766,0.090516,-0.010352,0.000000,0.208943,0.170091,-0.000000
1.210000,-2.445984,0.303274,-1.529450,0.939168,0.170522,-0.119301,0.087383,0.934274,-0.248031,-1.638851,2.040375,1.136244,9.341373,0.801379,16.713840,0.092619,-0.008688,0.000000,0.211650,0.161252,0.000000
1.220000,-2.436588,0.305026,-1.530655,0.939962,0.179967,-0.121722,0.071469,0.954715,-0.235824,-1.543118,2.047496,1.306168,9.807135,0.619317,17.265740,0.094749,-0.007114,0.000000,0.214334,0.151990,0.000000
1.230000,-2.427185,0.306874,-1.531884,0.940601,0.189617,-0.124012,0.056536,0.975218,-0.221890,-1.442667,2.052691,1.481448,10.285324,0.416079,17.784522,0.096906,-0.005636,0.000000,0.216997,0.142300,0.000000
1.240000,-2.417776,0.308819,-1.533135,0.941096,0.199471,-0.126154,0.042632,0.995762,-0.206178,-1.337369,2.055746,1.661738,10.776369,0.191234,18.267238,0.099089,-0.004256,0.000000,0.219620,0.132161,0.000000
1.250000,-2.408364,0.310864,-1.534406,0.941457,0.209532,-0.128130,0.029805,1.016325,-0.188640,-1.227095,2.056442,1.846663,11.280695,-0.055649,18.710943,0.101298,-0.002981,0.000000,0.222186,0.121548,0.000000
1.260000,-2.398948,0.313010,-1.535697,0.941696,0.219798,-0.129921,0.018104,1.036884,-0.169230,-1.111942,2.054745,2.035849,11.804615,-0.329715,19.111898,0.103533,-0.001814,0.000000,0.224694,0.110461,0.000000
1.270000,-2.389530,0.315261,-1.537004,0.941823,0.230269,-0.131508,0.007584,1.057410,-0.147910,-0.991221,2.049984,2.228787,12.341951,-0.626103,19.468045,0.105791,-0.000762,0.000000,0.227079,0.098815,0.000000
1.280000,-2.380112,0.317616,-1.538326,0.941852,0.240946,-0.132872,-0.001702,1.077873,-0.124644,-0.865060,2.042149,2.425051,12.892408,-0.944668,19.776536,0.108074,0.000171,0.000000,0.229341,0.086609,-0.000000
1.290000,-2.370693,0.320080,-1.539660,0.941794,0.251826,-0.133994,-0.009699,1.098242,-0.099400,-0.733330,2.031017,2.624149,13.455692,-1.285262,20.034520,0.110378,0.000979,0.000000,0.231456,0.073811,0.000000
1.300000,-2.361276,0.322654,-1.541005,0.941662,0.262910,-0.134854,-0.016350,1.118482,-0.072153,-0.595904,2.016371,2.825563,14.031511,-1.647740,20.239149,0.112702,0.001654,0.000000,0.233402,0.060388,0.000000
1.310000,-2.351860,0.325339,-1.542357,0.941471,0.274196,-0.135430,-0.021600,1.138559,-0.042881,-0.452937,1.998163,3.028869,14.626606,-2.036331,20.384429,0.115045,0.002192,0.000000,0.235170,0.046335,-0.000000
1.320000,-2.342447,0.328138,-1.543713,0.941235,0.285681,-0.135704,-0.025388,1.158432,-0.011572,-0.303649,1.975769,3.233197,15.232787,-2.445977,20.471040,0.117405,0.002585,0.000000,0.236691,0.031549,-0.000000
1.330000,-2.333036,0.331053,-1.545070,0.940969,0.297363,-0.135655,-0.027653,1.178060,0.021785,-0.148248,1.949176,3.438086,15.848898,-2.875996,20.496517,0.119778,0.002825,0.000000,0.237956,0.016022,0.000000
1.340000,-2.323627,0.334086,-1.546424,0.940687,0.309241,-0.135262,-0.028333,1.197401,0.057190,0.013358,1.918184,3.642915,16.473782,-3.325705,20.458396,0.122163,0.002905,0.000000,0.238937,-0.000282,0.000000
1.350000,-2.314222,0.337239,-1.547774,0.940408,0.321310,-0.134504,-0.027365,1.216409,0.094641,0.181253,1.882598,3.847034,17.106286,-3.794423,20.354212,0.124556,0.002817,0.000000,0.239603,-0.017405,-0.000000
1.360000,-2.304819,0.340513,-1.549113,0.940146,0.333568,-0.133362,-0.024690,1.235039,0.134129,0.355198,1.842403,4.050010,17.753014,-4.285731,20.175450,0.126954,0.002552,0.000000,0.239940,-0.035355,0.000000
1.370000,-2.295419,0.343911,-1.550440,0.939920,0.346010,-0.131815,-0.020239,1.253240,0.175634,0.535981,1.797017,4.250579,18.404100,-4.794161,19.926436,0.129354,0.002101,0.000000,0.239867,-0.054248,0.000000
1.380000,-2.286021,0.347434,-1.551748,0.939747,0.358631,-0.129843,-0.013948,1.270962,0.219131,0.723288,1.746467,4.448299,19.057438,-5.318508,19.605449,0.131750,0.001454,0.000000,0.239370,-0.074092,-0.000000
1.390000,-2.276624,0.351084,-1.553035,0.939647,0.371427,-0.127426,-0.005752,1.288152,0.264588,0.917130,1.690598,4.642442,19.710922,-5.857567,19.210764,0.134139,0.000603,0.000000,0.238410,-0.094927,-0.000000
1.400000,-2.267227,0.354863,-1.554295,0.939639,0.384392,-0.124545,0.004416,1.304756,0.311965,1.117500,1.629270,4.832263,20.362447,-6.410135,18.740658,0.136517,-0.000465,0.000000,0.236948,-0.116796,0.000000
1.410000,-2.257830,0.358772,-1.555524,0.939742,0.397520,-0.121181,0.016616,1.320721,0.361220,1.324040,1.562554,5.017361,21.018118,-6.980040,18.184255,0.138877,-0.001759,0.000000,0.234968,-0.139703,0.000000
1.420000,-2.248432,0.362814,-1.556717,0.939978,0.410804,-0.117315,0.030919,1.335987,0.412293,1.537471,1.489859,5.196098,21.666613,-7.560427,17.550105,0.141214,-0.003290,0.000000,0.232362,-0.163771,0.000000
1.430000,-2.239030,0.366989,-1.557869,0.940368,0.424237,-0.112929,0.047387,1.350498,0.465119,1.757338,1.411316,5.368102,22.304820,-8.149477,16.837605,0.143522,-0.005071,0.000000,0.229115,-0.188998,0.000000
1.440000,-2.229624,0.371299,-1.558974,0.940933,0.437811,-0.108007,0.066086,1.364194,0.519629,1.983523,1.326847,5.532587,22.929629,-8.745369,16.046152,0.145794,-0.007113,0.000000,0.225177,-0.215418,-0.000000
1.450000,-2.220211,0.375746,-1.560027,0.941697,0.451518,-0.102531,0.087078,1.377015,0.575743,2.215876,1.236392,5.688760,23.537927,-9.346283,15.175144,0.148023,-0.009430,0.000000,0.220499,-0.243063,-0.000000
1.460000,-2.210789,0.380330,-1.561023,0.942683,0.465348,-0.096487,0.110422,1.388902,0.633379,2.454027,1.139956,5.836284,24.131373,-9.951559,14.212315,0.150201,-0.012032,0.000000,0.215041,-0.271938,-0.000000
1.470000,-2.201357,0.385053,-1.561955,0.943914,0.479293,-0.089859,0.136178,1.399794,0.692436,2.698213,1.037409,5.973262,24.701502,-10.558073,13.170153,0.152321,-0.014935,0.000000,0.208720,-0.302114,0.000000
1.480000,-2.191910,0.389916,-1.562818,0.945415,0.493341,-0.082634,0.164405,1.409630,0.752809,2.947967,0.928797,6.099425,25.244620,-11.163861,12.049484,0.154373,-0.018150,0.000000,0.201492,-0.333582,-0.000000
1.490000,-2.182447,0.394920,-1.563605,0.947210,0.507482,-0.074799,0.195155,1.418350,0.814386,3.203003,0.814140,6.213993,25.757031,-11.766963,10.851134,0.156348,-0.021691,0.000000,0.193302,-0.366351,-0.000000
1.500000,-2.172965,0.400066,-1.564312,0.949326,0.521704,-0.066342,0.228481,1.425893,0.877047,3.462993,0.693474,6.316192,26.235039,-12.365413,9.575929,0.158235,-0.025572,0.000000,0.184090,-0.400419,-0.000000
1.510000,-2.163460,0.405354,-1.564930,0.951789,0.535996,-0.057255,0.264429,1.432196,0.940671,3.727475,0.566536,6.405782,26.677516,-12.949211,8.211451,0.160026,-0.029805,0.000000,0.173770,-0.435766,-0.000000
1.520000,-2.153928,0.410786,-1.565455,0.954624,0.550344,-0.047526,0.303045,1.437204,1.005116,3.996289,0.434156,6.480767,27.077887,-13.525418,6.773391,0.161707,-0.034404,0.000000,0.162343,-0.472393,-0.000000
1.530000,-2.144366,0.416361,-1.565879,0.957859,0.564735,-0.037150,0.344368,1.440860,1.070238,4.268879,0.296056,6.541013,27.432140,-14.093053,5.264195,0.163268,-0.039382,0.000000,0.149719,-0.510253,0.000000
1.540000,-2.134769,0.422081,-1.566195,0.961520,0.579156,-0.026120,0.388433,1.443107,1.135885,4.544764,0.152327,6.585822,27.736266,-14.651139,3.686309,0.164697,-0.044751,0.000000,0.135836,-0.549294,0.000000
1.550000,-2.125134,0.427945,-1.566399,0.965637,0.593592,-0.014431,0.435272,1.443888,1.201900,4.823424,0.003068,6.614518,27.986257,-15.198697,2.042182,0.165981,-0.050522,0.000000,0.120633,-0.589448,0.000000
1.560000,-2.115455,0.433953,-1.566482,0.970235,0.608029,-0.002081,0.484912,1.443162,1.268125,5.104518,-0.150515,6.626965,28.172489,-15.762374,0.321328,0.167107,-0.056708,0.000000,0.104184,-0.630660,0.000000
1.570000,-2.105727,0.440105,-1.566438,0.975344,0.622450,0.010931,0.537368,1.440859,1.334381,5.386919,-0.310893,6.621323,28.297252,-16.310183,-1.459290,0.168060,-0.063317,0.000000,0.086116,-0.672752,0.000000
1.580000,-2.095946,0.446402,-1.566261,0.980992,0.636840,0.024606,0.592653,1.436926,1.400491,5.670247,-0.476651,6.597593,28.357225,-16.837763,-3.295643,0.168824,-0.070358,0.000000,0.066529,-0.715630,0.000000
1.590000,-2.086106,0.452842,-1.565944,0.987207,0.651183,0.038940,0.650774,1.431309,1.466271,5.953837,-0.647566,6.555238,28.349084,-17.340752,-5.183699,0.169385,-0.077838,0.000000,0.045388,-0.759140,-0.000000
1.600000,-2.076200,0.459425,-1.565480,0.994017,0.665461,0.053930,0.711728,1.423958,1.531532,6.236991,-0.823370,6.493760,28.269507,-17.814790,-7.119428,0.169727,-0.085763,0.000000,0.022665,-0.803107,-0.000000
1.610000,-2.066223,0.466151,-1.564863,1.001451,0.679656,0.069568,0.775509,1.414814,1.596086,6.518946,-1.004914,6.413183,28.115976,-18.226151,-9.110895,0.169832,-0.094135,0.000000,-0.001779,-0.847331,0.000000
1.620000,-2.056169,0.473018,-1.564087,1.009536,0.693751,0.085848,0.842101,1.403847,1.659729,6.799014,-1.189090,6.311955,27.884265,-18.603434,-11.140494,0.169686,-0.102956,0.000000,-0.027636,-0.891576,0.000000
1.630000,-2.046030,0.480025,-1.563144,1.018302,0.707727,0.102759,0.911480,1.391020,1.722257,7.076359,-1.376866,6.190264,27.570955,-18.945873,-13.202712,0.169274,-0.112225,0.000000,-0.055033,-0.935586,-0.000000
1.640000,-2.035801,0.487172,-1.562029,1.027775,0.721565,0.120289,0.983616,1.376299,1.783465,7.350149,-1.567889,6.047811,27.172624,-19.252702,-15.292037,0.168580,-0.121938,0.000000,-0.083932,-0.979073,-0.000000
1.650000,-2.025472,0.494456,-1.560736,1.037983,0.735247,0.138423,1.058469,1.359653,1.843143,7.619517,-1.761799,5.884351,26.685852,-19.523156,-17.402958,0.167590,-0.132085,0.000000,-0.114280,-1.021723,-0.000000
1.660000,-2.015038,0.501876,-1.559259,1.048953,0.748752,0.157146,1.135995,1.341049,1.901085,7.884093,-1.958743,5.700070,26.093765,-19.743461,-19.539359,0.166289,-0.142659,0.000000,-0.146059,-1.063266,0.000000
1.670000,-2.004491,0.509430,-1.557591,1.060712,0.762061,0.176438,1.216129,1.320471,1.957073,8.141681,-2.157128,5.493952,25.408043,-19.927453,-21.685182,0.164665,-0.153643,0.000000,-0.179036,-1.103167,-0.000000
1.680000,-1.993821,0.517117,-1.555728,1.073284,0.775155,0.196280,1.298804,1.297901,2.010893,8.391936,-2.357174,5.266357,24.626912,-20.075957,-23.833766,0.162705,-0.165018,0.000000,-0.213153,-1.141120,-0.000000
1.690000,-1.983022,0.524933,-1.553664,1.086696,0.788013,0.216648,1.383940,1.273323,2.062329,8.633895,-2.558531,5.017290,23.748597,-20.189803,-25.978448,0.160398,-0.176762,0.000000,-0.248266,-1.176726,0.000000
1.700000,-1.972085,0.532876,-1.551394,1.100971,0.800615,0.237518,1.471451,1.246727,2.111167,8.866578,-2.760857,4.746823,22.771327,-20.269816,-28.112566,0.157737,-0.188849,0.000000,-0.284205,-1.209574,0.000000
1.710000,-1.961000,0.540944,-1.548912,1.116132,0.812940,0.258862,1.561246,1.218117,2.157196,9.089735,-2.962648,4.455294,21.674401,-20.346379,-30.234456,0.154714,-0.201248,0.000000,-0.320633,-1.239348,0.000000
1.720000,-1.949759,0.549134,-1.546215,1.132203,0.824970,0.280652,1.653207,1.187472,2.200203,9.300577,-3.166346,4.142439,20.477288,-20.387145,-32.331847,0.151323,-0.213923,0.000000,-0.357683,-1.265404,-0.000000
1.730000,-1.938353,0.557442,-1.543298,1.149203,0.836683,0.302855,1.747216,1.154789,2.239976,9.498949,-3.370262,3.808763,19.180533,-20.389323,-34.397464,0.147559,-0.226835,0.000000,-0.394949,-1.287455,-0.000000
1.740000,-1.926772,0.565866,-1.540157,1.167154,0.848059,0.325440,1.843141,1.120067,2.276310,9.683857,-3.573995,3.454620,17.784680,-20.350120,-36.424033,0.143424,-0.239940,0.000000,-0.432166,-1.305126,0.000000
1.750000,-1.915006,0.574402,-1.536788,1.186072,0.859077,0.348369,1.940845,1.083311,2.309001,9.854314,-3.777117,3.080437,16.290273,-20.266746,-38.404280,0.138917,-0.253192,0.000000,-0.469054,-1.318070,0.000000
1.760000,-1.903047,0.583047,-1.533188,1.205976,0.869718,0.371607,2.040181,1.044518,2.337853,10.009791,-3.980165,2.686735,14.686346,-20.111358,-40.331495,0.134043,-0.266541,0.000000,-0.505444,-1.326036,-0.000000
1.770000,-1.890883,0.591796,-1.529355,1.226881,0.879961,0.395113,2.140985,1.003714,2.362673,10.148234,-4.180307,2.274035,12.986362,-19.909281,-42.197772,0.128812,-0.279935,0.000000,-0.540731,-1.328627,0.000000
1.780000,-1.878506,0.600645,-1.525285,1.248800,0.889786,0.418846,2.243088,0.960919,2.383273,10.269205,-4.378196,1.843007,11.192273,-19.660792,-43.995766,0.123233,-0.293317,0.000000,-0.574759,-1.325701,-0.000000
1.790000,-1.865904,0.609590,-1.520977,1.271746,0.899173,0.442764,2.346308,0.916159,2.399474,10.371772,-4.573369,1.394372,9.306033,-19.366167,-45.718134,0.117322,-0.306632,0.000000,-0.607237,-1.317108,0.000000
1.800000,-1.853068,0.618627,-1.516429,1.295729,0.908103,0.466821,2.450459,0.869462,2.411104,10.455025,-4.765366,0.928921,7.329594,-19.025680,-47.357534,0.111094,-0.319823,0.000000,-0.637892,-1.302767,-0.000000
1.810000,-1.839986,0.627750,-1.511641,1.320757,0.916556,0.490970,2.555350,0.820863,2.417997,10.518905,-4.953780,0.447326,5.243828,-18.638364,-48.901659,0.104570,-0.332831,0.000000,-0.666480,-1.282752,-0.000000
1.820000,-1.826649,0.636956,-1.506610,1.346838,0.924514,0.515164,2.660766,0.770401,2.420001,10.560564,-5.138039,-0.049010,3.074351,-18.205890,-50.348735,0.097772,-0.345599,0.000000,-0.692746,-1.256895,0.000000
1.830000,-1.813046,0.646239,-1.501337,1.373974,0.931958,0.539353,2.766488,0.718118,2.416971,10.580128,-5.317749,-0.559303,0.825698,-17.728686,-51.692029,0.090724,-0.358071,0.000000,-0.716512,-1.225424,0.000000
1.840000,-1.799166,0.655593,-1.495823,1.402168,0.938870,0.563486,2.872292,0.664062,2.408772,10.576829,-5.492465,-1.082482,-1.497599,-17.207181,-52.924805,0.083451,-0.370191,0.000000,-0.737619,-1.188526,-0.000000
1.850000,-1.784999,0.665014,-1.490068,1.431419,0.945233,0.587511,2.977946,0.608286,2.395282,10.549942,-5.661746,-1.617408,-3.891004,-16.641802,-54.040328,0.075981,-0.381908,0.000000,-0.755949,-1.146450,0.000000
1.860000,-1.770534,0.674496,-1.484073,1.461725,0.951031,0.611374,3.083207,0.550821,2.376384,10.498547,-5.827580,-2.163311,-6.343849,-15.971755,-55.020870,0.068338,-0.393170,0.000000,-0.771722,-1.099449,-0.000000
1.870000,-1.755761,0.684033,-1.477841,1.493081,0.956245,0.635021,3.187834,0.491758,2.351985,10.422585,-5.983796,-2.717885,-8.858486,-15.266186,-55.872034,0.060556,-0.403933,0.000000,-0.784183,-1.047987,-0.000000
1.880000,-1.740669,0.693619,-1.471374,1.525479,0.960861,0.658395,3.291574,0.431169,2.322000,10.321184,-6.132812,-3.280302,-11.431130,-14.533022,-56.588430,0.052664,-0.414155,0.000000,-0.793690,-0.992390,0.000000
1.890000,-1.725248,0.703248,-1.464674,1.558909,0.964864,0.681442,3.394171,0.369126,2.286358,10.193782,-6.274391,-3.849187,-14.057998,-13.780186,-57.164668,0.044692,-0.423797,0.000000,-0.800304,-0.933071,-0.000000
1.900000,-1.709487,0.712914,-1.457746,1.593358,0.968239,0.704103,3.495362,0.305706,2.245000,10.039856,-6.408376,-4.423110,-16.735306,-13.015604,-57.595360,0.036668,-0.432824,0.000000,-0.804122,-0.870458,0.000000
1.910000,-1.693377,0.722611,-1.450594,1.628810,0.970972,0.726323,3.594914,0.241062,2.197877,9.862229,-6.527582,-5.001186,-19.542827,-12.426737,-57.860067,0.028628,-0.441212,0.000000,-0.804452,-0.805306,-0.000000
1.920000,-1.676908,0.732332,-1.443221,1.665248,0.973054,0.748042,3.692512,0.175174,2.144970,9.652621,-6.648836,-5.580468,-22.382990,-11.819989,-57.970291,0.020586,-0.448929,0.000000,-0.803437,-0.737289,-0.000000
1.930000,-1.660069,0.742070,-1.435635,1.702652,0.974471,0.769203,3.787871,0.108105,2.086267,9.414507,-6.763875,-6.160066,-25.241782,-11.181301,-57.922485,0.012566,-0.455954,0.000000,-0.800272,-0.667230,0.000000
1.940000,-1.642852,0.751819,-1.427839,1.740997,0.975212,0.789748,3.880707,0.039919,2.021773,9.147770,-6.872309,-6.738380,-28.105188,-10.496613,-57.713101,0.004588,-0.462270,0.000000,-0.795097,-0.595575,0.000000
1.950000,-1.625246,0.761572,-1.419842,1.780257,0.975266,0.809619,3.970731,-0.029317,1.951509,8.852434,-6.973607,-7.313777,-30.959192,-9.751866,-57.338593,-0.003330,-0.467862,0.000000,-0.788046,-0.522757,-0.000000
1.960000,-1.607244,0.771322,-1.411649,1.820403,0.974626,0.828759,4.057618,-0.099639,1.875502,8.524724,-7.077406,-7.885523,-33.690274,-8.672674,-56.771838,-0.011180,-0.472718,0.000000,-0.780384,-0.448760,0.000000
1.970000,-1.588835,0.781062,-1.403269,1.861400,0.973274,0.847111,4.141135,-0.170828,1.793820,8.174271,-7.158495,-8.449702,-36.396111,-7.537180,-56.035751,-0.018931,-0.476837,0.000000,-0.769490,-0.375019,0.000000
1.980000,-1.570013,0.790785,-1.394710,1.903214,0.971207,0.864617,4.221013,-0.242770,1.706536,7.796892,-7.228021,-9.005671,-39.074873,-6.363203,-55.129673,-0.026564,-0.480220,0.000000,-0.756844,-0.301377,-0.000000
1.990000,-1.550768,0.800484,-1.385980,1.945807,0.968416,0.881223,4.296984,-0.315349,1.613740,7.392870,-7.285690,-9.551727,-41.724729,-5.168559,-54.052943,-0.034063,-0.482868,0.000000,-0.742621,-0.228144,0.000000
2.000000,-1.531094,0.810151,-1.377089,1.989139,0.964898,0.896874,4.368783,-0.388444,1.515540,6.962500,-7.331383,-10.086159,-44.343851,-3.971066,-52.804900,-0.041412,-0.484787,0.000000,-0.727009,-0.155593,-0.000000
2.010000,-1.510983,0.819779,-1.368046,2.033167,0.960645,0.911516,4.436173,-0.461881,1.412051,6.508449,-7.360045,-10.608160,-46.989711,-2.917769,-51.361925,-0.048593,-0.485987,0.000000,-0.709662,-0.084131,0.000000
2.020000,-1.490429,0.829361,-1.358862,2.077846,0.955658,0.925098,4.498864,-0.535610,1.303428,6.025492,-7.384026,-11.113856,-49.593915,-1.881434,-49.749128,-0.055602,-0.486475,0.000000,-0.692071,-0.013549,-0.000000
2.030000,-1.469424,0.838890,-1.349548,2.123128,0.949932,0.937568,4.556597,-0.609528,1.189830,5.516740,-7.397737,-11.602584,-52.147371,-0.864055,-47.968662,-0.062432,-0.486263,0.000000,-0.673785,0.055777,-0.000000
2.040000,-1.447964,0.848357,-1.340115,2.168961,0.943467,0.948879,4.609115,-0.683532,1.071438,4.982744,-7.401377,-12.072678,-54.640988,0.132375,-46.022679,-0.069076,-0.485362,0.000000,-0.654964,0.123696,0.000000
2.050000,-1.426043,0.857757,-1.330574,2.215292,0.936261,0.958982,4.656170,-0.757522,0.948445,4.424150,-7.395166,-12.522493,-57.065674,1.105862,-43.913329,-0.075530,-0.483788,0.000000,-0.635754,0.190082,0.000000
2.060000,-1.403657,0.867080,-1.320939,2.262064,0.928315,0.967833,4.697552,-0.831355,0.821050,3.844729,-7.374941,-12.951442,-59.489066,1.943233,-41.616633,-0.081785,-0.481557,0.000000,-0.615844,0.254618,0.000000
2.070000,-1.380801,0.876320,-1.311222,2.309222,0.919633,0.975389,4.732985,-0.904994,0.689495,3.238116,-7.351382,-13.355473,-61.815948,2.767287,-39.164073,-0.087847,-0.478684,0.000000,-0.596415,0.317737,0.000000
2.080000,-1.357472,0.885470,-1.301436,2.356703,0.910216,0.981610,4.762238,-0.978355,0.554025,2.608793,-7.319601,-13.734221,-64.027835,3.589645,-36.561001,-0.093714,-0.475184,0.000000,-0.577037,0.379113,0.000000
2.090000,-1.333666,0.894522,-1.291594,2.404445,0.900067,0.986458,4.785089,-1.051358,0.414900,1.958004,-7.279556,-14.086209,-66.106240,4.421928,-33.812767,-0.099388,-0.471074,0.000000,-0.557770,0.438684,-0.000000
2.100000,-1.309382,0.903469,-1.281711,2.452383,0.889191,0.989897,4.801331,-1.123918,0.272394,1.287175,-7.231090,-14.410011,-68.032676,5.275754,-30.924723,-0.104870,-0.466372,0.000000,-0.538651,0.496392,-0.000000
2.110000,-1.284618,0.912304,-1.271801,2.500451,0.877594,0.991895,4.810708,-1.196054,0.126785,0.592043,-7.183410,-14.705428,-69.640263,6.402180,-27.872590,-0.110171,-0.461092,0.000000,-0.520568,0.552714,0.000000
2.120000,-1.259373,0.921019,-1.261878,2.548576,0.865275,0.992424,4.813121,-1.267549,-0.021610,-0.111686,-7.113684,-14.968367,-71.077078,7.544073,-24.694978,-0.115281,-0.455257,0.000000,-0.501442,0.606352,0.000000
2.130000,-1.233646,0.929607,-1.251958,2.596690,0.852245,0.991455,4.808429,-1.338289,-0.172474,-0.828928,-7.032536,-15.198940,-72.342805,8.683733,-21.400865,-0.120200,-0.448890,0.000000,-0.482314,0.657899,-0.000000
2.140000,-1.207439,0.938061,-1.242054,2.644721,0.838512,0.988967,4.796504,-1.408162,-0.325477,-1.557971,-6.940076,-15.396026,-73.437129,9.803462,-17.999232,-0.124927,-0.442011,0.000000,-0.463226,0.707359,-0.000000
2.150000,-1.180752,0.946375,-1.232183,2.692595,0.824085,0.984939,4.777236,-1.477054,-0.480280,-2.297098,-6.836592,-15.558596,-74.359732,10.885563,-14.499058,-0.129465,-0.434639,0.000000,-0.444228,0.754748,0.000000
2.160000,-1.153588,0.954541,-1.222361,2.740240,0.808972,0.979357,4.750547,-1.544775,-0.636539,-3.043340,-6.714917,-15.686440,-75.141924,11.719573,-10.890838,-0.133805,-0.426796,0.000000,-0.424718,0.800023,-0.000000
2.170000,-1.125949,0.962552,-1.212602,2.787581,0.793191,0.972205,4.716346,-1.611325,-0.793887,-3.797937,-6.593760,-15.776977,-75.747891,12.504161,-7.204300,-0.137960,-0.418501,0.000000,-0.406334,0.843389,0.000000
2.180000,-1.097838,0.970402,-1.202922,2.834542,0.776750,0.963477,4.674571,-1.676625,-0.951955,-4.557696,-6.464979,-15.830303,-76.173445,13.245232,-3.450685,-0.141933,-0.409773,0.000000,-0.388348,0.884805,-0.000000
2.190000,-1.069259,0.978085,-1.193337,2.881047,0.759663,0.953165,4.625181,-1.740601,-1.110367,-5.320791,-6.328981,-15.845804,-76.414398,13.948692,0.358763,-0.145729,-0.400631,0.000000,-0.370785,0.924316,-0.000000
2.200000,-1.040219,0.985593,-1.183864,2.927020,0.741943,0.941269,4.568151,-1.803182,-1.268743,-6.085355,-6.186111,-15.822979,-76.466560,14.620445,4.212802,-0.149350,-0.391094,0.000000,-0.353657,0.961967,0.000000
2.210000,-1.010721,0.992922,-1.174517,2.972385,0.723605,0.927792,4.503464,-1.864329,-1.426702,-6.850540,-6.039202,-15.761856,-76.298937,15.330649,8.110776,-0.152805,-0.381180,0.000000,-0.337174,0.997896,-0.000000
2.220000,-0.980773,1.000064,-1.165313,3.017064,0.704662,0.912738,4.431149,-1.923943,-1.583850,-7.611884,-5.882459,-15.661167,-75.937429,16.013090,12.029560,-0.156095,-0.370907,0.000000,-0.320849,1.031933,-0.000000
2.230000,-0.950382,1.007013,-1.156268,3.060982,0.685131,0.896119,4.351241,-1.981956,-1.739794,-8.368640,-5.719039,-15.521237,-75.381131,16.665805,15.956613,-0.159224,-0.360293,0.000000,-0.304916,1.064233,-0.000000
2.240000,-0.919556,1.013764,-1.147396,3.104064,0.665029,0.877948,4.263798,-2.038302,-1.894144,-9.118854,-5.549249,-15.342049,-74.629135,17.286832,19.879398,-0.162195,-0.349355,0.000000,-0.289378,1.094849,-0.000000
2.250000,-0.888304,1.020312,-1.138714,3.146234,0.644371,0.858243,4.168893,-2.092921,-2.046505,-9.860567,-5.373415,-15.123705,-73.680537,17.874208,23.785375,-0.165013,-0.338110,0.000000,-0.274235,1.123832,-0.000000
2.260000,-0.856635,1.026650,-1.130236,3.187418,0.623176,0.837025,4.066608,-2.145743,-2.196488,-10.593038,-5.191047,-14.866459,-72.503328,18.404846,27.662510,-0.167680,-0.326574,0.000000,-0.259426,1.151322,0.000000
2.270000,-0.824559,1.032774,-1.121978,3.227542,0.601462,0.814322,3.957074,-2.196724,-2.343705,-11.311373,-5.004491,-14.570618,-71.131512,18.900495,31.497698,-0.170202,-0.314762,0.000000,-0.245090,1.177152,-0.000000
2.280000,-0.792088,1.038677,-1.113955,3.266535,0.579248,0.790162,3.840429,-2.245816,-2.487773,-12.015029,-4.813151,-14.236687,-69.567992,19.361780,35.278337,-0.172583,-0.302690,0.000000,-0.231157,1.201475,-0.000000
2.290000,-0.759232,1.044357,-1.106180,3.304327,0.556552,0.764578,3.716829,-2.292973,-2.628314,-12.702104,-4.617368,-13.865275,-67.815671,19.789325,38.991826,-0.174827,-0.290375,0.000000,-0.217620,1.224340,-0.000000
2.300000,-0.726006,1.049807,-1.098668,3.340849,0.533395,0.737609,3.586449,-2.338150,-2.764956,-13.370723,-4.417475,-13.457116,-65.877450,20.183754,42.625564,-0.176937,-0.277829,0.000000,-0.204472,1.245794,-0.000000
2.310000,-0.692420,1.055023,-1.091432,3.376035,0.509796,0.709293,3.449471,-2.381309,-2.897332,-14.020098,-4.213716,-13.012624,-63.729580,20.543528,46.155641,-0.178918,-0.265068,0.000000,-0.191707,1.265950,-0.000000
2.320000,-0.658489,1.060001,-1.084486,3.409818,0.485775,0.679677,3.306121,-2.422413,-3.025093,-14.645915,-4.006613,-12.533844,-61.404879,20.871699,49.582149,-0.180772,-0.252104,0.000000,-0.179308,1.284691,0.000000
2.330000,-0.624228,1.064737,-1.077843,3.442137,0.461355,0.648808,3.156633,-2.461430,-3.147897,-15.247627,-3.796384,-12.021363,-58.909513,21.169157,52.893873,-0.182505,-0.238953,0.000000,-0.167269,1.302135,-0.000000
2.340000,-0.589652,1.069227,-1.071514,3.472931,0.436554,0.616737,3.001255,-2.498331,-3.265412,-15.823557,-3.583330,-11.476386,-56.249647,21.436792,56.079597,-0.184119,-0.225626,0.000000,-0.155577,1.318324,0.000000
2.350000,-0.554775,1.073467,-1.065512,3.502143,0.411395,0.583518,2.840253,-2.533089,-3.377320,-16.372092,-3.367745,-10.900229,-53.431448,21.675493,59.128105,-0.185618,-0.212137,0.000000,-0.144220,1.333295,-0.000000
2.360000,-0.519614,1.077454,-1.059847,3.529718,0.385899,0.549210,2.673898,-2.565676,-3.483308,-16.892744,-3.149665,-10.293507,-50.434164,21.879876,62.007663,-0.187004,-0.198497,0.000000,-0.133181,1.347149,-0.000000
2.370000,-0.484186,1.081184,-1.054531,3.555605,0.360089,0.513873,2.502501,-2.596076,-3.583097,-17.381501,-2.929955,-9.659683,-47.294174,22.057872,64.730084,-0.188282,-0.184720,0.000000,-0.122455,1.359769,-0.000000
2.380000,-0.448508,1.084655,-1.049573,3.579753,0.333985,0.477570,2.326375,-2.624270,-3.676414,-17.838184,-2.708590,-8.999458,-44.020941,22.211138,67.286665,-0.189454,-0.170817,0.000000,-0.112023,1.371257,-0.000000
2.390000,-0.412597,1.087863,-1.044983,3.602117,0.307611,0.440367,2.145848,-2.650243,-3.763004,-18.261507,-2.485809,-8.314532,-40.623925,22.341332,69.668702,-0.190524,-0.156799,0.000000,-0.101868,1.381644,-0.000000
2.400000,-0.376472,1.090806,-1.040768,3.622656,0.280988,0.402333,1.961260,-2.673982,-3.842628,-18.650281,-2.261835,-7.606694,-37.112588,22.450111,71.867491,-0.191493,-0.142678,0.000000,-0.091974,1.390959,-0.000000
2.410000,-0.340150,1.093482,-1.036938,3.641330,0.254139,0.363538,1.772957,-2.695477,-3.915056,-19.003839,-2.036967,-6.876767,-33.485538,22.541520,73.847683,-0.192364,-0.128465,0.000000,-0.082344,1.399250,0.000000
2.420000,-0.303652,1.095888,-1.033500,3.658104,0.227086,0.324056,1.581306,-2.714718,-3.980101,-19.320163,-1.811172,-6.129209,-29.764420,22.614537,75.630482,-0.193140,-0.114171,0.000000,-0.072908,1.406492,0.000000
2.430000,-0.266995,1.098023,-1.030459,3.672947,0.199852,0.283961,1.386679,-2.731698,-4.037584,-19.598850,-1.584733,-5.364833,-25.960025,22.670527,77.210446,-0.193823,-0.099806,0.000000,-0.063671,1.412727,-0.000000
2.440000,-0.230199,1.099885,-1.027823,3.685829,0.172459,0.243330,1.189457,-2.746411,-4.087348,-19.839122,-1.357814,-4.585695,-22.083144,22.710854,78.582134,-0.194414,-0.085381,0.000000,-0.054614,1.417976,0.000000
2.450000,-0.193285,1.101472,-1.025594,3.696728,0.144931,0.202240,0.990027,-2.758854,-4.129256,-20.040307,-1.130564,-3.793903,-18.144567,22.736884,79.740105,-0.194916,-0.070905,0.000000,-0.045715,1.422255,-0.000000
2.460000,-0.156271,1.102783,-1.023779,3.705624,0.117290,0.160771,0.788779,-2.769025,-4.163178,-20.202199,-0.903362,-2.990369,-14.146099,22.756120,80.647246,-0.195329,-0.056390,0.000000,-0.036988,1.425599,0.000000
2.470000,-0.119179,1.103817,-1.022380,3.712499,0.089558,0.119003,0.586117,-2.776920,-4.189037,-20.323500,-0.675757,-2.180280,-10.108619,22.763038,81.333665,-0.195656,-0.041844,0.000000,-0.028329,1.427972,-0.000000
2.480000,-0.082028,1.104574,-1.021400,3.717343,0.061759,0.077017,0.382444,-2.782540,-4.206764,-20.404281,-0.448141,-1.364437,-6.044016,22.758250,81.797798,-0.195896,-0.027278,0.000000,-0.019755,1.429404,0.000000
2.490000,-0.044839,1.105052,-1.020840,3.720146,0.033915,0.034895,0.178167,-2.785884,-4.216314,-20.444330,-0.220629,-0.545070,-1.964183,22.742370,82.038083,-0.196051,-0.012702,0.000000,-0.011245,1.429901,-0.000000
2.500000,-0.007632,1.105252,-1.020702,3.720905,0.006049,-0.007282,-0.026307,-2.786953,-4.217661,-20.443554,0.006672,0.275574,2.118988,22.716010,82.052955,-0.196121,0.001875,0.000000,-0.002775,1.429467,-0.000000
2.510000,0.029572,1.105173,-1.020986,3.719621,-0.021816,-0.049431,-0.230568,-2.785754,-4.210791,-20.401925,0.233366,1.096539,6.192256,22.687171,81.807859,-0.196107,0.016443,0.000000,0.005639,1.428104,-0.000000
2.520000,0.066754,1.104816,-1.021690,3.716296,-0.049658,-0.091471,-0.434210,-2.782287,-4.195743,-20.319716,0.460052,1.912455,10.245245,22.648176,81.338264,-0.196009,0.030992,0.000000,0.014111,1.425814,-0.000000
2.530000,0.103891,1.104180,-1.022814,3.710940,-0.077454,-0.133319,-0.636827,-2.776555,-4.172562,-20.197127,0.686295,2.722564,14.266230,22.598732,80.646647,-0.195825,0.045513,0.000000,0.022620,1.422592,0.000000
2.540000,0.140966,1.103267,-1.024356,3.703564,-0.105182,-0.174895,-0.838019,-2.768563,-4.141318,-20.034537,0.911990,3.524656,18.243485,22.538548,79.735483,-0.195556,0.059995,0.000000,0.031189,1.418429,0.000000
2.550000,0.177956,1.102077,-1.026311,3.694186,-0.132818,-0.216119,-1.037386,-2.758317,-4.102103,-19.832442,1.137029,4.316550,22.165286,22.467334,78.607251,-0.195201,0.074429,0.000000,0.039839,1.413318,0.000000
2.560000,0.214843,1.100611,-1.028677,3.682824,-0.160341,-0.256911,-1.234534,-2.745827,-4.055015,-19.591074,1.361052,5.097312,26.010279,22.391042,77.233456,-0.194759,0.088805,0.000000,0.048561,1.407232,-0.000000
2.570000,0.251606,1.098871,-1.031448,3.669503,-0.187727,-0.297194,-1.429081,-2.731099,-4.000206,-19.312066,1.584530,5.861907,29.777544,22.302372,75.651337,-0.194229,0.103113,0.000000,0.057456,1.400201,-0.000000
2.580000,0.288226,1.096857,-1.034619,3.654252,-0.214955,-0.336890,-1.620651,-2.714140,-3.937833,-18.995818,1.807055,6.609665,33.456533,22.200269,73.867163,-0.193610,0.117343,0.000000,0.066508,1.392186,0.000000
2.590000,0.324685,1.094572,-1.038183,3.637102,-0.242003,-0.375926,-1.808876,-2.694961,-3.868075,-18.643265,2.028487,7.338598,37.036700,22.083675,71.887203,-0.192898,0.131483,0.000000,0.075739,1.383170,0.000000
2.600000,0.360962,1.092018,-1.042135,3.618087,-0.268847,-0.414228,-1.993399,-2.673574,-3.791130,-18.255448,2.248676,8.046778,40.507497,21.951536,69.717726,-0.192094,0.145525,0.000000,0.085169,1.373133,-0.000000
2.610000,0.397040,1.089196,-1.046465,3.597247,-0.295467,-0.451725,-2.173863,-2.649994,-3.707204,-17.832726,2.467325,8.733375,43.838457,21.806257,67.338898,-0.191195,0.159457,0.000000,0.094792,1.362008,-0.000000
2.620000,0.432901,1.086109,-1.051166,3.574624,-0.321840,-0.488350,-2.349944,-2.624233,-3.616545,-17.378216,2.684587,9.394142,47.041392,21.642897,64.786287,-0.190197,0.173267,0.000000,0.104689,1.349876,-0.000000
2.630000,0.468527,1.082760,-1.056229,3.550264,-0.347944,-0.524035,-2.521323,-2.596308,-3.519409,-16.892352,2.900118,10.028553,50.108195,21.459976,62.069358,-0.189100,0.186946,0.000000,0.114851,1.336659,-0.000000
2.640000,0.503901,1.079151,-1.061644,3.524214,-0.373759,-0.558717,-2.687692,-2.566237,-3.416067,-16.376533,3.113716,10.635013,53.030758,21.256014,59.197575,-0.187899,0.200482,0.000000,0.125294,1.322327,-0.000000
2.650000,0.539006,1.075286,-1.067400,3.496528,-0.399262,-0.592336,-2.848759,-2.534041,-3.306807,-15.832244,3.325163,11.212020,55.800973,21.029532,56.180404,-0.186593,0.213863,0.000000,0.136036,1.306848,0.000000
2.660000,0.573826,1.071167,-1.073487,3.467258,-0.424433,-0.624835,-3.004239,-2.499741,-3.191922,-15.260295,3.534290,11.758855,58.391694,20.777451,53.009941,-0.185178,0.227076,0.000000,0.147087,1.290147,0.000000
2.670000,0.608346,1.066799,-1.079893,3.436462,-0.449250,-0.656157,-3.153881,-2.463364,-3.071737,-14.664115,3.740699,12.272580,60.816182,20.500086,49.715147,-0.183650,0.240110,0.000000,0.158478,1.272289,-0.000000
2.680000,0.642551,1.062183,-1.086606,3.404200,-0.473693,-0.686253,-3.297443,-2.424937,-2.946582,-14.044545,3.944203,12.752783,63.068661,20.196153,46.307613,-0.182007,0.252953,0.000000,0.170216,1.253189,-0.000000
2.690000,0.676425,1.057326,-1.093613,3.370534,-0.497742,-0.715074,-3.434700,-2.384490,-2.816797,-13.403334,4.144530,13.198395,65.143354,19.864368,42.798931,-0.180245,0.265591,0.000000,0.182313,1.232808,-0.000000
2.700000,0.709957,1.052230,-1.100903,3.335528,-0.521376,-0.742575,-3.565443,-2.342058,-2.682733,-12.742289,4.341394,13.608463,67.034484,19.503448,39.200694,-0.178360,0.278010,0.000000,0.194781,1.211105,0.000000
2.710000,0.743132,1.046900,-1.108460,3.299247,-0.544577,-0.768715,-3.689472,-2.297671,-2.544745,-12.062038,4.534915,13.982496,68.705019,19.101567,35.515726,-0.176348,0.290198,0.000000,0.207653,1.187957,0.000000
2.720000,0.775938,1.041340,-1.116272,3.261761,-0.567323,-0.793458,-3.806632,-2.251373,-2.403207,-11.367431,4.723794,14.318951,70.184266,18.669274,31.765459,-0.174205,0.302139,0.000000,0.220887,1.163521,0.000000
2.730000,0.808363,1.035555,-1.124325,3.223138,-0.589598,-0.816769,-3.916775,-2.203210,-2.258492,-10.658997,4.908199,14.617630,71.470273,18.206574,27.962559,-0.171929,0.313821,0.000000,0.234514,1.137659,0.000000
2.740000,0.840397,1.029550,-1.132603,3.183449,-0.611381,-0.838618,-4.019772,-2.153225,-2.110982,-9.938677,5.087824,14.878069,72.561092,17.713475,24.119691,-0.169514,0.325228,0.000000,0.248542,1.110328,-0.000000
2.750000,0.872029,1.023329,-1.141092,3.142767,-0.632656,-0.858980,-4.115515,-2.101470,-1.961059,-9.208432,5.262367,15.099932,73.454773,17.189984,20.249521,-0.166956,0.336345,0.000000,0.262978,1.081484,-0.000000
2.760000,0.903249,1.016898,-1.149777,3.101163,-0.653405,-0.877833,-4.203901,-2.047993,-1.809113,-8.469026,5.431776,15.282951,74.118578,16.629714,16.366224,-0.164252,0.347156,0.000000,0.277841,1.050989,0.000000
2.770000,0.934049,1.010263,-1.158644,3.058713,-0.673611,-0.895157,-4.284877,-1.992854,-1.655530,-7.725344,5.595148,15.427182,74.585116,16.039847,12.480770,-0.161398,0.357646,0.000000,0.293098,1.019022,-0.000000
2.780000,0.964421,1.003428,-1.167675,3.015490,-0.693257,-0.910939,-4.358396,-1.936110,-1.500699,-6.977975,5.752477,15.532601,74.856207,15.421175,8.605641,-0.158389,0.367800,0.000000,0.308769,0.985436,0.000000
2.790000,0.994357,0.996400,-1.176857,2.971570,-0.712328,-0.925168,-4.424430,-1.877825,-1.345007,-6.228865,5.903478,15.599371,74.933672,14.774486,4.753316,-0.155221,0.377599,0.000000,0.324852,0.950187,-0.000000
2.800000,1.023850,0.989183,-1.186174,2.927027,-0.730809,-0.937838,-4.482973,-1.818063,-1.188839,-5.479941,6.047876,15.627784,74.819331,14.100571,0.936277,-0.151891,0.387029,0.000000,0.341345,0.913235,-0.000000
2.810000,1.052895,0.981785,-1.195609,2.881935,-0.748685,-0.948945,-4.534024,-1.756883,-1.032584,-4.732024,6.186091,15.617695,74.487537,13.382805,-2.818818,-0.148392,0.396070,0.000000,0.358304,0.874437,-0.000000
2.820000,1.081487,0.974212,-1.205147,2.836371,-0.765942,-0.958490,-4.577628,-1.694365,-0.876610,-3.989580,6.316231,15.570970,73.970942,12.641524,-6.515403,-0.144723,0.404706,0.000000,0.375580,0.834002,-0.000000
