time,x,y,z,vx,vy,vz,ax,ay,az,jx,jy,jz,sx,sy,sz,roll,pitch,yaw,p,q,r
0.000000,-2.701782,-0.207105,-1.467085,-0.006289,-0.000706,0.004872,0.229101,-0.014347,-0.015150,7.784215,-0.474036,-0.670841,-321.953604,23.794106,7.071063,-0.001460,-0.023314,0.000000,-0.048107,-0.790252,-0.000000
0.010000,-2.701844,-0.207112,-1.467036,-0.003998,-0.000849,0.004721,0.306943,-0.019087,-0.021858,4.564679,-0.236095,-0.600130,-636.388342,47.119113,25.884335,-0.001940,-0.031209,0.000000,-0.023855,-0.461918,-0.000000
0.020000,-2.701862,-0.207122,-1.466990,-0.000150,-0.001088,0.004435,0.320394,-0.019069,-0.027152,-4.943552,0.468346,-0.153154,-715.045168,57.910000,38.364513,-0.001937,-0.032558,0.000000,0.047583,0.502512,-0.000000
0.030000,-2.701847,-0.207134,-1.466947,0.002410,-0.001231,0.004178,0.208072,-0.009720,-0.024921,-9.736225,0.922105,0.167160,-104.107671,21.799210,10.779851,-0.000988,-0.021153,0.000000,0.093700,0.989162,-0.000000
0.040000,-2.701813,-0.207146,-1.466907,0.004012,-0.001282,0.003937,0.125670,-0.000627,-0.023809,-7.025705,0.904330,0.062443,244.666784,-1.069316,-9.789547,-0.000064,-0.012779,0.000000,0.091953,0.714246,0.000000
0.050000,-2.701767,-0.207159,-1.466869,0.004924,-0.001243,0.003702,0.067558,0.008366,-0.023672,-4.842889,0.900718,-0.028631,195.321136,0.225496,-8.495667,0.000851,-0.006870,0.000000,0.091593,0.492477,0.000000
0.060000,-2.701715,-0.207171,-1.466833,0.005363,-0.001115,0.003463,0.028812,0.017388,-0.024382,-3.119283,0.908840,-0.107470,152.604291,1.285046,-7.338243,0.001768,-0.002930,0.000000,0.092396,0.317210,-0.000000
0.070000,-2.701660,-0.207181,-1.466799,0.005500,-0.000896,0.003214,0.005172,0.026543,-0.025822,-1.790803,0.926419,-0.175396,116.075334,2.124711,-6.308344,0.002699,-0.000526,0.000000,0.094140,0.182078,-0.000000
0.080000,-2.701605,-0.207189,-1.466768,0.005466,-0.000584,0.002947,-0.007004,0.035916,-0.027889,-0.797776,0.951334,-0.233637,85.293277,2.759866,-5.397046,0.003651,0.000712,0.000000,0.096613,0.081075,0.000000
0.090000,-2.701551,-0.207193,-1.466740,0.005360,-0.000177,0.002656,-0.010783,0.045570,-0.030494,-0.084937,0.981617,-0.283337,59.817207,3.205889,-4.595422,0.004631,0.001096,0.000000,0.099617,0.008600,-0.000000
0.100000,-2.701498,-0.207193,-1.466715,0.005251,0.000328,0.002337,-0.008703,0.055549,-0.033556,0.398568,1.015452,-0.325546,39.206221,3.478160,-3.894549,0.005643,0.000884,0.000000,0.102969,-0.040519,-0.000000
0.110000,-2.701446,-0.207187,-1.466694,0.005186,0.000934,0.001985,-0.002812,0.065879,-0.037005,0.699187,1.051180,-0.361228,23.019353,3.592053,-3.285495,0.006690,0.000286,0.000000,0.106501,-0.071014,-0.000000
0.120000,-2.701394,-0.207174,-1.466676,0.005194,0.001645,0.001597,0.005281,0.076572,-0.040781,0.858955,1.087293,-0.391256,10.815690,3.562945,-2.759322,0.007773,-0.000536,0.000000,0.110061,-0.087173,-0.000000
0.130000,-2.701342,-0.207154,-1.466662,0.005291,0.002465,0.001169,0.014367,0.087625,-0.044830,0.915501,1.122439,-0.416414,2.154313,3.406214,-2.307108,0.008891,-0.001458,0.000000,0.113511,-0.092833,-0.000000
0.140000,-2.701288,-0.207125,-1.466652,0.005482,0.003398,0.000700,0.023591,0.099021,-0.049109,0.902041,1.155417,-0.437398,-3.405797,3.137240,-1.919958,0.010043,-0.002393,0.000000,0.116733,-0.091382,-0.000000
0.150000,-2.701232,-0.207086,-1.466648,0.005763,0.004446,0.000187,0.032408,0.110733,-0.053578,0.847385,1.185183,-0.454813,-6.305510,2.771398,-1.588915,0.011226,-0.003286,0.000000,0.119621,-0.085753,-0.000000
0.160000,-2.701173,-0.207036,-1.466649,0.006130,0.005612,-0.000371,0.040539,0.122725,-0.058205,0.775931,1.210845,-0.469176,-6.985655,2.324060,-1.305016,0.012436,-0.004108,0.000000,0.122086,-0.078427,-0.000000
0.170000,-2.701109,-0.206974,-1.466655,0.006574,0.006900,-0.000977,0.047927,0.134950,-0.062962,0.707672,1.231665,-0.480913,-5.953516,1.812391,-1.057924,0.013668,-0.004854,0.000000,0.124056,-0.071433,-0.000000
0.180000,-2.701041,-0.206898,-1.466668,0.007088,0.008311,-0.001631,0.054692,0.147358,-0.067824,0.656861,1.247093,-0.490335,-4.807161,1.282908,-0.813185,0.014917,-0.005537,0.000000,0.125476,-0.066214,0.000000
0.190000,-2.700968,-0.206807,-1.466688,0.007668,0.009847,-0.002333,0.061064,0.159892,-0.072769,0.611528,1.257323,-0.497177,-3.587309,0.740217,-0.570672,0.016177,-0.006179,0.000000,0.126368,-0.061557,-0.000000
0.200000,-2.700888,-0.206701,-1.466715,0.008310,0.011509,-0.003086,0.066923,0.172504,-0.077767,0.585115,1.261897,-0.501748,5.803369,-0.030070,-0.509836,0.017444,-0.006768,0.000000,0.126688,-0.058821,0.000000
0.210000,-2.700802,-0.206577,-1.466749,0.009006,0.013297,-0.003889,0.072766,0.185130,-0.082803,0.727596,1.256721,-0.507374,22.009104,-0.987955,-0.601556,0.018711,-0.007355,0.000000,0.126017,-0.073154,-0.000000
0.220000,-2.700708,-0.206435,-1.466793,0.009765,0.015212,-0.004742,0.081475,0.197639,-0.087915,1.025297,1.242138,-0.513779,20.104247,-1.458665,-0.296805,0.019964,-0.008231,0.000000,0.124388,-0.103132,-0.000000
0.230000,-2.700606,-0.206273,-1.466844,0.010636,0.017250,-0.005647,0.093272,0.209973,-0.093079,1.129681,1.227548,-0.513310,-0.839217,-1.404635,0.423185,0.021199,-0.009418,0.000000,0.122774,-0.113550,0.000000
0.240000,-2.700495,-0.206090,-1.466905,0.011631,0.019411,-0.006604,0.104068,0.222190,-0.098181,1.008512,1.214046,-0.505315,-7.258194,-1.728669,0.817515,0.022420,-0.010503,0.000000,0.121294,-0.101214,-0.000000
0.250000,-2.700374,-0.205885,-1.466976,0.012717,0.021694,-0.007611,0.113442,0.234254,-0.103185,0.984517,1.192975,-0.496960,4.298489,-2.587111,0.815776,0.023625,-0.011443,0.000000,0.119057,-0.098700,-0.000000
0.260000,-2.700241,-0.205656,-1.467058,0.013899,0.024096,-0.008667,0.123759,0.246049,-0.108120,1.094482,1.162303,-0.489000,10.789500,-3.349234,0.924762,0.024801,-0.012477,0.000000,0.115852,-0.109686,-0.000000
0.270000,-2.700096,-0.205403,-1.467150,0.015192,0.026615,-0.009773,0.135332,0.257500,-0.112965,1.200307,1.125990,-0.478464,9.107563,-3.735795,1.193539,0.025942,-0.013637,0.000000,0.112093,-0.120242,0.000000
0.280000,-2.699937,-0.205124,-1.467253,0.016606,0.029246,-0.010927,0.147765,0.268569,-0.117689,1.276634,1.087587,-0.465129,7.164172,-3.951890,1.446670,0.027043,-0.014883,0.000000,0.108141,-0.127821,-0.000000
0.290000,-2.699763,-0.204818,-1.467368,0.018148,0.031986,-0.012127,0.160865,0.279251,-0.122268,1.343590,1.046952,-0.449531,7.017998,-4.316330,1.663846,0.028104,-0.016195,0.000000,0.103980,-0.134454,0.000000
0.300000,-2.699574,-0.204484,-1.467496,0.019823,0.034831,-0.013372,0.174637,0.289508,-0.126680,1.416993,1.001261,-0.431852,7.634449,-4.831778,1.868167,0.029123,-0.017573,0.000000,0.099326,-0.141735,-0.000000
0.310000,-2.699367,-0.204121,-1.467636,0.021640,0.037776,-0.014660,0.189204,0.299277,-0.130905,1.496279,0.950317,-0.412168,7.905856,-5.287244,2.066160,0.030091,-0.019031,0.000000,0.094160,-0.149606,0.000000
0.320000,-2.699141,-0.203728,-1.467789,0.023607,0.040817,-0.015990,0.204562,0.308514,-0.134923,1.575111,0.895516,-0.390529,8.039493,-5.653900,2.255754,0.031006,-0.020567,0.000000,0.088625,-0.157433,0.000000
0.330000,-2.698895,-0.203305,-1.467956,0.025732,0.043947,-0.017359,0.220707,0.317187,-0.138716,1.657069,0.837239,-0.367053,8.418928,-6.003962,2.433765,0.031864,-0.022181,0.000000,0.082758,-0.165577,0.000000
0.340000,-2.698627,-0.202850,-1.468136,0.028022,0.047161,-0.018764,0.237704,0.325259,-0.142264,1.743489,0.775437,-0.341854,8.668235,-6.357242,2.602357,0.032661,-0.023880,0.000000,0.076553,-0.174172,0.000000
0.350000,-2.698334,-0.202362,-1.468331,0.030486,0.050452,-0.020204,0.255576,0.332696,-0.145553,1.830434,0.710094,-0.315005,8.662272,-6.703180,2.765343,0.033395,-0.025666,0.000000,0.070011,-0.182826,-0.000000
0.360000,-2.698017,-0.201840,-1.468540,0.033133,0.053814,-0.021675,0.274312,0.339461,-0.148564,1.916735,0.641373,-0.286547,8.677198,-7.031319,2.919861,0.034061,-0.027538,0.000000,0.063146,-0.191422,0.000000
0.370000,-2.697672,-0.201285,-1.468764,0.035972,0.057241,-0.023175,0.293911,0.345523,-0.151284,2.003978,0.569467,-0.256608,8.853208,-7.347679,3.054065,0.034658,-0.029497,0.000000,0.055978,-0.200122,0.000000
0.380000,-2.697297,-0.200696,-1.469004,0.039011,0.060725,-0.024701,0.314392,0.350850,-0.153697,2.093799,0.494420,-0.225465,9.100498,-7.656346,3.166927,0.035181,-0.031543,0.000000,0.048509,-0.209091,0.000000
0.390000,-2.696892,-0.200071,-1.469258,0.042260,0.064258,-0.026249,0.335787,0.355412,-0.155793,2.185988,0.416341,-0.193270,9.254211,-7.948424,3.273547,0.035628,-0.033681,0.000000,0.040748,-0.218309,-0.000000
0.400000,-2.696452,-0.199410,-1.469529,0.045727,0.067833,-0.027817,0.358112,0.359177,-0.157562,2.278883,0.335451,-0.159995,9.305288,-8.221340,3.381499,0.035996,-0.035912,0.000000,0.032717,-0.227612,-0.000000
0.410000,-2.695977,-0.198714,-1.469815,0.049422,0.071442,-0.029401,0.381365,0.362121,-0.158993,2.372094,0.251914,-0.125640,9.362934,-8.481581,3.479306,0.036282,-0.038236,0.000000,0.024432,-0.236962,0.000000
0.420000,-2.695464,-0.197982,-1.470117,0.053354,0.075076,-0.030997,0.405553,0.364216,-0.160075,2.466142,0.165819,-0.090408,9.455911,-8.733643,3.546499,0.036484,-0.040655,0.000000,0.015900,-0.246413,-0.000000
0.430000,-2.694910,-0.197213,-1.470435,0.057533,0.078726,-0.032602,0.430688,0.365437,-0.160801,2.561212,0.077241,-0.054710,9.546566,-8.975666,3.584766,0.036600,-0.043168,0.000000,0.007124,-0.255985,0.000000
0.440000,-2.694313,-0.196407,-1.470769,0.061968,0.082384,-0.034213,0.456778,0.365760,-0.161169,2.657073,-0.013694,-0.018713,9.604258,-9.202209,3.620897,0.036627,-0.045778,0.000000,-0.001884,-0.265653,-0.000000
0.450000,-2.693671,-0.195565,-1.471119,0.066669,0.086041,-0.035826,0.483829,0.365163,-0.161175,2.753297,-0.106803,0.017708,9.632087,-9.412095,3.665294,0.036563,-0.048485,0.000000,-0.011108,-0.275379,0.000000
0.460000,-2.692980,-0.194686,-1.471485,0.071645,0.089688,-0.037436,0.511844,0.363624,-0.160815,2.849715,-0.201936,0.054593,9.648164,-9.609102,3.698996,0.036405,-0.051289,0.000000,-0.020533,-0.285146,0.000000
0.470000,-2.692238,-0.193771,-1.471868,0.076906,0.093314,-0.039042,0.540823,0.361124,-0.160083,2.946260,-0.298985,0.091688,9.649261,-9.796497,3.695838,0.036152,-0.054192,0.000000,-0.030151,-0.294948,-0.000000
0.480000,-2.691442,-0.192820,-1.472266,0.082461,0.096910,-0.040638,0.570769,0.357645,-0.158981,3.042700,-0.397866,0.128510,9.627571,-9.973337,3.660322,0.035802,-0.057192,0.000000,-0.039958,-0.304760,0.000000
0.490000,-2.690588,-0.191833,-1.472680,0.088321,0.100467,-0.042221,0.601677,0.353167,-0.157513,3.138812,-0.498452,0.164895,9.587452,-10.135446,3.627220,0.035353,-0.060291,0.000000,-0.049941,-0.314559,-0.000000
0.500000,-2.689675,-0.190811,-1.473110,0.094495,0.103973,-0.043788,0.633545,0.347676,-0.155683,3.234449,-0.600575,0.201054,9.532553,-10.280959,3.608043,0.034803,-0.063487,0.000000,-0.060086,-0.324333,-0.000000
0.510000,-2.688699,-0.189754,-1.473556,0.100992,0.107420,-0.045335,0.666366,0.341156,-0.153492,3.329463,-0.704071,0.237055,9.458132,-10.412776,3.579158,0.034151,-0.066781,0.000000,-0.070376,-0.334067,0.000000
0.520000,-2.687655,-0.188662,-1.474017,0.107822,0.110796,-0.046858,0.700134,0.333594,-0.150942,3.423612,-0.808830,0.272637,9.354236,-10.535855,3.513344,0.033395,-0.070173,0.000000,-0.080803,-0.343737,0.000000
0.530000,-2.686542,-0.187538,-1.474493,0.114995,0.114092,-0.048354,0.734839,0.324979,-0.148039,3.516547,-0.914788,0.307322,9.220522,-10.649439,3.417447,0.032535,-0.073660,0.000000,-0.091363,-0.353302,-0.000000
0.540000,-2.685355,-0.186380,-1.474984,0.122519,0.117296,-0.049819,0.770465,0.315298,-0.144796,3.608022,-1.021819,0.340986,9.068777,-10.746826,3.328193,0.031568,-0.077242,0.000000,-0.102043,-0.362737,-0.000000
0.550000,-2.684092,-0.185192,-1.475490,0.130404,0.120398,-0.051250,0.806999,0.304543,-0.141220,3.697923,-1.129725,0.373886,8.904147,-10.826540,3.255940,0.030494,-0.080918,0.000000,-0.112824,-0.372031,0.000000
0.560000,-2.682747,-0.183972,-1.476009,0.138659,0.123387,-0.052643,0.844424,0.292704,-0.137318,3.786105,-1.238350,0.406105,8.717177,-10.893031,3.176638,0.029312,-0.084687,0.000000,-0.123690,-0.381170,0.000000
0.570000,-2.681319,-0.182724,-1.476543,0.147292,0.126252,-0.053996,0.882721,0.279776,-0.133098,3.872266,-1.347585,0.437419,8.492635,-10.949178,3.067764,0.028020,-0.088545,0.000000,-0.134631,-0.390119,-0.000000
0.580000,-2.679802,-0.181447,-1.477089,0.156313,0.128982,-0.055305,0.921869,0.265752,-0.128569,3.955958,-1.457333,0.467460,8.231628,-10.993429,2.937505,0.026619,-0.092492,0.000000,-0.145637,-0.398830,-0.000000
0.590000,-2.678192,-0.180144,-1.477649,0.165730,0.131567,-0.056568,0.961840,0.250629,-0.123748,4.036899,-1.567454,0.496169,7.953251,-11.021959,2.816927,0.025107,-0.096525,0.000000,-0.156694,-0.407271,-0.000000
0.600000,-2.676487,-0.178816,-1.478221,0.175550,0.133995,-0.057780,1.002607,0.234403,-0.118646,4.115023,-1.677772,0.523799,7.664990,-11.034195,2.712727,0.023485,-0.100640,0.000000,-0.167782,-0.415435,0.000000
0.610000,-2.674681,-0.177464,-1.478804,0.185782,0.136255,-0.058941,1.044141,0.217073,-0.113272,4.190199,-1.788138,0.550424,7.352717,-11.032474,2.605615,0.021752,-0.104836,0.000000,-0.178885,-0.423308,-0.000000
0.620000,-2.672771,-0.176091,-1.479399,0.196433,0.138336,-0.060046,1.086411,0.198640,-0.107638,4.262077,-1.898422,0.575911,6.996115,-11.017733,2.483662,0.019907,-0.109108,0.000000,-0.189989,-0.430852,-0.000000
0.630000,-2.670753,-0.174698,-1.480005,0.207510,0.140228,-0.061093,1.129382,0.179105,-0.101754,4.330121,-2.008493,0.600097,6.597825,-10.988963,2.354866,0.017952,-0.113454,0.000000,-0.201079,-0.438008,-0.000000
0.640000,-2.668621,-0.173286,-1.480621,0.219020,0.141919,-0.062081,1.173013,0.158470,-0.095636,4.394034,-2.118201,0.623008,6.184214,-10.944748,2.236710,0.015886,-0.117870,0.000000,-0.212138,-0.444744,-0.000000
0.650000,-2.666372,-0.171859,-1.481247,0.230970,0.143397,-0.063006,1.217263,0.136741,-0.089294,4.453805,-2.227388,0.644831,5.765228,-10.885200,2.130163,0.013709,-0.122350,0.000000,-0.223148,-0.451058,0.000000
0.660000,-2.664002,-0.170419,-1.481881,0.243366,0.144653,-0.063867,1.262090,0.113923,-0.082739,4.509338,-2.335905,0.665612,5.322217,-10.810963,2.025886,0.011423,-0.126892,0.000000,-0.234092,-0.456939,-0.000000
0.670000,-2.661505,-0.168966,-1.482524,0.256212,0.145676,-0.064661,1.307450,0.090023,-0.075982,4.560250,-2.443607,0.685349,4.829935,-10.721149,1.927084,0.009027,-0.131490,0.000000,-0.244951,-0.462347,-0.000000
0.680000,-2.658877,-0.167505,-1.483175,0.269515,0.146454,-0.065386,1.353294,0.065051,-0.069032,4.605937,-2.550328,0.704153,4.292741,-10.615211,1.839808,0.006524,-0.136139,0.000000,-0.255709,-0.467220,0.000000
0.690000,-2.656115,-0.166037,-1.483832,0.283278,0.146977,-0.066041,1.399568,0.039016,-0.061899,4.646105,-2.655911,0.722145,3.744154,-10.494092,1.761641,0.003913,-0.140834,0.000000,-0.266345,-0.471529,-0.000000
0.700000,-2.653212,-0.164565,-1.484495,0.297506,0.147234,-0.066624,1.446217,0.011932,-0.054589,4.680820,-2.760210,0.739386,3.196142,-10.358371,1.686511,0.001197,-0.145570,0.000000,-0.276844,-0.475280,0.000000
0.710000,-2.650165,-0.163092,-1.485164,0.312202,0.147215,-0.067133,1.493185,-0.016188,-0.047111,4.710027,-2.863078,0.755875,2.625859,-10.207094,1.618953,-0.001624,-0.150340,0.000000,-0.287188,-0.478467,-0.000000
0.720000,-2.646968,-0.161621,-1.485838,0.327370,0.146910,-0.067566,1.540417,-0.045329,-0.039472,4.733337,-2.964352,0.771765,2.004438,-10.038348,1.579479,-0.004547,-0.155139,0.000000,-0.297359,-0.481051,0.000000
0.730000,-2.643617,-0.160154,-1.486516,0.343011,0.146309,-0.067923,1.587852,-0.075475,-0.031676,4.750116,-3.063845,0.787465,1.337998,-9.852138,1.570488,-0.007571,-0.159961,0.000000,-0.307337,-0.482976,0.000000
0.740000,-2.640108,-0.158695,-1.487196,0.359127,0.145401,-0.068200,1.635419,-0.106606,-0.023722,4.760097,-3.161395,0.803175,0.665700,-9.650704,1.566533,-0.010694,-0.164799,0.000000,-0.317105,-0.484221,0.000000
0.750000,-2.636435,-0.157246,-1.487880,0.375719,0.144177,-0.068397,1.683054,-0.138703,-0.015612,4.763430,-3.256860,0.818795,0.000945,-9.434629,1.554659,-0.013913,-0.169646,0.000000,-0.326649,-0.484799,-0.000000
0.760000,-2.632593,-0.155811,-1.488564,0.392788,0.142627,-0.068512,1.730688,-0.171743,-0.007346,4.760116,-3.350087,0.834268,-0.682191,-9.202143,1.554852,-0.017227,-0.174496,0.000000,-0.335952,-0.484711,0.000000
0.770000,-2.628579,-0.154394,-1.489250,0.410333,0.140742,-0.068544,1.778256,-0.205705,0.001073,4.749786,-3.440902,0.849892,-1.414348,-8.951482,1.603361,-0.020632,-0.179342,0.000000,-0.344997,-0.483928,-0.000000
0.780000,-2.624387,-0.152997,-1.489935,0.428353,0.138513,-0.068491,1.825684,-0.240561,0.009651,4.731829,-3.529117,0.866335,-2.187569,-8.683013,1.697760,-0.024126,-0.184177,0.000000,-0.353769,-0.482404,-0.000000
0.790000,-2.620012,-0.151623,-1.490620,0.446847,0.135931,-0.068351,1.872892,-0.276287,0.018400,4.706035,-3.614563,0.883848,-2.959505,-8.398750,1.791306,-0.027707,-0.188993,0.000000,-0.362254,-0.480128,0.000000
0.800000,-2.615450,-0.150278,-1.491302,0.465811,0.132987,-0.068123,1.919804,-0.312853,0.027328,4.672639,-3.697092,0.902161,-3.717416,-8.098953,1.865743,-0.031371,-0.193783,0.000000,-0.370438,-0.477123,-0.000000
0.810000,-2.610696,-0.148964,-1.491982,0.485243,0.129674,-0.067804,1.966345,-0.350229,0.036443,4.631687,-3.776542,0.921162,-4.488391,-7.782078,1.954745,-0.035116,-0.198540,0.000000,-0.378310,-0.473396,0.000000
0.820000,-2.605745,-0.147685,-1.492658,0.505138,0.125982,-0.067394,2.012438,-0.388383,0.045752,4.582871,-3.852733,0.941256,-5.299110,-7.447244,2.105407,-0.038938,-0.203257,0.000000,-0.385855,-0.468930,-0.000000
0.830000,-2.600593,-0.146444,-1.493330,0.525491,0.121906,-0.066889,2.058003,-0.427283,0.055268,4.525704,-3.925487,0.963271,-6.139366,-7.094935,2.310441,-0.042833,-0.207926,0.000000,-0.393065,-0.463699,-0.000000
0.840000,-2.595235,-0.145246,-1.493996,0.546298,0.117437,-0.066289,2.102952,-0.466893,0.065017,4.460084,-3.994632,0.987465,-6.971616,-6.725980,2.507965,-0.046799,-0.212539,0.000000,-0.399931,-0.457707,0.000000
0.850000,-2.589667,-0.144095,-1.494656,0.567550,0.112568,-0.065589,2.147204,-0.507176,0.075018,4.386272,-4.060006,1.013430,-7.791249,-6.339580,2.675896,-0.050832,-0.217090,0.000000,-0.406441,-0.450978,-0.000000
0.860000,-2.583884,-0.142995,-1.495308,0.589242,0.107293,-0.064788,2.190678,-0.548093,0.085286,4.304259,-4.121424,1.040983,-8.620591,-5.935097,2.856925,-0.054928,-0.221571,0.000000,-0.412585,-0.443514,0.000000
0.870000,-2.577882,-0.141949,-1.495952,0.611364,0.101606,-0.063883,2.233289,-0.589605,0.095837,4.213860,-4.178708,1.070568,-9.462244,-5.514529,3.105107,-0.059083,-0.225974,0.000000,-0.418355,-0.435313,0.000000
0.880000,-2.571657,-0.140963,-1.496586,0.633908,0.095501,-0.062871,2.274955,-0.631667,0.106697,4.115014,-4.231714,1.103085,-10.305474,-5.078460,3.409146,-0.063295,-0.230292,0.000000,-0.423751,-0.426396,-0.000000
0.890000,-2.565204,-0.140039,-1.497209,0.656863,0.088973,-0.061749,2.315590,-0.674239,0.117899,4.007751,-4.280277,1.138751,-11.145083,-4.623747,3.696674,-0.067559,-0.234519,0.000000,-0.428770,-0.416780,0.000000
0.900000,-2.558519,-0.139183,-1.497821,0.680219,0.082016,-0.060513,2.355110,-0.717273,0.129472,3.892112,-4.324189,1.177019,-11.985475,-4.146923,3.944937,-0.071870,-0.238647,0.000000,-0.433399,-0.406464,0.000000
0.910000,-2.551599,-0.138399,-1.498419,0.703965,0.074627,-0.059160,2.393432,-0.760723,0.141439,3.768041,-4.363216,1.217650,-12.826353,-3.650176,4.202158,-0.076227,-0.242669,0.000000,-0.437624,-0.395442,-0.000000
0.920000,-2.544440,-0.137691,-1.499004,0.728088,0.066802,-0.057685,2.430471,-0.804537,0.153825,3.635585,-4.397193,1.261062,-13.650706,-3.142332,4.520452,-0.080623,-0.246579,0.000000,-0.441443,-0.383734,-0.000000
0.930000,-2.537038,-0.137063,-1.499573,0.752575,0.058537,-0.056083,2.466144,-0.848666,0.166661,3.495027,-4.426062,1.308059,-14.455229,-2.623170,4.884905,-0.085056,-0.250369,0.000000,-0.444870,-0.371393,-0.000000
0.940000,-2.529389,-0.136520,-1.500125,0.777411,0.049829,-0.054351,2.500371,-0.893059,0.179986,3.346481,-4.449656,1.358760,-15.259480,-2.080230,5.224322,-0.089521,-0.254034,0.000000,-0.447901,-0.358438,0.000000
0.950000,-2.521489,-0.136067,-1.500660,0.802582,0.040675,-0.052484,2.533073,-0.937660,0.193836,3.189838,-4.467667,1.412546,-16.067756,-1.509066,5.519391,-0.094014,-0.257567,0.000000,-0.450516,-0.344846,0.000000
0.960000,-2.513337,-0.135707,-1.501175,0.828072,0.031075,-0.050475,2.564168,-0.982412,0.208237,3.025125,-4.479838,1.469148,-16.863727,-0.917966,5.815789,-0.098531,-0.260962,0.000000,-0.452698,-0.330616,0.000000
0.970000,-2.504928,-0.135445,-1.501670,0.853865,0.021027,-0.048319,2.593576,-1.027256,0.223219,2.852563,-4.486026,1.528861,-17.633530,-0.316403,6.153521,-0.103069,-0.264212,0.000000,-0.454450,-0.315776,0.000000
0.980000,-2.496260,-0.135286,-1.502142,0.879944,0.010530,-0.046010,2.621219,-1.072132,0.238814,2.672455,-4.486166,1.592218,-18.379726,0.299289,6.516380,-0.107621,-0.267311,0.000000,-0.455783,-0.300370,0.000000
0.990000,-2.487329,-0.135234,-1.502590,0.906290,-0.000415,-0.043543,2.647025,-1.116980,0.255063,2.484969,-4.480041,1.659189,-19.116631,0.941931,6.848015,-0.112185,-0.270255,0.000000,-0.456687,-0.284413,0.000000
1.000000,-2.478134,-0.135294,-1.503012,0.932884,-0.011809,-0.040909,2.670919,-1.161733,0.271998,2.290122,-4.467327,1.729178,-19.848166,1.607376,7.134596,-0.116755,-0.273036,0.000000,-0.457138,-0.267886,-0.000000
1.010000,-2.468671,-0.135471,-1.503408,0.959708,-0.023650,-0.038103,2.692827,-1.206326,0.289647,2.088005,-4.447893,1.801881,-20.562046,2.288071,7.410144,-0.121328,-0.275649,0.000000,-0.457129,-0.250784,0.000000
1.020000,-2.458940,-0.135767,-1.503774,0.986741,-0.035936,-0.035116,2.712679,-1.250691,0.308036,1.878881,-4.421566,1.877381,-21.242998,2.999075,7.699319,-0.125898,-0.278089,0.000000,-0.456655,-0.233130,0.000000
1.030000,-2.448937,-0.136189,-1.504110,1.013962,-0.048664,-0.031942,2.730405,-1.294757,0.327194,1.663145,-4.387912,1.955867,-21.894147,3.745169,7.987625,-0.130462,-0.280349,0.000000,-0.455685,-0.214956,0.000000
1.040000,-2.438660,-0.136741,-1.504413,1.041349,-0.061831,-0.028572,2.745942,-1.338449,0.347153,1.440998,-4.346662,2.037134,-22.532117,4.505355,8.237665,-0.135013,-0.282425,0.000000,-0.454196,-0.196268,0.000000
1.050000,-2.428110,-0.137426,-1.504682,1.068881,-0.075433,-0.024999,2.759225,-1.381691,0.367937,1.212503,-4.297804,2.120620,-23.148532,5.269099,8.443900,-0.139546,-0.284310,0.000000,-0.452190,-0.177042,-0.000000
1.060000,-2.417283,-0.138249,-1.504913,1.096534,-0.089465,-0.021214,2.770192,-1.424405,0.389565,0.978028,-4.241280,2.206012,-23.730829,6.051795,8.626255,-0.144057,-0.286000,0.000000,-0.449661,-0.157291,0.000000
1.070000,-2.406179,-0.139215,-1.505106,1.124284,-0.103921,-0.017208,2.778785,-1.466516,0.412057,0.737886,-4.176769,2.293146,-24.301037,6.879007,8.786219,-0.148540,-0.287489,0.000000,-0.446577,-0.137025,0.000000
1.080000,-2.394797,-0.140328,-1.505257,1.152109,-0.118795,-0.012972,2.784950,-1.507941,0.435428,0.492007,-4.103700,2.381736,-24.865035,7.748861,8.911476,-0.152989,-0.288771,0.000000,-0.442882,-0.116209,-0.000000
1.090000,-2.383137,-0.141591,-1.505365,1.179983,-0.134080,-0.008499,2.788626,-1.548590,0.459692,0.240586,-4.021791,2.471375,-25.387705,8.626988,8.994954,-0.157398,-0.289840,0.000000,-0.438541,-0.094830,-0.000000
1.100000,-2.371198,-0.143009,-1.505427,1.207882,-0.149767,-0.003779,2.789761,-1.588377,0.484856,-0.015747,-3.931160,2.561635,-25.846607,9.492413,9.043461,-0.161761,-0.290691,0.000000,-0.433555,-0.072916,-0.000000
1.110000,-2.358979,-0.144586,-1.505441,1.235779,-0.165847,0.001198,2.788311,-1.627214,0.510925,-0.276347,-3.831943,2.652244,-26.264621,10.369450,9.055404,-0.166070,-0.291317,0.000000,-0.427926,-0.050496,0.000000
1.120000,-2.346482,-0.146326,-1.505403,1.263648,-0.182311,0.006440,2.784234,-1.665016,0.537901,-0.541040,-3.723771,2.742743,-26.691741,11.312699,9.001058,-0.170320,-0.291714,0.000000,-0.421603,-0.027549,0.000000
1.130000,-2.333706,-0.148233,-1.505312,1.291463,-0.199148,0.011956,2.777490,-1.701689,0.565779,-0.810181,-3.605689,2.832265,-27.120973,12.318882,8.873104,-0.174503,-0.291876,0.000000,-0.414469,-0.003986,-0.000000
1.140000,-2.320653,-0.150309,-1.505164,1.319198,-0.216345,0.017755,2.768031,-1.737129,0.594546,-1.083459,-3.477394,2.920205,-27.480981,13.312752,8.706071,-0.178610,-0.291795,0.000000,-0.406467,0.020209,0.000000
1.150000,-2.307322,-0.152560,-1.504957,1.346824,-0.233890,0.023847,2.755821,-1.771237,0.624184,-1.359801,-3.339434,3.006387,-27.753098,14.259341,8.521034,-0.182633,-0.291464,0.000000,-0.397627,0.044968,0.000000
1.160000,-2.293716,-0.154987,-1.504687,1.374314,-0.251770,0.030239,2.740835,-1.803918,0.654674,-1.638521,-3.192207,3.090626,-27.982639,15.210046,8.288135,-0.186563,-0.290879,0.000000,-0.387963,0.070260,0.000000
1.170000,-2.279836,-0.157595,-1.504352,1.401641,-0.269969,0.036940,2.723050,-1.835081,0.685996,-1.919454,-3.035233,3.172150,-28.203052,16.249113,7.943761,-0.190392,-0.290033,0.000000,-0.377389,0.096124,0.000000
1.180000,-2.265683,-0.160386,-1.503949,1.428775,-0.288471,0.043959,2.702446,-1.864623,0.718117,-2.202582,-2.867225,3.249501,-28.396982,17.363212,7.488281,-0.194111,-0.288920,0.000000,-0.365720,0.122634,-0.000000
1.190000,-2.251260,-0.163364,-1.503473,1.455690,-0.307261,0.051303,2.678999,-1.892425,0.750986,-2.487393,-2.687969,3.321915,-28.516521,18.436431,7.002182,-0.197707,-0.287532,0.000000,-0.352884,0.149797,-0.000000
1.200000,-2.236570,-0.166532,-1.502923,1.482355,-0.326320,0.058979,2.652698,-1.918382,0.784555,-2.772912,-2.498496,3.389545,-28.552882,19.432603,6.522585,-0.201169,-0.285863,0.000000,-0.338945,0.177545,-0.000000
1.210000,-2.221613,-0.169891,-1.502294,1.508744,-0.345629,0.066994,2.623540,-1.942395,0.818777,-3.058451,-2.299317,3.452367,-28.533607,20.428088,5.989294,-0.204486,-0.283907,0.000000,-0.323912,0.205843,0.000000
1.220000,-2.206395,-0.173444,-1.501583,1.534826,-0.365168,0.075354,2.591529,-1.964368,0.853602,-3.343585,-2.089934,3.509331,-28.469669,21.500810,5.301819,-0.207647,-0.281657,0.000000,-0.307667,0.234709,0.000000
1.230000,-2.190917,-0.177194,-1.500786,1.560574,-0.384916,0.084066,2.556669,-1.984194,0.888964,-3.627844,-1.869301,3.558403,-28.346283,22.626365,4.469797,-0.210639,-0.279108,0.000000,-0.290010,0.264188,-0.000000
1.240000,-2.175183,-0.181143,-1.499901,1.585959,-0.404852,0.093134,2.518972,-2.001754,0.924770,-3.910510,-1.637407,3.598727,-28.144407,23.696888,3.624821,-0.213446,-0.276252,0.000000,-0.270861,0.294257,0.000000
1.250000,-2.159198,-0.185291,-1.498924,1.610954,-0.424951,0.102561,2.478459,-2.016942,0.960938,-4.190733,-1.395363,3.630900,-27.872931,24.679773,2.819616,-0.216055,-0.273084,0.000000,-0.250285,0.324837,-0.000000
1.260000,-2.142964,-0.189642,-1.497850,1.635529,-0.445190,0.112352,2.435157,-2.029662,0.997388,-4.467969,-1.143811,3.655119,-27.538240,25.643159,1.961300,-0.218451,-0.269599,0.000000,-0.228291,0.355888,0.000000
1.270000,-2.126487,-0.194195,-1.496677,1.659657,-0.465544,0.122509,2.389099,-2.039818,1.034041,-4.741497,-0.882500,3.670126,-27.103211,26.655260,0.916639,-0.220620,-0.265791,0.000000,-0.204758,0.387389,0.000000
1.280000,-2.109771,-0.198952,-1.495400,1.683311,-0.485987,0.133033,2.340327,-2.047312,1.070791,-5.010033,-0.610706,3.673452,-26.556506,27.691331,-0.293101,-0.222545,-0.261657,0.000000,-0.179483,0.419286,0.000000
1.290000,-2.092821,-0.203915,-1.494016,1.706463,-0.506491,0.143925,2.288898,-2.052033,1.107510,-5.272627,-0.328673,3.664264,-25.944098,28.653603,-1.489879,-0.224208,-0.257191,0.000000,-0.152396,0.451503,-0.000000
1.300000,-2.075642,-0.209082,-1.492521,1.729089,-0.527027,0.155183,2.234875,-2.053885,1.144076,-5.528915,-0.037634,3.643654,-25.296614,29.518022,-2.610271,-0.225592,-0.252393,0.000000,-0.123579,0.483967,0.000000
1.310000,-2.058239,-0.214455,-1.490912,1.751161,-0.547568,0.166806,2.178320,-2.052785,1.180383,-5.778560,0.261687,3.612058,-24.575965,30.343263,-3.775368,-0.226678,-0.247259,0.000000,-0.093054,0.516619,0.000000
1.320000,-2.040619,-0.220034,-1.489185,1.772655,-0.568083,0.178791,2.119303,-2.048651,1.216317,-6.020434,0.569231,3.568147,-23.695086,31.169690,-5.136149,-0.227451,-0.241787,0.000000,-0.060723,0.549354,-0.000000
1.330000,-2.022786,-0.225817,-1.487337,1.793547,-0.588541,0.191133,2.057912,-2.041401,1.251746,-6.252461,0.885081,3.509335,-22.654869,31.970855,-6.658809,-0.227891,-0.235979,0.000000,-0.026442,0.581985,-0.000000
1.340000,-2.004748,-0.231804,-1.485363,1.813813,-0.608911,0.203826,1.994254,-2.030950,1.286504,-6.473532,1.208648,3.434971,-21.568565,32.684881,-8.138446,-0.227977,-0.229837,0.000000,0.009809,0.614359,0.000000
1.350000,-1.986510,-0.237995,-1.483260,1.833432,-0.629160,0.216863,1.928441,-2.017228,1.320445,-6.683833,1.538779,3.346566,-20.490120,33.309237,-9.511335,-0.227692,-0.223364,0.000000,0.047917,0.646394,0.000000
1.360000,-1.968079,-0.244388,-1.481025,1.852382,-0.649256,0.230235,1.860578,-2.000174,1.353435,-6.883334,1.874833,3.244744,-19.336919,33.875471,-10.912167,-0.227016,-0.216565,0.000000,0.087837,0.678006,0.000000
1.370000,-1.949462,-0.250980,-1.478655,1.870643,-0.669164,0.243932,1.790774,-1.979731,1.385340,-7.070571,2.216288,3.128323,-17.967698,34.365549,-12.482215,-0.225932,-0.209446,0.000000,0.129580,0.708982,-0.000000
1.380000,-1.930666,-0.257771,-1.476147,1.888197,-0.688850,0.257942,1.719166,-1.955848,1.416002,-7.242688,2.562144,2.995100,-16.396828,34.755761,-14.177333,-0.224422,-0.202015,0.000000,0.173122,0.738961,0.000000
1.390000,-1.911698,-0.264757,-1.473496,1.905027,-0.708281,0.272252,1.645920,-1.928488,1.445242,-7.398508,2.911404,2.844776,-14.812524,35.062333,-15.802263,-0.222467,-0.194286,0.000000,0.218366,0.767695,0.000000
1.400000,-1.892566,-0.271937,-1.470702,1.921116,-0.727420,0.286846,1.571196,-1.897620,1.472897,-7.538939,3.263391,2.679054,-13.291579,35.318138,-17.308019,-0.220052,-0.186274,0.000000,0.265171,0.795119,-0.000000
1.410000,-1.873276,-0.279306,-1.467760,1.936451,-0.746233,0.301710,1.495142,-1.863220,1.498823,-7.664339,3.617766,2.498616,-11.703278,35.499776,-18.817385,-0.217161,-0.177992,0.000000,0.313445,0.821128,0.000000
1.420000,-1.853837,-0.286861,-1.464668,1.951019,-0.764685,0.316823,1.417909,-1.825265,1.522870,-7.773004,3.973386,2.302707,-9.858390,35.500750,-20.424670,-0.213781,-0.169457,0.000000,0.363029,0.845400,0.000000
1.430000,-1.834255,-0.294599,-1.461423,1.964809,-0.782738,0.332167,1.339682,-1.783753,1.544877,-7.861507,4.327781,2.090123,-7.789607,35.311260,-22.081470,-0.209899,-0.160691,0.000000,0.413605,0.867411,0.000000
1.440000,-1.814540,-0.302516,-1.458024,1.977812,-0.800360,0.347720,1.260679,-1.738709,1.564672,-7.928796,4.679611,1.861077,-5.752489,35.066686,-23.652369,-0.205507,-0.151721,0.000000,0.464904,0.886859,-0.000000
1.450000,-1.794699,-0.310607,-1.454469,1.990022,-0.817513,0.363460,1.181106,-1.690160,1.582099,-7.976557,5.029115,1.617075,-3.830113,34.830512,-25.120647,-0.200599,-0.142575,0.000000,0.516778,0.903743,-0.000000
1.460000,-1.774740,-0.318866,-1.450755,2.001434,-0.834163,0.379362,1.101148,-1.638127,1.597014,-8.005398,5.376222,1.358664,-1.851640,34.499743,-26.563401,-0.195170,-0.133279,0.000000,0.569052,0.917959,0.000000
1.470000,-1.754671,-0.327290,-1.446881,2.012045,-0.850275,0.395401,1.020998,-1.582636,1.609272,-8.013590,5.719110,1.085807,0.371557,33.903315,-27.987180,-0.189218,-0.123864,0.000000,0.621347,0.929147,0.000000
1.480000,-1.734499,-0.335872,-1.442847,2.021854,-0.865816,0.411548,0.940876,-1.523745,1.618730,-7.997967,6.054288,0.798921,2.787462,33.059530,-29.349851,-0.182744,-0.114362,0.000000,0.673053,0.936767,0.000000
1.490000,-1.714233,-0.344606,-1.438650,2.030863,-0.880750,0.427775,0.861038,-1.461550,1.625250,-7.957840,6.380300,0.498810,5.138451,32.189867,-30.631364,-0.175758,-0.104815,0.000000,0.723761,0.940576,-0.000000
1.500000,-1.693882,-0.353487,-1.434291,2.039075,-0.895047,0.444053,0.781719,-1.396139,1.628706,-7.895198,6.698085,0.186294,7.350101,31.363020,-31.858935,-0.168270,-0.095260,0.000000,0.773323,0.940667,0.000000
1.510000,-1.673452,-0.362507,-1.429769,2.046497,-0.908673,0.460349,0.703134,-1.327588,1.628976,-7.810838,7.007561,-0.138368,9.588213,30.422762,-33.028223,-0.160293,-0.085736,0.000000,0.821487,0.937025,-0.000000
1.520000,-1.652952,-0.371660,-1.425084,2.053138,-0.921598,0.476632,0.625503,-1.255988,1.625939,-7.703434,7.306540,-0.474271,12.010638,29.199100,-34.036410,-0.151843,-0.076281,0.000000,0.867734,0.929392,0.000000
1.530000,-1.632389,-0.380939,-1.420237,2.059007,-0.933793,0.492868,0.549066,-1.181458,1.619491,-7.570626,7.591543,-0.819097,14.556918,27.719984,-34.861204,-0.142943,-0.066937,0.000000,0.911368,0.917403,0.000000
1.540000,-1.611772,-0.390336,-1.415227,2.064119,-0.945227,0.509022,0.474090,-1.104157,1.609557,-7.412296,7.860940,-1.171495,17.005833,26.209984,-35.627917,-0.133621,-0.057748,0.000000,0.951939,0.901006,0.000000
1.550000,-1.591107,-0.399844,-1.410056,2.068489,-0.955876,0.525059,0.400820,-1.024239,1.596061,-7.230509,8.115743,-1.531655,19.322064,24.829578,-36.410692,-0.123909,-0.048759,0.000000,0.989356,0.880457,-0.000000
1.560000,-1.570402,-0.409454,-1.404726,2.072136,-0.965712,0.540943,0.329480,-0.941842,1.578924,-7.025854,8.357532,-1.899709,21.639220,23.418759,-37.106623,-0.113839,-0.040007,0.000000,1.023615,0.855859,-0.000000
1.570000,-1.549664,-0.419158,-1.399237,2.075079,-0.974713,0.556638,0.260303,-0.857088,1.558067,-6.797725,8.584118,-2.273787,24.000144,21.547437,-37.502745,-0.103443,-0.031534,0.000000,1.054258,0.827193,-0.000000
1.580000,-1.528900,-0.428948,-1.393593,2.077342,-0.982854,0.572105,0.193525,-0.770160,1.533448,-6.545852,8.788480,-2.649764,26.347190,19.261102,-37.606942,-0.092761,-0.023378,0.000000,1.080261,0.794510,-0.000000
1.590000,-1.508117,-0.438815,-1.387795,2.078949,-0.990116,0.587307,0.129386,-0.681319,1.505071,-6.270781,8.969340,-3.025926,28.610420,17.146686,-37.692823,-0.081845,-0.015578,0.000000,1.101375,0.758013,-0.000000
1.600000,-1.487321,-0.448750,-1.381847,2.079929,-0.996480,0.602206,0.068110,-0.590773,1.472929,-5.973643,9.131414,-3.403620,30.776554,15.252322,-37.867226,-0.070740,-0.008169,0.000000,1.118139,0.718003,0.000000
1.610000,-1.466519,-0.458745,-1.375751,2.080311,-1.001931,0.616765,0.009913,-0.498690,1.436999,-5.655250,9.274386,-3.783271,32.873940,13.193581,-37.931110,-0.059489,-0.001184,0.000000,1.130506,0.674753,0.000000
1.620000,-1.445715,-0.468789,-1.369512,2.080128,-1.006454,0.630946,-0.044995,-0.405285,1.397264,-5.316164,9.395286,-4.162242,34.906289,10.965037,-37.607020,-0.048137,0.005348,0.000000,1.138133,0.628526,0.000000
1.630000,-1.424916,-0.478874,-1.363132,2.079412,-1.010037,0.644711,-0.096410,-0.310785,1.353754,-4.957124,9.493687,-4.535411,36.841808,8.710901,-36.938478,-0.036733,0.011401,0.000000,1.141023,0.579627,-0.000000
1.640000,-1.404127,-0.488990,-1.356617,2.078199,-1.012670,0.658021,-0.144138,-0.215411,1.306556,-4.579328,9.569504,-4.901012,38.655494,6.422655,-36.287562,-0.025323,0.016949,0.000000,1.139301,0.528435,0.000000
1.650000,-1.383352,-0.499127,-1.349972,2.076529,-1.014345,0.670842,-0.187997,-0.119395,1.255734,-4.184014,9.622140,-5.261162,40.395979,4.096164,-35.770478,-0.013953,0.021973,0.000000,1.133071,0.475322,-0.000000
1.660000,-1.362596,-0.509276,-1.343201,2.074439,-1.015058,0.683136,-0.227818,-0.022969,1.201333,-3.771409,9.651427,-5.616422,42.057009,1.756249,-35.136233,-0.002667,0.026458,0.000000,1.122498,0.420533,0.000000
1.670000,-1.341863,-0.519428,-1.336309,2.071972,-1.014805,0.694868,-0.263425,0.073634,1.143406,-3.342874,9.657265,-5.963887,43.457886,-0.610499,-34.101552,0.008492,0.030386,0.000000,1.107777,0.364453,-0.000000
1.680000,-1.321157,-0.529573,-1.329303,2.069171,-1.013585,0.706004,-0.294675,0.170177,1.082055,-2.902251,9.639217,-6.298453,44.567770,-3.012840,-32.736258,0.019484,0.033749,0.000000,1.089101,0.307750,0.000000
1.690000,-1.300480,-0.539700,-1.322189,2.066079,-1.011401,0.716510,-0.321470,0.266418,1.017437,-2.451518,9.597008,-6.618612,45.615940,-5.406652,-31.415182,0.030271,0.036545,0.000000,1.066713,0.250845,-0.000000
1.700000,-1.279835,-0.549801,-1.314973,2.062742,-1.008257,0.726353,-0.343706,0.362117,0.949683,-1.989932,9.531084,-6.926756,46.712802,-7.698740,-30.237990,0.040816,0.038772,0.000000,1.040926,0.193810,-0.000000
1.710000,-1.259225,-0.559865,-1.307662,2.059205,-1.004159,0.735503,-0.361269,0.457040,0.878901,-1.517262,9.443033,-7.223372,47.680399,-9.910142,-28.954801,0.051088,0.040429,0.000000,1.012172,0.136767,-0.000000
1.720000,-1.238651,-0.569884,-1.300263,2.055516,-0.999116,0.743931,-0.374051,0.550978,0.805215,-1.036324,9.332881,-7.505852,48.219408,-12.263122,-27.341884,0.061058,0.041515,0.000000,0.980715,0.080173,-0.000000
1.730000,-1.218115,-0.579847,-1.292783,2.051724,-0.993139,0.751607,-0.381995,0.643698,0.728784,-0.552874,9.197771,-7.770210,48.360190,-14.733339,-25.482000,0.070702,0.042040,0.000000,0.946523,0.024783,0.000000
1.740000,-1.197617,-0.589747,-1.285231,2.047876,-0.986242,0.758507,-0.385109,0.734933,0.649811,-0.069120,9.038214,-8.015492,48.487030,-16.995650,-23.676333,0.079989,0.042017,0.000000,0.909922,-0.029097,-0.000000
1.750000,-1.177157,-0.599572,-1.277613,2.044022,-0.978440,0.764604,-0.383378,0.824462,0.568474,0.416866,8.857858,-8.243736,48.711297,-19.096205,-21.980353,0.088901,0.041460,0.000000,0.871527,-0.081648,0.000000
1.760000,-1.156736,-0.609315,-1.269939,2.040209,-0.969753,0.769876,-0.376771,0.912090,0.484936,0.905106,8.656290,-8.455099,48.759840,-21.228710,-20.203860,0.097421,0.040382,0.000000,0.831497,-0.132845,0.000000
1.770000,-1.136353,-0.618967,-1.262216,2.036486,-0.960199,0.774302,-0.365276,0.997588,0.399373,1.392063,8.433284,-8.647814,48.356284,-23.148073,-18.248264,0.105533,0.038796,0.000000,0.790019,-0.182297,0.000000
1.780000,-1.116007,-0.628519,-1.254453,2.032903,-0.949801,0.777863,-0.348930,1.080756,0.311980,1.872231,8.193329,-8.820065,47.569041,-24.754579,-16.190482,0.113224,0.036721,0.000000,0.747756,-0.229443,0.000000
1.790000,-1.095695,-0.637963,-1.246659,2.029508,-0.938584,0.780542,-0.327831,1.161454,0.222971,2.343444,7.938192,-8.971623,46.752781,-26.379895,-14.169914,0.120491,0.034182,0.000000,0.705032,-0.274114,-0.000000
1.800000,-1.075416,-0.647291,-1.238842,2.026347,-0.926572,0.782323,-0.302061,1.239520,0.132547,2.807287,7.665731,-9.103463,46.029725,-28.112278,-12.185046,0.127328,0.031203,0.000000,0.661739,-0.316552,-0.000000
1.810000,-1.055168,-0.656495,-1.231012,2.023466,-0.913793,0.783193,-0.271685,1.314769,0.040902,3.264038,7.375947,-9.215324,45.154575,-29.702878,-10.162042,0.133730,0.027804,0.000000,0.617992,-0.356860,0.000000
1.820000,-1.034947,-0.665567,-1.223178,2.020913,-0.900276,0.783141,-0.236780,1.387039,-0.051759,3.710378,7.071673,-9.306704,43.816244,-30.961917,-8.146486,0.139692,0.024005,0.000000,0.574174,-0.394784,0.000000
1.830000,-1.014750,-0.674500,-1.215349,2.018731,-0.886052,0.782158,-0.197478,1.456202,-0.145232,4.140363,6.756708,-9.378254,42.089764,-31.929797,-6.186806,0.145217,0.019834,0.000000,0.530715,-0.429842,0.000000
1.840000,-0.994572,-0.683288,-1.207535,2.016963,-0.871152,0.780236,-0.153973,1.522173,-0.239324,4.552174,6.433077,-9.430440,40.387773,-32.833986,-4.235215,0.150310,0.015321,0.000000,0.487844,-0.461983,0.000000
1.850000,-0.974411,-0.691923,-1.199744,2.015651,-0.855609,0.777371,-0.106434,1.584864,-0.333841,4.948119,6.100029,-9.462958,38.757371,-33.891023,-2.238123,0.154978,0.010492,0.000000,0.445517,-0.491566,-0.000000
1.860000,-0.954259,-0.700400,-1.191987,2.014835,-0.839455,0.773559,-0.055011,1.644173,-0.428583,5.327321,5.755257,-9.475202,36.928338,-34.921820,-0.250316,0.159224,0.005373,0.000000,0.403543,-0.518631,-0.000000
1.870000,-0.934114,-0.708712,-1.184273,2.014551,-0.822725,0.768800,0.000112,1.699969,-0.523345,5.686686,5.401592,-9.467965,34.838487,-35.297788,1.558173,0.163052,-0.000011,0.000000,0.362195,-0.543015,0.000000
1.880000,-0.913968,-0.716855,-1.176611,2.014837,-0.805456,0.763093,0.058723,1.752205,-0.617943,6.024091,5.049301,-9.444039,32.561550,-35.101757,3.175845,0.166472,-0.005631,0.000000,0.322384,-0.564654,0.000000
1.890000,-0.893817,-0.724821,-1.169011,2.015726,-0.787681,0.756441,0.120594,1.800955,-0.712226,6.337917,4.699557,-9.404448,30.179527,-35.164702,4.814220,0.169504,-0.011460,0.000000,0.284153,-0.583531,0.000000
1.900000,-0.873654,-0.732608,-1.161483,2.017249,-0.769437,0.748848,0.185481,1.846196,-0.806032,6.627681,4.346007,-9.347754,27.887278,-35.206111,6.573727,0.172159,-0.017470,0.000000,0.246898,-0.599740,0.000000
1.910000,-0.853472,-0.740210,-1.154034,2.019435,-0.750757,0.740320,0.253148,1.887875,-0.899181,6.895662,3.995435,-9.272973,25.629323,-34.693174,8.290891,0.174445,-0.023634,0.000000,0.211223,-0.613629,0.000000
1.920000,-0.833265,-0.747623,-1.146676,2.022312,-0.731679,0.730864,0.323395,1.926105,-0.991491,7.140268,3.652144,-9.181937,22.851675,-34.593798,9.687048,0.176386,-0.029931,0.000000,0.177424,-0.625172,0.000000
1.930000,-0.813026,-0.754844,-1.139417,2.025903,-0.712235,0.720490,0.395953,1.960918,-1.082820,7.352696,3.303559,-9.079232,19.603627,-35.034499,10.789765,0.177997,-0.036334,0.000000,0.144251,-0.633683,0.000000
1.940000,-0.792747,-0.761868,-1.132266,2.030231,-0.692461,0.709208,0.470449,1.992176,-1.173076,7.532340,2.951454,-8.966141,16.657117,-34.652466,11.957208,0.179274,-0.042808,0.000000,0.111825,-0.639242,-0.000000
1.950000,-0.772421,-0.768693,-1.125233,2.035312,-0.672392,0.697029,0.546600,2.019947,-1.262142,7.685838,2.610509,-8.840088,13.816795,-33.978157,13.293560,0.180236,-0.049327,0.000000,0.081427,-0.642573,-0.000000
1.960000,-0.752041,-0.775316,-1.118326,2.041163,-0.652062,0.683965,0.624165,2.044386,-1.349877,7.808676,2.271891,-8.700270,10.603856,-33.877686,14.544450,0.180905,-0.055871,0.000000,0.052228,-0.643388,-0.000000
1.970000,-0.731598,-0.781734,-1.111554,2.047795,-0.631504,0.670031,0.702773,2.065385,-1.436148,7.897915,1.932956,-8.549199,7.793872,-32.419421,15.452064,0.181283,-0.062409,0.000000,0.023929,-0.641538,0.000000
1.980000,-0.711085,-0.787946,-1.104925,2.055218,-0.610754,0.655242,0.782124,2.083046,-1.520861,7.964554,1.623502,-8.391229,5.589502,-29.258136,16.082206,0.181386,-0.068917,0.000000,-0.001056,-0.638057,-0.000000
1.990000,-0.690494,-0.793949,-1.098449,2.063438,-0.589843,0.639614,0.862064,2.097855,-1.603972,8.009705,1.347793,-8.227555,2.906289,-27.127516,16.765546,0.181263,-0.075384,0.000000,-0.022516,-0.633087,-0.000000
2.000000,-0.669816,-0.799743,-1.092133,2.072459,-0.568797,0.623163,0.942318,2.110001,-1.685412,8.022680,1.080952,-8.055918,-0.306051,-26.101481,17.601670,0.180937,-0.081790,0.000000,-0.042598,-0.625796,-0.000000
2.010000,-0.649044,-0.805325,-1.085986,2.082284,-0.547643,0.605906,1.022518,2.119474,-1.765091,8.003584,0.825763,-7.875521,-3.298908,-24.350934,18.363191,0.180413,-0.088109,0.000000,-0.061098,-0.616289,-0.000000
2.020000,-0.628171,-0.810696,-1.080015,2.092910,-0.526408,0.587861,1.102389,2.126517,-1.842923,7.956701,0.593933,-7.688654,-6.213870,-22.438425,18.801547,0.179717,-0.094321,0.000000,-0.077151,-0.604982,-0.000000
2.030000,-0.607186,-0.815853,-1.074228,2.104332,-0.505113,0.569047,1.181652,2.131353,-1.918864,7.879307,0.376995,-7.499491,-9.331774,-21.077221,18.981060,0.178871,-0.100409,0.000000,-0.091584,-0.591673,0.000000
2.040000,-0.586084,-0.820798,-1.068634,2.116543,-0.483781,0.549484,1.259975,2.134057,-1.992913,7.770066,0.172389,-7.309033,-12.371185,-19.349027,19.230951,0.177886,-0.106348,0.000000,-0.104665,-0.576299,0.000000
2.050000,-0.564855,-0.825529,-1.063239,2.129531,-0.462432,0.529189,1.337053,2.134801,-2.065044,7.631883,-0.009986,-7.114872,-15.120418,-16.862919,19.638264,0.176778,-0.112121,0.000000,-0.115605,-0.559169,-0.000000
2.060000,-0.543493,-0.830047,-1.058050,2.143284,-0.441084,0.508183,1.412613,2.133857,-2.135210,7.467658,-0.164870,-6.916268,-17.781526,-14.304196,19.984369,0.175574,-0.117711,0.000000,-0.124036,-0.540570,0.000000
2.070000,-0.521990,-0.834351,-1.053075,2.157784,-0.419755,0.486485,1.486406,2.131503,-2.203370,7.276252,-0.296070,-6.715184,-20.774068,-12.377482,20.074864,0.174298,-0.123104,0.000000,-0.130357,-0.520422,0.000000
2.080000,-0.500338,-0.838442,-1.048320,2.173012,-0.398454,0.464115,1.558138,2.127935,-2.269514,7.052176,-0.412419,-6.514770,-23.985383,-10.797161,19.984605,0.172967,-0.128282,0.000000,-0.135356,-0.498281,-0.000000
2.090000,-0.478530,-0.842320,-1.043793,2.188947,-0.377196,0.441095,1.627450,2.123255,-2.333665,6.796545,-0.512013,-6.315492,-26.848684,-8.692925,19.975782,0.171591,-0.133223,0.000000,-0.138921,-0.474267,0.000000
2.100000,-0.456559,-0.845986,-1.039499,2.205561,-0.355989,0.417442,1.694069,2.117695,-2.395824,6.515202,-0.586278,-6.115255,-29.648447,-6.604150,20.083927,0.170189,-0.137911,0.000000,-0.140393,-0.448888,0.000000
2.110000,-0.434418,-0.849440,-1.035444,2.222828,-0.334842,0.393178,1.757754,2.111529,-2.455970,6.203576,-0.644096,-5.913813,-32.721964,-5.071838,20.145292,0.168783,-0.142334,0.000000,-0.140506,-0.421797,-0.000000
2.120000,-0.412102,-0.852682,-1.031635,2.240716,-0.313759,0.368323,1.818141,2.104813,-2.514100,5.860763,-0.687714,-5.712349,-35.112970,-2.455720,20.112224,0.167379,-0.146471,0.000000,-0.139471,-0.392930,0.000000
2.130000,-0.389604,-0.855715,-1.028077,2.259191,-0.292746,0.342896,1.874969,2.097775,-2.570217,5.501316,-0.693210,-5.511569,-36.674437,1.423422,20.053025,0.165994,-0.150307,0.000000,-0.135494,-0.363423,-0.000000
2.140000,-0.366918,-0.858537,-1.024777,2.278216,-0.271803,0.316918,1.928167,2.090949,-2.624331,5.127274,-0.659246,-5.311288,-38.734001,4.250205,20.037142,0.164669,-0.153843,0.000000,-0.128532,-0.333412,-0.000000
2.150000,-0.344040,-0.861151,-1.021739,2.297754,-0.250927,0.290409,1.977515,2.084590,-2.676443,4.726636,-0.608206,-5.110826,-41.307096,6.204381,20.057015,0.163423,-0.157068,0.000000,-0.120323,-0.301964,-0.000000
2.160000,-0.320963,-0.863556,-1.018969,2.317766,-0.230111,0.263390,2.022700,2.078785,-2.726548,4.301133,-0.535158,-4.910148,-43.494959,8.798510,20.083722,0.162262,-0.159966,0.000000,-0.110503,-0.269210,-0.000000
2.170000,-0.297684,-0.865753,-1.016471,2.338208,-0.209351,0.235879,2.063537,2.073887,-2.774646,3.856737,-0.432236,-4.709152,-45.591777,10.855473,20.163740,0.161212,-0.162526,0.000000,-0.098507,-0.235593,0.000000
2.180000,-0.274199,-0.867743,-1.014251,2.359037,-0.188634,0.207897,2.099834,2.070140,-2.820731,3.389297,-0.318049,-4.506873,-47.927034,11.797087,20.329556,0.160291,-0.164741,0.000000,-0.085755,-0.200788,0.000000
2.190000,-0.250504,-0.869526,-1.012313,2.380205,-0.167948,0.179464,2.131323,2.067526,-2.864783,2.898197,-0.196294,-4.302561,-50.011102,13.338441,20.532422,0.159496,-0.166596,0.000000,-0.072516,-0.164741,-0.000000
2.200000,-0.226595,-0.871102,-1.010662,2.401663,-0.147283,0.150601,2.157798,2.066214,-2.906782,2.389075,-0.051280,-4.096225,-51.728457,15.552759,20.706990,0.158840,-0.168080,0.000000,-0.057616,-0.127854,-0.000000
2.210000,-0.202470,-0.872471,-1.009301,2.423361,-0.126624,0.121328,2.179105,2.066500,-2.946708,1.863627,0.114761,-3.888421,-53.422414,17.248105,20.906471,0.158344,-0.169187,0.000000,-0.041245,-0.090213,0.000000
2.220000,-0.178128,-0.873634,-1.008235,2.445245,-0.105953,0.091667,2.195071,2.068510,-2.984551,1.320627,0.293682,-3.678095,-55.185971,18.766354,21.335490,0.158015,-0.169909,0.000000,-0.024006,-0.051705,0.000000
2.230000,-0.153565,-0.874590,-1.007468,2.467262,-0.085254,0.061637,2.205517,2.072374,-3.020270,0.759908,0.490088,-3.461711,-56.901698,20.516194,22.008035,0.157863,-0.170236,0.000000,-0.005506,-0.012324,0.000000
2.240000,-0.128782,-0.875339,-1.007003,2.489356,-0.064506,0.031261,2.210269,2.078311,-3.053785,0.182593,0.704006,-3.237935,-58.465657,21.895966,22.659951,0.157904,-0.170160,0.000000,0.014268,0.027870,0.000000
2.250000,-0.103778,-0.875881,-1.006843,2.511468,-0.043687,0.000562,2.209169,2.086454,-3.085029,-0.409405,0.928007,-3.008512,-59.852488,22.855937,23.162853,0.158148,-0.169672,0.000000,0.034745,0.068805,0.000000
2.260000,-0.078553,-0.876213,-1.006991,2.533539,-0.022777,-0.030439,2.202081,2.096872,-3.113955,-1.014457,1.161125,-2.774678,-61.124229,23.794727,23.714229,0.158599,-0.168767,0.000000,0.055847,0.110425,0.000000
2.270000,-0.053108,-0.876336,-1.007452,2.555509,-0.001750,-0.061718,2.188880,2.109677,-3.140522,-1.631890,1.403902,-2.534227,-62.365980,24.513469,24.654511,0.159264,-0.167436,0.000000,0.077653,0.152708,0.000000
2.280000,-0.027443,-0.876248,-1.008226,2.577316,0.019417,-0.093250,2.169443,2.124950,-3.164640,-2.261777,1.651394,-2.281587,-63.559014,24.837690,25.950192,0.160151,-0.165674,0.000000,0.099877,0.195649,0.000000
2.290000,-0.001561,-0.875948,-1.009317,2.598898,0.040749,-0.125010,2.143645,2.142704,-3.186154,-2.903070,1.900656,-2.015224,-64.579749,25.055239,27.153607,0.161262,-0.163473,0.000000,0.122339,0.239218,0.000000
2.300000,0.024535,-0.875433,-1.010726,2.620189,0.062271,-0.156973,2.111382,2.162963,-3.204944,-3.553372,2.152499,-1.738515,-65.374942,25.285200,28.100511,0.162598,-0.160826,0.000000,0.145077,0.283348,-0.000000
2.310000,0.050843,-0.874702,-1.012456,2.641126,0.084008,-0.189109,2.072577,2.185754,-3.220924,-4.210569,2.406360,-1.453213,-66.021946,25.302999,29.104516,0.164163,-0.157729,0.000000,0.168047,0.327979,-0.000000
2.320000,0.077358,-0.873753,-1.014508,2.661641,0.105986,-0.221391,2.027170,2.211090,-3.234008,-4.873811,2.658559,-1.156425,-66.636687,24.847901,30.571209,0.165959,-0.154177,0.000000,0.191035,0.373088,-0.000000
2.330000,0.104075,-0.872583,-1.016884,2.681669,0.128230,-0.253789,1.975101,2.238926,-3.244053,-5.543303,2.903318,-0.841789,-67.189628,23.957206,32.421679,0.167984,-0.150163,0.000000,0.213719,0.418699,0.000000
2.340000,0.130991,-0.871188,-1.019584,2.701143,0.150765,-0.286272,1.916304,2.269156,-3.250844,-6.217603,3.137703,-0.507991,-67.513615,22.955494,34.115952,0.170233,-0.145682,0.000000,0.235930,0.464787,-0.000000
2.350000,0.158098,-0.869567,-1.022609,2.719995,0.173613,-0.318806,1.850749,2.301680,-3.254213,-6.893575,3.362428,-0.159470,-67.581570,22.008808,35.479963,0.172703,-0.140729,0.000000,0.257687,0.511262,-0.000000
2.360000,0.185391,-0.867716,-1.025960,2.738158,0.196798,-0.351357,1.778433,2.336405,-3.254033,-7.569235,3.577879,0.201608,-67.494752,20.876699,36.877999,0.175387,-0.135300,0.000000,0.279015,0.558095,-0.000000
2.370000,0.212861,-0.865631,-1.029636,2.755564,0.220341,-0.383887,1.699364,2.373237,-3.250180,-8.243470,3.779962,0.578090,-67.279652,19.097230,38.717070,0.178283,-0.129391,0.000000,0.299673,0.605271,-0.000000
2.380000,0.240502,-0.863309,-1.033638,2.772145,0.244263,-0.416360,1.613563,2.412004,-3.242472,-8.914828,3.959824,0.975949,-66.889667,16.707146,40.887836,0.181381,-0.122997,0.000000,0.319110,0.652728,0.000000
2.390000,0.268304,-0.860746,-1.037964,2.787835,0.268581,-0.448736,1.521068,2.452434,-3.230661,-9.581263,4.114105,1.395847,-66.280690,14.320272,42.839115,0.184666,-0.116116,0.000000,0.337115,0.700428,0.000000
2.400000,0.296259,-0.857938,-1.042613,2.802567,0.293312,-0.480973,1.421938,2.494286,-3.214555,-10.240441,4.246229,1.832732,-65.462905,12.169613,44.423793,0.188124,-0.108743,0.000000,0.353887,0.748359,0.000000
2.410000,0.324356,-0.854880,-1.047583,2.816274,0.318467,-0.513027,1.316259,2.537358,-3.194007,-10.890521,4.357497,2.284322,-64.450358,9.826979,45.999518,0.191744,-0.100876,0.000000,0.369505,0.796511,0.000000
2.420000,0.352584,-0.851568,-1.052873,2.828892,0.344059,-0.544853,1.204128,2.581436,-3.168868,-11.529449,4.442769,2.752722,-63.189359,6.723346,47.876311,0.195515,-0.092511,0.000000,0.383626,0.844826,0.000000
2.430000,0.380933,-0.847999,-1.058480,2.840356,0.370096,-0.576405,1.085670,2.626214,-3.138952,-12.154309,4.491964,3.241849,-61.649117,2.965188,49.925592,0.199418,-0.083647,0.000000,0.395566,0.893178,0.000000
2.440000,0.409391,-0.844166,-1.064401,2.850605,0.396583,-0.607633,0.961042,2.671275,-3.104031,-12.762431,4.502072,3.751234,-59.890706,-0.684695,51.717776,0.203427,-0.074281,0.000000,0.405097,0.941498,-0.000000
2.450000,0.437946,-0.840067,-1.070633,2.859577,0.423521,-0.638485,0.830421,2.716255,-3.063928,-13.352123,4.478270,4.276204,-58.015049,-3.963675,53.184560,0.207520,-0.064415,0.000000,0.412521,0.989808,0.000000
2.460000,0.466583,-0.835696,-1.077171,2.867214,0.450908,-0.668911,0.693999,2.760841,-3.018507,-13.922732,4.422799,4.814925,-55.960178,-7.385147,54.586205,0.211678,-0.054046,0.000000,0.417961,1.038182,-0.000000
2.470000,0.495290,-0.831049,-1.084011,2.873457,0.478738,-0.698856,0.551967,2.804711,-2.967629,-14.471326,4.330567,5.367928,-53.423504,-11.565079,56.011703,0.215880,-0.043171,0.000000,0.421020,1.086509,-0.000000
2.480000,0.524052,-0.826121,-1.091148,2.878253,0.507002,-0.728264,0.404573,2.847452,-2.911149,-14.991202,4.191497,5.935159,-50.384758,-16.352558,57.338985,0.220099,-0.031792,0.000000,0.420907,1.134391,0.000000
2.490000,0.552855,-0.820909,-1.098576,2.881549,0.535687,-0.757079,0.252143,2.888541,-2.848926,-15.479021,4.003516,6.514708,-47.248510,-20.907356,58.428630,0.224298,-0.019916,0.000000,0.417389,1.181683,0.000000
2.500000,0.581683,-0.815407,-1.106290,2.883296,0.564773,-0.785242,0.094992,2.927522,-2.780854,-15.936172,3.773350,7.103732,-44.216522,-24.985516,59.335128,0.228446,-0.007544,0.000000,0.410862,1.228595,-0.000000
2.510000,0.610521,-0.809613,-1.114281,2.883448,0.594238,-0.812696,-0.066581,2.964008,-2.706851,-16.363352,3.503806,7.701411,-40.995758,-29.132838,60.110850,0.232515,0.005319,0.000000,0.401459,1.275275,0.000000
2.520000,0.639352,-0.803523,-1.122544,2.881964,0.624053,-0.839379,-0.232275,2.997598,-2.626826,-16.756087,3.190693,8.305949,-37.072693,-33.870525,60.532815,0.236475,0.018674,0.000000,0.388755,1.321466,-0.000000
2.530000,0.668160,-0.797132,-1.131069,2.878803,0.654190,-0.865232,-0.401703,3.027822,-2.540732,-17.104806,2.826395,8.912067,-32.501165,-39.007685,60.524647,0.240290,0.032513,0.000000,0.371983,1.366482,-0.000000
2.540000,0.696928,-0.790439,-1.139848,2.873930,0.684610,-0.890194,-0.574371,3.054126,-2.448585,-17.406111,2.410540,9.516442,-27.970287,-43.819029,60.361603,0.243914,0.046820,0.000000,0.350944,1.410084,0.000000
2.550000,0.725639,-0.783440,-1.148873,2.867316,0.715272,-0.914204,-0.749825,3.076033,-2.350403,-17.664211,1.950014,10.119299,-23.751236,-48.157367,60.239975,0.247307,0.061583,0.000000,0.326044,1.452633,0.000000
2.560000,0.754274,-0.776134,-1.158132,2.858934,0.746130,-0.937202,-0.927655,3.093127,-2.246199,-17.881135,1.447392,10.721241,-19.369678,-52.467694,59.928317,0.250433,0.076793,0.000000,0.297361,1.494325,-0.000000
2.570000,0.782817,-0.768517,-1.167617,2.848762,0.777135,-0.959128,-1.107448,3.104981,-2.135979,-18.051605,0.900661,11.317865,-14.169973,-56.989789,58.865967,0.253252,0.092440,0.000000,0.264519,1.534742,-0.000000
2.580000,0.811250,-0.760591,-1.177315,2.836785,0.808230,-0.979921,-1.288687,3.111140,-2.019842,-18.164535,0.307597,11.898560,-8.277616,-61.527832,57.057832,0.255720,0.108507,0.000000,0.226994,1.572892,-0.000000
2.590000,0.839553,-0.752353,-1.187215,2.822989,0.839357,-0.999525,-1.470738,3.111132,-1.898007,-18.217157,-0.329896,12.459022,-2.580976,-65.723915,55.233151,0.257788,0.124964,0.000000,0.184681,1.608420,0.000000
2.600000,0.867709,-0.743804,-1.197305,2.807370,0.870453,-1.017882,-1.653030,3.104542,-1.770661,-18.216154,-1.006882,13.003223,2.644526,-69.603730,53.710185,0.259410,0.141783,0.000000,0.137860,1.641811,0.000000
2.610000,0.895700,-0.734944,-1.207573,2.789928,0.901448,-1.034938,-1.835061,3.090995,-1.637943,-18.164267,-1.721971,13.533226,7.988026,-73.343777,51.958933,0.260541,0.158944,0.000000,0.086491,1.673240,0.000000
2.620000,0.923508,-0.725775,-1.218004,2.770669,0.932273,-1.050640,-2.016316,3.070103,-1.499997,-18.056394,-2.473757,14.042402,14.061997,-76.734028,49.155810,0.261135,0.176424,0.000000,0.030364,1.702119,-0.000000
2.630000,0.951114,-0.716298,-1.228586,2.749602,0.962850,-1.064938,-2.196189,3.041520,-1.357095,-17.883027,-3.256651,14.516342,20.677222,-79.630375,45.410563,0.261143,0.194188,0.000000,-0.030538,1.727285,0.000000
2.640000,0.978500,-0.706518,-1.239303,2.726745,0.993103,-1.077782,-2.373976,3.004970,-1.209670,-17.642849,-4.066365,14.950613,26.993857,-82.271683,41.811300,0.260517,0.212188,0.000000,-0.096141,1.748287,-0.000000
2.650000,1.005649,-0.696436,-1.250141,2.702122,1.022950,-1.089131,-2.549046,2.960192,-1.058083,-17.343150,-4.902085,15.352568,32.799459,-84.894222,38.726623,0.259213,0.230380,0.000000,-0.166442,1.765603,0.000000
2.660000,1.032542,-0.686059,-1.261085,2.675764,1.052307,-1.098944,-2.720839,2.906928,-0.902619,-16.986860,-5.764249,15.725146,38.626622,-87.262019,35.405633,0.257181,0.248725,0.000000,-0.241639,1.779319,0.000000
2.670000,1.059164,-0.675390,-1.272120,2.647705,1.081088,-1.107184,-2.888783,2.844907,-0.743580,-16.570617,-6.647325,16.060680,44.895866,-88.658022,30.961676,0.254371,0.267181,0.000000,-0.321631,1.788751,0.000000
2.680000,1.085497,-0.664437,-1.283229,2.617988,1.109205,-1.113816,-3.052252,2.773981,-0.581405,-16.088943,-7.537410,16.344379,51.396855,-89.053373,25.604651,0.250739,0.285693,0.000000,-0.405702,1.792756,-0.000000
2.690000,1.111524,-0.653206,-1.294396,2.586660,1.136568,-1.118812,-3.210562,2.694159,-0.416692,-15.542680,-8.428393,16.572773,57.534015,-89.364920,20.517979,0.246248,0.304196,0.000000,-0.493528,1.790869,0.000000
2.700000,1.137230,-0.641706,-1.305605,2.553777,1.163088,-1.122149,-3.363105,2.605413,-0.249949,-14.938263,-9.324708,16.754739,63.268634,-90.005408,16.023195,0.240858,0.322626,0.000000,-0.585479,1.783451,-0.000000
2.710000,1.162599,-0.629944,-1.316839,2.519398,1.188676,-1.123811,-3.509328,2.507665,-0.081597,-14.277307,-10.228501,16.893237,68.942645,-90.289728,11.335709,0.234527,0.340926,0.000000,-0.681866,1.770351,0.000000
2.720000,1.187618,-0.617932,-1.328082,2.483590,1.213241,-1.123781,-3.648651,2.400843,0.087915,-13.559410,-11.130503,16.981453,74.494292,-89.118669,5.745656,0.227209,0.359029,0.000000,-0.782156,1.750921,0.000000
2.730000,1.212271,-0.605679,-1.339315,2.446425,1.236693,-1.122052,-3.780516,2.285055,0.258032,-12.787422,-12.010874,17.008150,79.733855,-86.614038,-0.482386,0.218872,0.376867,0.000000,-0.884868,1.724557,0.000000
2.740000,1.236546,-0.593198,-1.350523,2.407980,1.258943,-1.118621,-3.904400,2.160626,0.428078,-11.964733,-12.862783,16.971805,84.708092,-84.210283,-6.385988,0.209500,0.394361,0.000000,-0.989393,1.690931,-0.000000
2.750000,1.260431,-0.580501,-1.361687,2.368337,1.279906,-1.113491,-4.019810,2.027799,0.597468,-11.093260,-13.695080,16.880431,89.588733,-82.426238,-11.793462,0.199072,0.411438,0.000000,-1.096396,1.649958,0.000000
2.760000,1.283913,-0.567600,-1.372792,2.327584,1.299499,-1.106671,-4.126265,1.886724,0.765687,-10.172958,-14.511308,16.735936,94.269575,-80.253032,-17.307487,0.187559,0.428021,0.000000,-1.206203,1.601200,-0.000000
2.770000,1.306982,-0.554511,-1.383821,2.285812,1.317640,-1.098177,-4.223270,1.737573,0.932187,-9.207868,-15.300141,16.534281,98.194309,-76.396183,-23.215577,0.174935,0.444028,0.000000,-1.317814,1.544322,-0.000000
2.780000,1.329629,-0.541247,-1.394756,2.243119,1.334250,-1.088028,-4.310422,1.580722,1.096373,-8.209072,-16.039232,16.271625,101.297781,-71.121421,-29.263112,0.161190,0.459379,0.000000,-1.429031,1.479592,-0.000000
2.790000,1.351845,-0.527826,-1.405581,2.199604,1.349254,-1.076250,-4.387451,1.416789,1.257619,-7.181913,-16.722569,15.949019,104.278644,-66.140962,-35.037971,0.146342,0.474001,0.000000,-1.538966,1.406963,0.000000
2.800000,1.373621,-0.514262,-1.416281,2.155370,1.362586,-1.062875,-4.454061,1.246270,1.415353,-6.123499,-17.362051,15.570865,107.482067,-61.896962,-40.591729,0.130399,0.487814,0.000000,-1.648430,1.325818,0.000000
2.810000,1.394952,-0.500574,-1.426839,2.110522,1.374180,-1.047943,-4.509921,1.069547,1.569036,-5.032271,-17.960508,15.137184,110.366282,-57.237896,-46.130256,0.113363,0.500734,0.000000,-1.757423,1.235471,0.000000
2.820000,1.415832,-0.486779,-1.437240,2.065171,1.383977,-1.031495,-4.554706,0.887060,1.718097,-3.916173,-18.506809,14.648260,111.981500,-51.175802,-51.371417,0.095241,0.512672,0.000000,-1.864466,1.136129,-0.000000
