time,x,y,z,vx,vy,vz,ax,ay,az,jx,jy,jz,sx,sy,sz,roll,pitch,yaw,p,q,r
0.000000,-3.304121,-0.216614,-1.468067,-0.008292,0.001023,0.004957,0.618576,-0.083833,-0.020066,-20.630740,2.459882,0.105647,528.466331,-51.255442,-8.374484,-0.008511,-0.062844,0.000000,0.248518,2.089712,0.000000
0.010000,-3.304176,-0.216608,-1.468018,-0.003053,0.000299,0.004761,0.437330,-0.061665,-0.019419,-15.750891,1.986569,0.024606,448.899501,-43.544768,-7.835655,-0.006267,-0.044463,0.000000,0.201435,1.599115,-0.000000
0.020000,-3.304187,-0.216608,-1.467972,0.000605,-0.000225,0.004566,0.301043,-0.043858,-0.019556,-11.625542,1.586305,-0.051105,377.495158,-36.638684,-7.308375,-0.004460,-0.030617,0.000000,0.161164,1.181752,0.000000
0.030000,-3.304168,-0.216612,-1.467927,0.003094,-0.000590,0.004367,0.202570,-0.029722,-0.020424,-8.175199,1.251255,-0.121600,313.827221,-30.494808,-6.792627,-0.003023,-0.020604,0.000000,0.127241,0.831520,0.000000
0.040000,-3.304128,-0.216619,-1.467885,0.004761,-0.000830,0.004156,0.135541,-0.018640,-0.021971,-5.324630,0.974009,-0.186996,257.469612,-25.070755,-6.288390,-0.001896,-0.013785,0.000000,0.099078,0.541721,-0.000000
0.050000,-3.304074,-0.216628,-1.467844,0.005891,-0.000971,0.003925,0.094315,-0.010072,-0.024147,-3.002860,0.747582,-0.247406,207.996251,-20.324141,-5.795646,-0.001024,-0.009590,0.000000,0.076038,0.305563,0.000000
0.060000,-3.304011,-0.216638,-1.467806,0.006716,-0.001038,0.003671,0.073944,-0.003541,-0.026903,-1.143177,0.565410,-0.302947,164.981058,-16.212583,-5.314374,-0.000360,-0.007517,0.000000,0.057488,0.116438,-0.000000
0.070000,-3.303940,-0.216649,-1.467771,0.007425,-0.001048,0.003386,0.070120,0.001363,-0.030190,0.316868,0.421354,-0.353732,127.997954,-12.693696,-4.844557,0.000139,-0.007126,0.000000,0.042814,-0.031944,-0.000000
0.080000,-3.303862,-0.216659,-1.467739,0.008162,-0.001015,0.003065,0.079143,0.004994,-0.033962,1.435468,0.309701,-0.399876,96.620859,-9.725096,-4.386175,0.000507,-0.008040,0.000000,0.031439,-0.145486,0.000000
0.090000,-3.303777,-0.216669,-1.467710,0.009040,-0.000951,0.002705,0.097872,0.007648,-0.038173,2.266552,0.225159,-0.441493,70.423694,-7.264400,-3.939209,0.000777,-0.009938,0.000000,0.022825,-0.229681,0.000000
0.100000,-3.303681,-0.216678,-1.467685,0.010143,-0.000864,0.002300,0.123682,0.009571,-0.042777,2.859788,0.162862,-0.478698,48.980380,-5.269223,-3.503640,0.000971,-0.012552,0.000000,0.016477,-0.289596,-0.000000
0.110000,-3.303573,-0.216686,-1.467664,0.011530,-0.000761,0.001848,0.154426,0.010964,-0.047732,3.260586,0.118364,-0.511604,31.864837,-3.697182,-3.079449,0.001112,-0.015664,0.000000,0.011942,-0.329870,-0.000000
0.120000,-3.303449,-0.216693,-1.467648,0.013242,-0.000646,0.001345,0.188390,0.011984,-0.052995,3.510091,0.087649,-0.540325,18.650985,-2.505893,-2.666616,0.001215,-0.019098,0.000000,0.008810,-0.354709,-0.000000
0.130000,-3.303307,-0.216699,-1.467637,0.015304,-0.000522,0.000787,0.224247,0.012751,-0.058525,3.645191,0.067119,-0.564974,8.912745,-1.652971,-2.265123,0.001292,-0.022720,0.000000,0.006715,-0.367884,-0.000000
0.140000,-3.303142,-0.216704,-1.467632,0.017730,-0.000392,0.000174,0.261021,0.013350,-0.064282,3.698511,0.053603,-0.585665,2.224038,-1.096032,-1.874950,0.001352,-0.026428,0.000000,0.005333,-0.372731,0.000000
0.150000,-3.302951,-0.216707,-1.467634,0.020525,-0.000256,-0.000499,0.298040,0.013837,-0.070226,3.698416,0.044353,-0.602511,-1.841217,-0.792694,-1.496078,0.001400,-0.030156,0.000000,0.004386,-0.372147,-0.000000
0.160000,-3.302730,-0.216709,-1.467642,0.023690,-0.000115,-0.001231,0.334893,0.014243,-0.076319,3.669011,0.037045,-0.615624,-3.709098,-0.700571,-1.128488,0.001440,-0.033861,0.000000,0.003637,-0.368587,0.000000
0.170000,-3.302476,-0.216709,-1.467659,0.027222,0.000029,-0.002026,0.371389,0.014578,-0.082526,3.630139,0.029779,-0.625118,-3.805685,-0.777280,-0.772161,0.001473,-0.037525,0.000000,0.002895,-0.364072,-0.000000
0.180000,-3.302185,-0.216708,-1.467683,0.031116,0.000176,-0.002882,0.407516,0.014834,-0.088810,3.597381,0.021078,-0.631105,-2.557057,-0.980436,-0.427079,0.001497,-0.041145,0.000000,0.002010,-0.360180,-0.000000
0.190000,-3.301852,-0.216706,-1.467716,0.035371,0.000325,-0.003802,0.443395,0.014991,-0.095137,3.582061,0.009890,-0.633697,-0.389295,-1.267657,-0.093221,0.001512,-0.044734,0.000000,0.000876,-0.358055,0.000000
0.200000,-3.301476,-0.216702,-1.467759,0.039984,0.000475,-0.004785,0.479240,0.015021,-0.101473,3.591239,-0.004414,-0.633007,2.271523,-1.596557,0.229432,0.001514,-0.048314,0.000000,-0.000568,-0.358405,-0.000000
0.210000,-3.301052,-0.216696,-1.467812,0.044918,0.000629,-0.005831,0.516757,0.014755,-0.107788,3.760993,-0.034647,-0.629255,1.633016,-1.606312,0.543660,0.001486,-0.052057,0.000000,-0.003612,-0.374893,0.000000
0.220000,-3.300576,-0.216689,-1.467876,0.050274,0.000774,-0.006941,0.554439,0.014328,-0.114048,3.774358,-0.050743,-0.622295,1.047605,-1.611971,0.846382,0.001442,-0.055810,0.000000,-0.005226,-0.375648,-0.000000
0.230000,-3.300045,-0.216681,-1.467951,0.056007,0.000915,-0.008112,0.592226,0.013740,-0.120224,3.782076,-0.066861,-0.612367,0.501412,-1.610145,1.137279,0.001381,-0.059568,0.000000,-0.006837,-0.375850,-0.000000
0.240000,-3.299455,-0.216671,-1.468039,0.062119,0.001049,-0.009345,0.630063,0.012991,-0.126286,3.784470,-0.082910,-0.599590,-0.019443,-1.597441,1.416033,0.001305,-0.063326,0.000000,-0.008437,-0.375537,0.000000
0.250000,-3.298802,-0.216660,-1.468139,0.068608,0.001174,-0.010637,0.667898,0.012083,-0.132206,3.781725,-0.098763,-0.584088,-0.528839,-1.570469,1.682324,0.001213,-0.067077,0.000000,-0.010013,-0.374733,-0.000000
0.260000,-3.298082,-0.216647,-1.468252,0.075475,0.001290,-0.011988,0.705750,0.011003,-0.137959,3.780273,-0.115571,-0.566021,-1.201981,-1.492723,1.936712,0.001103,-0.070826,0.000000,-0.011681,-0.374085,0.000000
0.270000,-3.297291,-0.216634,-1.468378,0.082721,0.001394,-0.013396,0.743481,0.009774,-0.143518,3.764899,-0.130039,-0.545437,-1.871668,-1.397981,2.177891,0.000979,-0.074557,0.000000,-0.013109,-0.372079,-0.000000
0.280000,-3.296426,-0.216620,-1.468520,0.090344,0.001485,-0.014858,0.781025,0.008406,-0.148860,3.742870,-0.143476,-0.522509,-2.532027,-1.286908,2.405436,0.000841,-0.078265,0.000000,-0.014431,-0.369446,0.000000
0.290000,-3.295483,-0.216604,-1.468676,0.098341,0.001562,-0.016372,0.818317,0.006909,-0.153961,3.714309,-0.155725,-0.497375,-3.177182,-1.160166,2.618918,0.000691,-0.081944,0.000000,-0.015632,-0.366205,0.000000
0.300000,-3.294458,-0.216588,-1.468847,0.106709,0.001623,-0.017936,0.855291,0.005296,-0.158801,3.679397,-0.166630,-0.470179,-3.801259,-1.018420,2.817912,0.000529,-0.085587,0.000000,-0.016695,-0.362377,-0.000000
0.310000,-3.293347,-0.216572,-1.469035,0.115446,0.001667,-0.019547,0.891867,0.003580,-0.163358,3.636753,-0.176142,-0.441034,-4.357433,-0.859902,3.001171,0.000358,-0.089188,0.000000,-0.017618,-0.357831,0.000000
0.320000,-3.292148,-0.216555,-1.469238,0.124545,0.001694,-0.021202,0.928007,0.001778,-0.167616,3.590513,-0.183892,-0.410169,-4.885793,-0.688004,3.169188,0.000177,-0.092742,0.000000,-0.018364,-0.352980,0.000000
0.330000,-3.290855,-0.216538,-1.469459,0.134004,0.001703,-0.022898,0.963660,-0.000092,-0.171556,3.539132,-0.189860,-0.377702,-5.385480,-0.503689,3.321638,-0.000009,-0.096246,0.000000,-0.018932,-0.347673,-0.000000
0.340000,-3.289466,-0.216521,-1.469696,0.143817,0.001692,-0.024632,0.998774,-0.002013,-0.175165,3.482902,-0.193927,-0.343790,-5.855633,-0.307918,3.458195,-0.000201,-0.099694,0.000000,-0.019311,-0.341943,0.000000
0.350000,-3.287978,-0.216504,-1.469952,0.153978,0.001662,-0.026401,1.033303,-0.003964,-0.178428,3.422121,-0.195984,-0.308592,-6.295392,-0.101653,3.578532,-0.000395,-0.103083,0.000000,-0.019491,-0.335819,-0.000000
0.360000,-3.286386,-0.216488,-1.470225,0.164481,0.001613,-0.028200,1.067196,-0.005925,-0.181332,3.356482,-0.195916,-0.272197,-6.688341,0.113830,3.680378,-0.000590,-0.106409,0.000000,-0.019461,-0.329273,-0.000000
0.370000,-3.284687,-0.216472,-1.470516,0.175319,0.001544,-0.030026,1.100420,-0.007875,-0.183868,3.287760,-0.193664,-0.234953,-7.051080,0.337923,3.765589,-0.000783,-0.109668,0.000000,-0.019216,-0.322479,-0.000000
0.380000,-3.282878,-0.216457,-1.470825,0.186487,0.001456,-0.031876,1.132939,-0.009791,-0.186029,3.215558,-0.189132,-0.196941,-7.384653,0.569703,3.834080,-0.000973,-0.112857,0.000000,-0.018746,-0.315399,0.000000
0.390000,-3.280956,-0.216443,-1.471153,0.197976,0.001348,-0.033745,1.164720,-0.011650,-0.187805,3.140161,-0.182248,-0.158328,-7.690104,0.808247,3.885761,-0.001157,-0.115975,0.000000,-0.018046,-0.308059,-0.000000
0.400000,-3.278918,-0.216430,-1.471500,0.209779,0.001223,-0.035631,1.195733,-0.013428,-0.189194,3.061846,-0.172948,-0.119282,-7.968479,1.052632,3.920545,-0.001333,-0.119018,0.000000,-0.017110,-0.300486,-0.000000
0.410000,-3.276760,-0.216419,-1.471866,0.221888,0.001080,-0.037528,1.225948,-0.015100,-0.190189,2.980800,-0.161176,-0.079878,-8.218858,1.301875,3.935936,-0.001499,-0.121984,0.000000,-0.015932,-0.292696,-0.000000
0.420000,-3.274479,-0.216409,-1.472251,0.234295,0.000921,-0.039433,1.255341,-0.016643,-0.190791,2.897464,-0.146894,-0.040512,-8.444489,1.555120,3.934550,-0.001651,-0.124871,0.000000,-0.014508,-0.284728,-0.000000
0.430000,-3.272073,-0.216400,-1.472655,0.246992,0.000748,-0.041342,1.283890,-0.018030,-0.191000,2.811989,-0.130063,-0.001242,-8.646658,1.811453,3.916592,-0.001788,-0.127678,0.000000,-0.012835,-0.276596,0.000000
0.440000,-3.269538,-0.216394,-1.473078,0.259970,0.000561,-0.043252,1.311574,-0.019235,-0.190817,2.724604,-0.110658,0.037765,-8.826649,2.069957,3.882270,-0.001907,-0.130402,0.000000,-0.010911,-0.268318,-0.000000
0.450000,-3.266872,-0.216389,-1.473520,0.273220,0.000364,-0.045157,1.338376,-0.020234,-0.190246,2.635526,-0.088660,0.076349,-8.985747,2.329718,3.831791,-0.002005,-0.133044,0.000000,-0.008733,-0.259912,0.000000
0.460000,-3.264073,-0.216386,-1.473981,0.286734,0.000157,-0.047056,1.364280,-0.021000,-0.189291,2.544997,-0.064061,0.114440,-9.126306,2.589771,3.763039,-0.002081,-0.135600,0.000000,-0.006300,-0.251399,0.000000
0.470000,-3.261137,-0.216386,-1.474461,0.300503,-0.000055,-0.048942,1.389272,-0.021507,-0.187959,2.453109,-0.036865,0.151662,-9.248410,2.849255,3.678827,-0.002131,-0.138071,0.000000,-0.003613,-0.242780,-0.000000
0.480000,-3.258062,-0.216388,-1.474959,0.314517,-0.000272,-0.050813,1.413339,-0.021729,-0.186260,2.360087,-0.007080,0.187967,-9.353215,3.107260,3.579647,-0.002152,-0.140456,0.000000,-0.000671,-0.234076,-0.000000
0.490000,-3.254846,-0.216391,-1.475477,0.328767,-0.000489,-0.052666,1.436470,-0.021640,-0.184204,2.266098,0.025273,0.223207,-9.441875,3.362876,3.465990,-0.002143,-0.142753,0.000000,0.002525,-0.225296,-0.000000
0.500000,-3.251486,-0.216397,-1.476013,0.343243,-0.000704,-0.054496,1.458658,-0.021215,-0.181800,2.171299,0.060166,0.257240,-9.515543,3.615195,3.338347,-0.002101,-0.144961,0.000000,0.005971,-0.216453,0.000000
0.510000,-3.247980,-0.216405,-1.476567,0.357937,-0.000912,-0.056301,1.479894,-0.020428,-0.179063,2.075873,0.097581,0.290002,-9.576383,3.862841,3.195347,-0.002023,-0.147082,0.000000,0.009667,-0.207560,-0.000000
0.520000,-3.244326,-0.216416,-1.477139,0.372838,-0.001111,-0.058077,1.500173,-0.019255,-0.176005,1.979859,0.137427,0.321187,-9.624416,4.105426,3.039572,-0.001907,-0.149113,0.000000,0.013605,-0.198613,-0.000000
0.530000,-3.240523,-0.216428,-1.477728,0.387937,-0.001296,-0.059820,1.519490,-0.017671,-0.172644,1.883424,0.179670,0.350754,-9.660673,4.342097,2.871740,-0.001750,-0.151054,0.000000,0.017782,-0.189624,0.000000
0.540000,-3.236567,-0.216441,-1.478335,0.403224,-0.001463,-0.061529,1.537841,-0.015654,-0.168996,1.786682,0.224246,0.378584,-9.686183,4.572001,2.692570,-0.001550,-0.152905,0.000000,0.022194,-0.180601,-0.000000
0.550000,-3.232458,-0.216457,-1.478959,0.418690,-0.001607,-0.063199,1.555223,-0.013179,-0.165079,1.689733,0.271084,0.404570,-9.701978,4.794285,2.502780,-0.001305,-0.154666,0.000000,0.026834,-0.171549,0.000000
0.560000,-3.228193,-0.216473,-1.479599,0.434325,-0.001725,-0.064829,1.571636,-0.010225,-0.160911,1.592701,0.320118,0.428654,-9.709837,5.007724,2.301900,-0.001013,-0.156336,0.000000,0.031696,-0.162474,-0.000000
0.570000,-3.223771,-0.216491,-1.480255,0.450120,-0.001810,-0.066417,1.587077,-0.006770,-0.156512,1.495596,0.371225,0.450631,-9.709949,5.211882,2.091985,-0.000671,-0.157915,0.000000,0.036770,-0.153373,-0.000000
0.580000,-3.219190,-0.216510,-1.480927,0.466064,-0.001858,-0.067959,1.601548,-0.002794,-0.151905,1.398524,0.424322,0.470466,-9.703253,5.405953,1.873898,-0.000277,-0.159403,0.000000,0.042048,-0.144251,0.000000
0.590000,-3.214449,-0.216528,-1.481614,0.482148,-0.001864,-0.069454,1.615048,0.001723,-0.147111,1.301550,0.479307,0.488084,-9.690688,5.589130,1.648507,0.000171,-0.160800,0.000000,0.047521,-0.135112,0.000000
0.600000,-3.209546,-0.216547,-1.482316,0.498362,-0.001822,-0.070901,1.627579,0.006799,-0.142151,1.204727,0.536066,0.503415,-9.673193,5.760604,1.416674,0.000674,-0.162105,0.000000,0.053178,-0.125956,0.000000
0.610000,-3.204481,-0.216564,-1.483032,0.514696,-0.001726,-0.072297,1.639143,0.012450,-0.137050,1.108118,0.594492,0.516417,-9.652178,5.919209,1.178807,0.001235,-0.163319,0.000000,0.059011,-0.116786,0.000000
0.620000,-3.199252,-0.216581,-1.483762,0.531141,-0.001571,-0.073641,1.649742,0.018693,-0.131831,1.011715,0.654422,0.526996,-9.628052,6.064541,0.936284,0.001855,-0.164441,0.000000,0.065002,-0.107597,-0.000000
0.630000,-3.193858,-0.216596,-1.484505,0.547688,-0.001350,-0.074933,1.659378,0.025543,-0.126518,0.915565,0.715736,0.535130,-9.601695,6.195838,0.690028,0.002536,-0.165471,0.000000,0.071141,-0.098391,0.000000
0.640000,-3.188298,-0.216608,-1.485260,0.564326,-0.001058,-0.076171,1.668054,0.033012,-0.121136,0.819686,0.778290,0.540787,-9.573989,6.312336,0.440957,0.003278,-0.166409,0.000000,0.077415,-0.089167,0.000000
0.650000,-3.182571,-0.216617,-1.486028,0.581045,-0.000688,-0.077356,1.675773,0.041113,-0.115711,0.724087,0.841931,0.543943,-9.545814,6.413274,0.189993,0.004084,-0.167254,0.000000,0.083807,-0.079924,-0.000000
0.660000,-3.176677,-0.216621,-1.486807,0.597838,-0.000234,-0.078485,1.682537,0.049854,-0.110266,0.628783,0.906512,0.544574,-9.518433,6.497597,-0.061699,0.004955,-0.168007,0.000000,0.090304,-0.070661,-0.000000
0.670000,-3.170614,-0.216621,-1.487597,0.614693,0.000311,-0.079561,1.688350,0.059245,-0.104828,0.533731,0.971839,0.542698,-9.492297,6.564868,-0.313473,0.005891,-0.168667,0.000000,0.096885,-0.061372,0.000000
0.680000,-3.164383,-0.216615,-1.488398,0.631602,0.000953,-0.080582,1.693213,0.069293,-0.099420,0.438930,1.037750,0.538308,-9.468241,6.614360,-0.564437,0.006893,-0.169235,0.000000,0.103536,-0.052055,-0.000000
0.690000,-3.157982,-0.216602,-1.489209,0.648554,0.001699,-0.081549,1.697129,0.080002,-0.094070,0.344356,1.104064,0.531415,-9.447098,6.645345,-0.813700,0.007961,-0.169708,0.000000,0.110236,-0.042708,0.000000
0.700000,-3.151412,-0.216580,-1.490029,0.665541,0.002556,-0.082464,1.700100,0.091375,-0.088800,0.249976,1.170593,0.522042,-9.429703,6.657096,-1.060371,0.009097,-0.170089,0.000000,0.116968,-0.033326,0.000000
0.710000,-3.144671,-0.216550,-1.490858,0.682553,0.003529,-0.083326,1.702129,0.103414,-0.083637,0.155767,1.237147,0.510185,-9.417391,6.648708,-1.302698,0.010301,-0.170375,0.000000,0.123710,-0.023907,0.000000
0.720000,-3.137761,-0.216509,-1.491695,0.699580,0.004626,-0.084137,1.703216,0.116117,-0.078605,0.061632,1.303506,0.495964,-9.410433,6.619653,-1.540757,0.011572,-0.170567,0.000000,0.130440,-0.014442,-0.000000
0.730000,-3.130680,-0.216457,-1.492540,0.716614,0.005853,-0.084898,1.703362,0.129482,-0.073726,-0.032462,1.369469,0.479387,-9.409601,6.569223,-1.773763,0.012910,-0.170664,0.000000,0.137137,-0.004928,0.000000
0.740000,-3.123428,-0.216392,-1.493393,0.733645,0.007218,-0.085612,1.702567,0.143505,-0.069025,-0.126583,1.434817,0.460508,-9.415667,6.496713,-2.000929,0.014314,-0.170665,0.000000,0.143778,0.004641,-0.000000
0.750000,-3.116007,-0.216312,-1.494253,0.750662,0.008726,-0.086280,1.700830,0.158176,-0.064523,-0.220801,1.499327,0.439390,-9.429405,6.401417,-2.221470,0.015785,-0.170571,0.000000,0.150338,0.014271,-0.000000
0.760000,-3.108415,-0.216217,-1.495119,0.767658,0.010384,-0.086903,1.698151,0.173488,-0.060245,-0.315166,1.562768,0.416049,-9.452427,6.282597,-2.433228,0.017321,-0.170379,0.000000,0.156793,0.023966,0.000000
0.770000,-3.100654,-0.216104,-1.495990,0.784622,0.012198,-0.087485,1.694526,0.189427,-0.056209,-0.409843,1.624900,0.390691,-9.484563,6.139581,-2.636958,0.018920,-0.170091,0.000000,0.163117,0.033737,0.000000
0.780000,-3.092723,-0.215972,-1.496868,0.801545,0.014174,-0.088028,1.689952,0.205980,-0.052437,-0.504889,1.685477,0.363339,-9.526481,5.971670,-2.832043,0.020582,-0.169704,0.000000,0.169284,0.043591,-0.000000
0.790000,-3.084623,-0.215820,-1.497751,0.818418,0.016319,-0.088535,1.684426,0.223131,-0.048949,-0.600407,1.744248,0.334081,-9.578851,5.778160,-3.017866,0.022305,-0.169219,0.000000,0.175266,0.053534,0.000000
0.800000,-3.076355,-0.215645,-1.498639,0.835231,0.018639,-0.089008,1.677942,0.240858,-0.045762,-0.696503,1.800952,0.303014,-9.642343,5.558349,-3.193808,0.024087,-0.168633,0.000000,0.181035,0.063574,-0.000000
0.810000,-3.067919,-0.215447,-1.499531,0.851974,0.021138,-0.089451,1.670495,0.259142,-0.042895,-0.793221,1.855316,0.270170,-9.719445,5.311751,-3.357494,0.025925,-0.167946,0.000000,0.186562,0.073713,0.000000
0.820000,-3.059315,-0.215222,-1.500428,0.868637,0.023823,-0.089867,1.662075,0.277956,-0.040364,-0.890852,1.907086,0.235822,-9.808785,5.037421,-3.510280,0.027817,-0.167158,0.000000,0.191819,0.083975,-0.000000
0.830000,-3.050546,-0.214970,-1.501328,0.885212,0.026699,-0.090260,1.652675,0.297274,-0.038183,-0.989439,1.955970,0.200003,-9.910811,4.734633,-3.651765,0.029761,-0.166266,0.000000,0.196775,0.094361,0.000000
0.840000,-3.041612,-0.214687,-1.502233,0.901688,0.029770,-0.090632,1.642283,0.317065,-0.036368,-1.089112,2.001681,0.162826,-10.025968,4.402657,-3.781546,0.031752,-0.165269,0.000000,0.201399,0.104880,-0.000000
0.850000,-3.032513,-0.214373,-1.503141,0.918054,0.033042,-0.090988,1.630888,0.337296,-0.034931,-1.190004,2.043923,0.124412,-10.154705,4.040766,-3.899223,0.033787,-0.164167,0.000000,0.205660,0.115543,0.000000
0.860000,-3.023251,-0.214026,-1.504052,0.934302,0.036518,-0.091332,1.618481,0.357931,-0.033884,-1.292028,2.082389,0.084812,-10.303138,3.648350,-4.002589,0.035864,-0.162957,0.000000,0.209524,0.126337,0.000000
0.870000,-3.013827,-0.213642,-1.504967,0.950420,0.040202,-0.091667,1.605043,0.378930,-0.033238,-1.395859,2.116780,0.044322,-10.465350,3.224548,-4.093266,0.037976,-0.161638,0.000000,0.212961,0.137322,-0.000000
0.880000,-3.004243,-0.213221,-1.505886,0.966399,0.044097,-0.091998,1.590558,0.400252,-0.033001,-1.501380,2.146773,0.002989,-10.641093,2.768617,-4.171075,0.040121,-0.160208,0.000000,0.215937,0.148484,-0.000000
0.890000,-2.994500,-0.212760,-1.506807,0.982228,0.048208,-0.092329,1.575009,0.421850,-0.033181,-1.608726,2.172043,-0.039056,-10.830120,2.279813,-4.235834,0.042294,-0.158665,0.000000,0.218417,0.159832,-0.000000
0.900000,-2.984599,-0.212256,-1.507732,0.997896,0.052535,-0.092663,1.558377,0.443676,-0.033784,-1.718026,2.192257,-0.081683,-11.032182,1.757394,-4.287362,0.044488,-0.157008,0.000000,0.220368,0.171374,-0.000000
0.910000,-2.974542,-0.211708,-1.508661,1.013392,0.057082,-0.093006,1.540646,0.465679,-0.034816,-1.829001,2.207233,-0.124812,-11.257412,1.196671,-4.324132,0.046699,-0.155234,0.000000,0.221770,0.183079,-0.000000
0.920000,-2.964332,-0.211114,-1.509593,1.028705,0.061849,-0.093361,1.521789,0.487801,-0.036281,-1.942749,2.216252,-0.168181,-11.493912,0.601330,-4.347474,0.048921,-0.153341,0.000000,0.222552,0.195049,-0.000000
0.930000,-2.953969,-0.210471,-1.510528,1.043824,0.066838,-0.093733,1.501783,0.509983,-0.038181,-2.058912,2.219143,-0.211717,-11.740164,-0.028889,-4.357372,0.051148,-0.151328,0.000000,0.222696,0.207246,-0.000000
0.940000,-2.943456,-0.209776,-1.511467,1.058737,0.072049,-0.094126,1.480602,0.532162,-0.040516,-2.177579,2.215557,-0.255284,-11.994649,-0.694246,-4.353809,0.053373,-0.149190,0.000000,0.222167,0.219675,0.000000
0.950000,-2.932795,-0.209029,-1.512411,1.073432,0.077481,-0.094545,1.458223,0.554272,-0.043286,-2.298827,2.205140,-0.298748,-12.255849,-1.394999,-4.336769,0.055589,-0.146927,0.000000,0.220931,0.232337,-0.000000
0.960000,-2.921988,-0.208226,-1.513358,1.087897,0.083133,-0.094993,1.434622,0.576245,-0.046490,-2.422270,2.187881,-0.341971,-12.533458,-2.140080,-4.306319,0.057789,-0.144536,0.000000,0.218987,0.245191,-0.000000
0.970000,-2.911038,-0.207366,-1.514311,1.102120,0.089005,-0.095476,1.409768,0.598004,-0.050124,-2.549003,2.162609,-0.384825,-12.813372,-2.920017,-4.262350,0.059966,-0.142014,0.000000,0.216220,0.258341,0.000000
0.980000,-2.899946,-0.206445,-1.515268,1.116088,0.095093,-0.095997,1.383633,0.619470,-0.054185,-2.678535,2.129367,-0.427173,-13.092700,-3.734006,-4.204835,0.062111,-0.139359,0.000000,0.212635,0.271734,0.000000
0.990000,-2.888717,-0.205463,-1.516231,1.129788,0.101393,-0.096561,1.356188,0.640563,-0.058665,-2.810846,2.087818,-0.468877,-13.368551,-4.581247,-4.133747,0.064216,-0.136568,0.000000,0.208201,0.285365,-0.000000
1.000000,-2.877352,-0.204417,-1.517199,1.143207,0.107902,-0.097172,1.327407,0.661198,-0.063559,-2.945885,2.037634,-0.509802,-13.638035,-5.460938,-4.049060,0.066272,-0.133639,0.000000,0.202888,0.299224,0.000000
1.010000,-2.865854,-0.203304,-1.518174,1.156332,0.114615,-0.097834,1.297264,0.681289,-0.068857,-3.083306,1.978749,-0.549722,-13.905059,-6.378705,-3.953048,0.068271,-0.130570,0.000000,0.196691,0.313273,-0.000000
1.020000,-2.854226,-0.202124,-1.519156,1.169148,0.121526,-0.098550,1.265732,0.700742,-0.074550,-3.223639,1.910247,-0.588714,-14.159100,-7.326531,-3.843102,0.070203,-0.127358,0.000000,0.189522,0.327562,0.000000
1.030000,-2.842472,-0.200873,-1.520145,1.181642,0.128628,-0.099326,1.232783,0.719462,-0.080628,-3.366433,1.832123,-0.626536,-14.396434,-8.302827,-3.718915,0.072058,-0.124002,0.000000,0.181384,0.342044,-0.000000
1.040000,-2.830594,-0.199551,-1.521143,1.193799,0.135912,-0.100164,1.198395,0.737351,-0.087077,-3.511500,1.744101,-0.663044,-14.613338,-9.306002,-3.580177,0.073827,-0.120499,0.000000,0.172252,0.356695,0.000000
1.050000,-2.818597,-0.198154,-1.522149,1.205605,0.143371,-0.101069,1.162546,0.754310,-0.093884,-3.658619,1.645919,-0.698090,-14.806086,-10.334469,-3.426582,0.075500,-0.116848,0.000000,0.162105,0.371492,-0.000000
1.060000,-2.806483,-0.196683,-1.523164,1.217045,0.150995,-0.102043,1.125218,0.770238,-0.101032,-3.807454,1.537621,-0.731393,-14.972842,-11.393927,-3.261150,0.077066,-0.113048,0.000000,0.150951,0.386396,0.000000
1.070000,-2.794257,-0.195134,-1.524190,1.228104,0.158772,-0.103090,1.086392,0.785027,-0.108506,-3.957885,1.418295,-0.763112,-15.107765,-12.474605,-3.079836,0.078515,-0.109097,0.000000,0.138703,0.401397,0.000000
1.080000,-2.781923,-0.193507,-1.525227,1.238767,0.166691,-0.104214,1.046056,0.798568,-0.116288,-4.109490,1.288066,-0.792935,-15.206899,-13.574021,-2.881925,0.079837,-0.104995,0.000000,0.125377,0.416449,0.000000
1.090000,-2.769483,-0.191800,-1.526275,1.249020,0.174739,-0.105417,1.004200,0.810751,-0.124358,-4.261891,1.146760,-0.820692,-15.266291,-14.689694,-2.666700,0.081019,-0.100741,0.000000,0.110962,0.431512,0.000000
1.100000,-2.756944,-0.190011,-1.527335,1.258846,0.182901,-0.106702,0.960817,0.821466,-0.132694,-4.414670,0.994227,-0.846208,-15.281986,-15.819141,-2.433446,0.082052,-0.096336,0.000000,0.095448,0.446544,0.000000
1.110000,-2.744308,-0.188141,-1.528409,1.268231,0.191163,-0.108072,0.915905,0.830601,-0.141273,-4.567518,0.830637,-0.869206,-15.246344,-16.967380,-2.183785,0.082925,-0.091780,0.000000,0.078857,0.461513,0.000000
1.120000,-2.731581,-0.186188,-1.529497,1.277159,0.199508,-0.109528,0.869469,0.838040,-0.150070,-4.719591,0.655187,-0.889714,-15.159545,-18.123512,-1.914376,0.083626,-0.087075,0.000000,0.061113,0.476336,-0.000000
1.130000,-2.718766,-0.184151,-1.530600,1.285616,0.207918,-0.111074,0.821517,0.843666,-0.159058,-4.870526,0.468152,-0.907425,-15.018088,-19.284136,-1.624219,0.084143,-0.082221,0.000000,0.042249,0.490976,0.000000
1.140000,-2.705870,-0.182029,-1.531719,1.293585,0.216375,-0.112710,0.772064,0.847364,-0.168208,-5.019759,0.269501,-0.922126,-14.818468,-20.445853,-1.312310,0.084467,-0.077221,0.000000,0.022267,0.505378,-0.000000
1.150000,-2.692896,-0.179823,-1.532854,1.301052,0.224858,-0.114438,0.721130,0.849018,-0.177489,-5.166690,0.059242,-0.933595,-14.557182,-21.605263,-0.977647,0.084585,-0.072078,0.000000,0.001174,0.519484,0.000000
1.160000,-2.679851,-0.177532,-1.534008,1.308003,0.233348,-0.116260,0.668736,0.848513,-0.186868,-5.311020,-0.162334,-0.941590,-14.222273,-22.765308,-0.619473,0.084487,-0.066795,0.000000,-0.020997,0.533265,0.000000
1.170000,-2.666738,-0.175156,-1.535180,1.314422,0.241821,-0.118176,0.614921,0.845732,-0.196309,-5.451288,-0.395748,-0.945891,-13.819726,-23.915468,-0.236511,0.084161,-0.061376,0.000000,-0.044291,0.546581,0.000000
1.180000,-2.653564,-0.172696,-1.536372,1.320296,0.250254,-0.120186,0.559725,0.840560,-0.205773,-5.587181,-0.640596,-0.946234,-13.347073,-25.051567,0.172271,0.083598,-0.055826,0.000000,-0.068665,0.559404,0.000000
1.190000,-2.640334,-0.170151,-1.537584,1.325612,0.258624,-0.122291,0.503195,0.832883,-0.215220,-5.717987,-0.896718,-0.942356,-12.801843,-26.169428,0.607904,0.082785,-0.050151,0.000000,-0.094096,0.571669,0.000000
1.200000,-2.627054,-0.167524,-1.538818,1.330356,0.266903,-0.124491,0.445385,0.822589,-0.224605,-5.842968,-1.163910,-0.933983,-12.181570,-27.264875,1.071420,0.081712,-0.044356,0.000000,-0.120562,0.583307,0.000000
1.210000,-2.613729,-0.164814,-1.540074,1.334516,0.275066,-0.126783,0.386353,0.809572,-0.233884,-5.961775,-1.441619,-0.920938,-11.473296,-28.341524,1.566557,0.080370,-0.038448,0.000000,-0.148004,0.594293,0.000000
1.220000,-2.600365,-0.162023,-1.541354,1.338079,0.283085,-0.129168,0.326174,0.793721,-0.243007,-6.072640,-1.730287,-0.902674,-10.686325,-29.386450,2.091310,0.078749,-0.032434,0.000000,-0.176460,0.604458,0.000000
1.230000,-2.586969,-0.159153,-1.542658,1.341036,0.290931,-0.131642,0.264928,0.774932,-0.251920,-6.175236,-2.029225,-0.879011,-9.819473,-30.394522,2.646380,0.076838,-0.026324,0.000000,-0.205862,0.613780,-0.000000
1.240000,-2.573547,-0.156205,-1.543987,1.343375,0.298574,-0.134205,0.202700,0.753104,-0.260568,-6.268759,-2.338038,-0.849643,-8.871555,-31.360608,3.232466,0.074629,-0.020125,0.000000,-0.236167,0.622192,-0.000000
1.250000,-2.560104,-0.153182,-1.545342,1.345087,0.305983,-0.136853,0.139585,0.728140,-0.268893,-6.352393,-2.656280,-0.814256,-7.841389,-32.279577,3.850270,0.072112,-0.013848,0.000000,-0.267333,0.629624,-0.000000
1.260000,-2.546647,-0.150086,-1.546724,1.346164,0.313126,-0.139582,0.075682,0.699951,-0.276835,-6.425856,-2.983230,-0.772792,-6.713972,-33.151967,4.507110,0.069279,-0.007503,0.000000,-0.299290,0.636063,-0.000000
1.270000,-2.533183,-0.146920,-1.548134,1.346598,0.319970,-0.142388,0.011107,0.668447,-0.284326,-6.487012,-3.318873,-0.724302,-5.503630,-33.966284,5.196257,0.066123,-0.001100,0.000000,-0.332034,0.641313,0.000000
1.280000,-2.519717,-0.143688,-1.549572,1.346384,0.326483,-0.145266,-0.054017,0.633547,-0.291297,-6.535653,-3.662343,-0.668759,-4.210869,-34.716700,5.917603,0.062636,0.005347,0.000000,-0.365488,0.645371,-0.000000
1.290000,-2.506257,-0.140392,-1.551039,1.345517,0.332630,-0.148212,-0.119561,0.595176,-0.297677,-6.570957,-4.012974,-0.605843,-2.836198,-35.397391,6.671038,0.058812,0.011828,0.000000,-0.399591,0.648173,-0.000000
1.300000,-2.492809,-0.137037,-1.552537,1.343992,0.338375,-0.151218,-0.185389,0.553266,-0.303389,-6.592106,-4.370039,-0.535232,-1.380123,-36.002530,7.456452,0.054643,0.018329,0.000000,-0.434280,0.649660,-0.000000
1.310000,-2.479380,-0.133626,-1.554064,1.341809,0.343683,-0.154277,-0.251360,0.507757,-0.308359,-6.598895,-4.732701,-0.457046,0.172131,-36.527626,8.284817,0.050124,0.024837,0.000000,-0.469485,0.649830,-0.000000
1.320000,-2.465975,-0.130165,-1.555622,1.338965,0.348518,-0.157382,-0.317314,0.458596,-0.312501,-6.589084,-5.100241,-0.369929,1.802901,-36.965357,9.143584,0.045251,0.031337,0.000000,-0.505145,0.648486,-0.000000
1.330000,-2.452602,-0.126657,-1.557212,1.335463,0.352843,-0.160524,-0.383086,0.405739,-0.315729,-6.562583,-5.471697,-0.274078,3.509809,-37.309732,10.031287,0.040020,0.037815,0.000000,-0.541184,0.645643,-0.000000
1.340000,-2.439268,-0.123110,-1.558833,1.331305,0.356620,-0.163693,-0.448507,0.349152,-0.317953,-6.518642,-5.846104,-0.169211,5.290475,-37.554762,10.946460,0.034427,0.044255,0.000000,-0.577528,0.641250,-0.000000
1.350000,-2.425979,-0.119527,-1.560486,1.326495,0.359813,-0.166879,-0.513398,0.288811,-0.319082,-6.456535,-6.222441,-0.055062,7.142519,-37.694459,11.887634,0.028469,0.050642,0.000000,-0.614101,0.635260,0.000000
1.360000,-2.412740,-0.115915,-1.562170,1.321039,0.362384,-0.170071,-0.577582,0.224699,-0.319029,-6.376228,-6.599778,0.068018,9.080385,-37.718903,12.868626,0.022144,0.056961,0.000000,-0.650839,0.627688,0.000000
1.370000,-2.399560,-0.112281,-1.563887,1.314946,0.364295,-0.173255,-0.640857,0.156816,-0.317689,-6.275463,-6.976605,0.201699,11.082811,-37.626516,13.870816,0.015452,0.063193,0.000000,-0.687622,0.618345,-0.000000
1.380000,-2.386444,-0.108632,-1.565635,1.308226,0.365508,-0.176420,-0.703024,0.085172,-0.314961,-6.154371,-7.351901,0.345494,13.145360,-37.411791,14.890866,0.008392,0.069323,0.000000,-0.724389,0.607262,-0.000000
1.390000,-2.373397,-0.104974,-1.567415,1.300890,0.365986,-0.179550,-0.763875,0.009788,-0.310745,-6.012371,-7.724414,0.499565,15.263592,-37.069220,15.925437,0.000964,0.075333,0.000000,-0.761056,0.594403,-0.000000
1.400000,-2.360428,-0.101315,-1.569226,1.292953,0.365691,-0.182630,-0.823200,-0.069303,-0.304935,-5.848928,-8.092840,0.664040,17.433067,-36.593296,16.971193,-0.006829,0.081206,0.000000,-0.797541,0.579736,0.000000
1.410000,-2.347540,-0.097663,-1.571068,1.284432,0.364588,-0.185643,-0.880789,-0.152055,-0.297436,-5.664305,-8.456192,0.838304,19.668334,-35.969062,18.042734,-0.014986,0.086923,0.000000,-0.833792,0.563296,0.000000
1.420000,-2.334741,-0.094026,-1.572939,1.275344,0.362638,-0.188572,-0.936410,-0.238403,-0.288133,-5.456276,-8.812166,1.024101,21.943642,-35.201616,19.116587,-0.023503,0.092467,0.000000,-0.869640,0.544892,-0.000000
1.430000,-2.322035,-0.090413,-1.574839,1.265711,0.359808,-0.191399,-0.989838,-0.328270,-0.276919,-5.225321,-9.159732,1.220625,24.252229,-34.286608,20.187216,-0.032377,0.097818,0.000000,-0.905041,0.524575,0.000000
1.440000,-2.309428,-0.086833,-1.576766,1.255556,0.356061,-0.194104,-1.040839,-0.421565,-0.263685,-4.971143,-9.497392,1.427816,26.587330,-33.219686,21.249086,-0.041603,0.102957,0.000000,-0.939909,0.502321,-0.000000
1.450000,-2.296926,-0.083295,-1.578720,1.244903,0.351365,-0.196666,-1.089182,-0.518180,-0.248327,-4.693509,-9.823605,1.645559,28.942182,-31.996500,22.296664,-0.051173,0.107866,0.000000,-0.974156,0.478105,0.000000
1.460000,-2.284532,-0.079809,-1.580699,1.233782,0.345687,-0.199063,-1.134639,-0.618002,-0.230747,-4.392969,-10.137609,1.872990,31.328039,-30.591934,23.341931,-0.061084,0.112526,0.000000,-1.007771,0.451967,0.000000
1.470000,-2.272252,-0.076384,-1.582701,1.222221,0.338995,-0.201272,-1.176962,-0.720883,-0.210833,-4.067739,-10.435829,2.111524,33.717914,-29.024945,24.359691,-0.071326,0.116916,0.000000,-1.040482,0.423736,-0.000000
1.480000,-2.260089,-0.073032,-1.584724,1.210254,0.331260,-0.203271,-1.215914,-0.826664,-0.188483,-3.718627,-10.717560,2.360067,36.102836,-27.293725,25.342265,-0.081891,0.121016,0.000000,-1.072289,0.393463,0.000000
1.490000,-2.248048,-0.069763,-1.586766,1.197915,0.322453,-0.205034,-1.251255,-0.935173,-0.163600,-3.345729,-10.981150,2.618227,38.473836,-25.396467,26.281971,-0.092769,0.124805,0.000000,-1.103100,0.361125,0.000000
1.500000,-2.236132,-0.066587,-1.588824,1.185242,0.312548,-0.206534,-1.282750,-1.046221,-0.136088,-2.949227,-11.224930,2.885538,40.821944,-23.331363,27.171132,-0.103949,0.128262,0.000000,-1.132825,0.326701,-0.000000
1.510000,-2.224344,-0.063515,-1.590895,1.172274,0.301521,-0.207746,-1.310170,-1.159617,-0.105865,-2.530087,-11.448740,3.160982,43.155635,-21.058013,28.014023,-0.115423,0.131368,0.000000,-1.161510,0.290231,-0.000000
1.520000,-2.212687,-0.060560,-1.592978,1.159053,0.289349,-0.208642,-1.333274,-1.275117,-0.072841,-2.087036,-11.647257,3.445060,45.446358,-18.617927,28.789544,-0.127175,0.134098,0.000000,-1.188716,0.251542,-0.000000
1.530000,-2.201164,-0.057732,-1.595067,1.145623,0.276013,-0.209193,-1.351835,-1.392478,-0.036939,-1.621340,-11.820552,3.736518,47.683006,-16.014022,29.488553,-0.139192,0.136432,0.000000,-1.214506,0.210681,0.000000
1.540000,-2.189775,-0.055044,-1.597160,1.132032,0.261494,-0.209371,-1.365628,-1.511439,0.001911,-1.133593,-11.967001,4.034545,49.854475,-13.249215,30.101904,-0.151460,0.138345,0.000000,-1.238780,0.167623,0.000000
1.550000,-2.178523,-0.052506,-1.599253,1.118327,0.245780,-0.209145,-1.374436,-1.631723,0.043770,-0.624505,-12.085010,4.338240,51.949657,-10.326424,30.620456,-0.163962,0.139815,0.000000,-1.261430,0.122341,0.000000
1.560000,-2.167409,-0.050132,-1.601342,1.104561,0.228857,-0.208485,-1.378052,-1.753044,0.088691,-0.095186,-12.173476,4.646574,53.964885,-7.236884,31.035929,-0.176683,0.140818,0.000000,-1.282387,0.074837,-0.000000
1.570000,-2.156432,-0.047933,-1.603421,1.090785,0.210716,-0.207361,-1.376274,-1.875087,0.136714,0.454130,-12.229767,4.958543,55.880704,-3.996626,31.338208,-0.189604,0.141327,0.000000,-1.301425,0.025012,0.000000
1.580000,-2.145593,-0.045922,-1.605487,1.077054,0.191354,-0.205741,-1.368908,-1.997529,0.187870,1.022057,-12.252920,5.272930,57.685097,-0.609997,31.518044,-0.202705,0.141318,0.000000,-1.318461,-0.027130,0.000000
1.590000,-2.134891,-0.044110,-1.607534,1.063426,0.170766,-0.203593,-1.355774,-2.120030,0.242176,1.607420,-12.241493,5.588464,59.366046,2.918653,31.566188,-0.215966,0.140764,0.000000,-1.333353,-0.081617,-0.000000
1.600000,-2.124324,-0.042511,-1.609557,1.049958,0.148954,-0.200887,-1.336706,-2.242239,0.299638,2.208926,-12.194088,5.903784,60.911535,6.584978,31.473388,-0.229365,0.139638,0.000000,-1.345943,-0.138480,-0.000000
1.610000,-2.113891,-0.041135,-1.611550,1.036712,0.125924,-0.197590,-1.311550,-2.363820,0.360254,2.824894,-12.112297,6.218088,62.316243,10.459066,31.213827,-0.242880,0.137911,0.000000,-1.356363,-0.197709,-0.000000
1.620000,-2.103589,-0.039996,-1.613507,1.023748,0.101682,-0.193671,-1.280164,-2.484354,0.423989,3.454417,-11.987831,6.528275,63.560637,14.453018,30.796853,-0.256483,0.135554,0.000000,-1.363694,-0.259413,0.000000
1.630000,-2.093415,-0.039106,-1.615421,1.011130,0.076242,-0.189100,-1.242423,-2.603441,0.490802,4.095530,-11.822882,6.833476,64.631879,18.553369,30.215245,-0.270144,0.132537,0.000000,-1.368074,-0.323570,0.000000
1.640000,-2.083365,-0.038475,-1.617287,0.998921,0.049619,-0.183845,-1.198220,-2.720673,0.560636,4.746435,-11.616453,7.132007,65.517133,22.746657,29.461783,-0.283834,0.128829,0.000000,-1.369284,-0.390189,-0.000000
1.650000,-2.073435,-0.038117,-1.619096,0.987187,0.021836,-0.177877,-1.147468,-2.835629,0.633414,5.405210,-11.367684,7.422115,66.203562,27.019419,28.529245,-0.297518,0.124397,0.000000,-1.367086,-0.459270,0.000000
1.660000,-2.063619,-0.038042,-1.620842,0.975994,-0.007083,-0.171168,-1.090088,-2.947908,0.709060,6.070593,-11.078101,7.703408,66.658313,31.415176,27.374123,-0.311166,0.119210,0.000000,-1.361491,-0.530865,0.000000
1.670000,-2.053913,-0.038263,-1.622517,0.965407,-0.037111,-0.163688,-1.026044,-3.057044,0.787441,6.738529,-10.741772,7.970587,66.891016,35.856504,26.029927,-0.324735,0.113233,0.000000,-1.351573,-0.604788,-0.000000
1.680000,-2.044309,-0.038788,-1.624113,0.955495,-0.068212,-0.155410,-0.955314,-3.162594,0.868424,7.407639,-10.360887,8.223367,66.891284,40.322961,24.493880,-0.338183,0.106436,0.000000,-1.337334,-0.681058,-0.000000
1.690000,-2.034800,-0.039630,-1.625622,0.946323,-0.100350,-0.146311,-0.877896,-3.264113,0.951854,8.075545,-9.935297,8.459816,66.648731,44.794105,22.763207,-0.351466,0.098783,0.000000,-1.318454,-0.759597,0.000000
1.700000,-2.025380,-0.040799,-1.627036,0.937959,-0.133480,-0.136366,-0.793815,-3.361152,1.037559,8.739769,-9.465058,8.677973,66.152970,49.249496,20.835129,-0.364536,0.090244,0.000000,-1.294593,-0.840296,0.000000
1.710000,-2.016038,-0.042303,-1.628347,0.930469,-0.167556,-0.125554,-0.703103,-3.453267,1.125369,9.399384,-8.950547,8.877995,65.351731,53.671711,18.652728,-0.377341,0.080783,0.000000,-1.265495,-0.923168,0.000000
1.720000,-2.006767,-0.044153,-1.629544,0.923918,-0.202527,-0.113853,-0.605858,-3.540016,1.215043,10.047778,-8.391948,9.052790,64.281641,58.036921,16.273999,-0.389826,0.070374,0.000000,-1.230536,-1.007644,0.000000
1.730000,-1.997557,-0.046356,-1.630621,0.918373,-0.238337,-0.101247,-0.502188,-3.620962,1.306342,10.684104,-7.790068,9.202833,62.937442,62.324317,13.702792,-0.401931,0.058987,0.000000,-1.189430,-1.093654,-0.000000
1.740000,-1.988396,-0.048922,-1.631566,0.913896,-0.274926,-0.087722,-0.392226,-3.695676,1.399011,11.305595,-7.145791,9.326217,61.313877,66.513088,10.942961,-0.413593,0.046599,0.000000,-1.141768,-1.180896,0.000000
1.750000,-1.979275,-0.051857,-1.632372,0.910549,-0.312228,-0.073263,-0.276135,-3.763740,1.492772,11.909432,-6.460205,9.421076,59.405689,70.582424,7.998357,-0.424743,0.033188,0.000000,-1.087135,-1.269003,-0.000000
1.760000,-1.970181,-0.055169,-1.633028,0.908392,-0.350177,-0.057864,-0.154083,-3.824761,1.587359,12.494843,-5.735921,9.488209,57.154559,74.544629,4.806455,-0.435314,0.018737,0.000000,-1.025375,-1.357765,-0.000000
1.770000,-1.961103,-0.058863,-1.633526,0.907486,-0.388698,-0.041516,-0.026318,-3.878329,1.682426,13.053930,-4.971341,9.519605,54.614789,78.341723,1.445614,-0.445225,0.003238,0.000000,-0.955480,-1.446115,-0.000000
1.780000,-1.952027,-0.062944,-1.633856,0.907884,-0.427717,-0.024215,0.106906,-3.924064,1.777637,13.586181,-4.169719,9.516598,51.787617,81.948841,-2.072187,-0.454396,-0.013309,0.000000,-0.877366,-1.533691,0.000000
1.790000,-1.942941,-0.067418,-1.634007,0.909641,-0.467152,-0.005963,0.245307,-3.961606,1.872639,14.088729,-3.333080,9.477678,48.674283,85.341119,-5.734967,-0.462744,-0.030896,0.000000,-0.790710,-1.619790,-0.000000
1.800000,-1.933830,-0.072289,-1.633972,0.912806,-0.506921,0.013236,0.388572,-3.990617,1.967066,14.558717,-2.463696,9.401456,45.276027,88.493691,-9.530747,-0.470181,-0.049504,0.000000,-0.695253,-1.703616,-0.000000
1.810000,-1.924680,-0.077558,-1.633739,0.917427,-0.546935,0.033374,0.536397,-4.010767,2.060567,14.996435,-1.562968,9.289254,41.514990,91.353395,-13.513062,-0.476619,-0.069107,0.000000,-0.590832,-1.784667,0.000000
1.820000,-1.915476,-0.083228,-1.633301,0.923547,-0.587106,0.054442,0.688371,-4.021785,2.152717,15.391639,-0.636318,9.133783,37.481195,93.927129,-17.596394,-0.481967,-0.089657,0.000000,-0.477351,-1.861064,-0.000000
1.830000,-1.906204,-0.089300,-1.632648,0.931206,-0.627340,0.076422,0.844091,-4.023413,2.243106,15.745186,0.314550,8.937056,33.185570,96.193492,-21.760740,-0.486136,-0.111091,0.000000,-0.354887,-1.932170,-0.000000
1.840000,-1.896847,-0.095774,-1.631770,0.940440,-0.667542,0.099296,1.003127,-4.015424,2.331318,16.054514,1.286456,8.698364,28.639038,98.131083,-25.986098,-0.489036,-0.133336,0.000000,-0.223654,-1.996875,-0.000000
1.850000,-1.887390,-0.102650,-1.630659,0.951279,-0.707616,0.123040,1.165026,-3.997625,2.416931,16.317167,2.276004,8.417197,23.852525,99.718502,-30.252465,-0.490581,-0.156298,0.000000,-0.084039,-2.054030,0.000000
1.860000,-1.877816,-0.109926,-1.629306,0.963748,-0.747462,0.147624,1.329333,-3.969852,2.499539,16.533124,3.280119,8.095089,18.778294,100.920922,-34.586406,-0.490691,-0.179874,0.000000,0.063364,-2.102790,-0.000000
1.870000,-1.868109,-0.117599,-1.627704,0.977871,-0.786979,0.173019,1.495516,-3.931989,2.578688,16.694649,4.293718,7.727564,13.493115,101.732015,-38.915648,-0.489290,-0.203936,0.000000,0.217829,-2.141267,0.000000
1.880000,-1.858253,-0.125664,-1.625843,0.993663,-0.826067,0.199185,1.663046,-3.883957,2.653947,16.802343,5.313389,7.316877,8.015098,102.132023,-43.214488,-0.486314,-0.228344,0.000000,0.378336,-2.168710,0.000000
1.890000,-1.848230,-0.134118,-1.623717,1.011134,-0.864624,0.226083,1.831377,-3.825715,2.724884,16.854368,6.334922,6.863461,2.362352,102.101192,-47.457221,-0.481707,-0.252946,0.000000,0.543685,-2.184116,-0.000000
1.900000,-1.838024,-0.142955,-1.621319,1.030291,-0.902548,0.253667,1.999942,-3.757267,2.791076,16.849068,7.353911,6.368005,-3.447016,101.619765,-51.618141,-0.475429,-0.277580,0.000000,0.712479,-2.186608,-0.000000
1.910000,-1.827619,-0.152167,-1.618642,1.051130,-0.939739,0.281887,2.168222,-3.678534,2.852111,16.790443,8.377394,5.831874,-9.533229,100.373891,-55.682076,-0.467437,-0.302084,0.000000,0.884503,-2.176136,-0.000000
1.920000,-1.816996,-0.161747,-1.615679,1.073650,-0.976089,0.310691,2.335547,-3.589768,2.907580,16.664234,9.373004,5.255282,-15.722907,98.673920,-59.611500,-0.457739,-0.326273,0.000000,1.054839,-2.150595,-0.000000
1.930000,-1.806140,-0.171685,-1.612426,1.097836,-1.011502,0.340019,2.501299,-3.491138,2.957088,16.475757,10.349412,4.640182,-21.981004,96.536109,-63.379419,-0.446347,-0.349973,0.000000,1.223180,-2.110431,-0.000000
1.940000,-1.795034,-0.181973,-1.608878,1.123669,-1.045880,0.369811,2.664852,-3.382858,3.000261,16.224503,11.302321,3.988322,-28.272473,93.976714,-66.958838,-0.433289,-0.373010,0.000000,1.387700,-2.055595,-0.000000
1.950000,-1.783661,-0.192599,-1.605029,1.151124,-1.079128,0.400002,2.825579,-3.265184,3.036739,15.910313,12.227596,3.301724,-34.562266,91.011991,-70.322764,-0.418612,-0.395217,0.000000,1.546594,-1.986288,-0.000000
1.960000,-1.772006,-0.203552,-1.600876,1.180170,-1.111151,0.430523,2.982818,-3.138468,3.066168,15.530480,13.116117,2.580950,-40.742096,87.788185,-73.400621,-0.402387,-0.416435,0.000000,1.697541,-1.902537,0.000000
1.970000,-1.760053,-0.214818,-1.596417,1.210767,-1.141866,0.461302,3.135983,-3.002976,3.088260,15.092411,13.976260,1.832646,-46.859125,84.175646,-76.214333,-0.384690,-0.436526,0.000000,1.840280,-1.806015,-0.000000
1.980000,-1.747786,-0.226384,-1.591650,1.242874,-1.171183,0.492263,3.284464,-2.859069,3.102732,14.593594,14.798336,1.057616,-52.887274,80.174711,-78.742241,-0.365616,-0.455363,0.000000,1.972687,-1.697127,0.000000
1.990000,-1.735191,-0.238236,-1.586572,1.276439,-1.199020,0.523330,3.427656,-2.707149,3.109333,14.035049,15.578461,0.258826,-58.800463,75.785719,-80.962688,-0.345276,-0.472837,0.000000,2.093435,-1.576915,0.000000
2.000000,-1.722252,-0.250359,-1.581183,1.311407,-1.225301,0.554423,3.564970,-2.547653,3.107840,13.418055,16.312758,-0.560541,-64.572614,71.009008,-82.854016,-0.323790,-0.488851,0.000000,2.201384,-1.446561,0.000000
2.010000,-1.708958,-0.262737,-1.575484,1.347716,-1.249953,0.585460,3.695846,-2.380953,3.098027,12.745816,17.007186,-1.400576,-70.219641,65.596479,-84.306394,-0.301279,-0.503330,0.000000,2.296906,-1.307328,-0.000000
2.020000,-1.695294,-0.275353,-1.569474,1.385300,-1.272901,0.616356,3.819701,-2.207696,3.079786,12.016198,17.634590,-2.249399,-75.668331,59.827329,-85.397135,-0.277902,-0.516214,0.000000,2.376164,-1.160648,0.000000
2.030000,-1.681248,-0.288189,-1.563157,1.424085,-1.294087,0.647027,3.935992,-2.028459,3.053009,11.233215,18.202647,-3.107277,-80.887461,53.732319,-86.115375,-0.253807,-0.527457,0.000000,2.440198,-1.007910,0.000000
2.040000,-1.666808,-0.301228,-1.556535,1.463993,-1.313452,0.677388,4.044196,-1.843851,3.017623,10.399318,18.708252,-3.970429,-85.845811,47.342207,-86.450255,-0.229149,-0.537032,0.000000,2.488812,-0.850545,-0.000000
2.050000,-1.651965,-0.314452,-1.549611,1.504941,-1.330948,0.707351,4.143817,-1.654511,2.973596,9.517272,19.148610,-4.834968,-90.512159,40.687755,-86.390913,-0.204082,-0.544922,0.000000,2.522039,-0.689968,0.000000
2.060000,-1.636706,-0.327841,-1.542389,1.546839,-1.346531,0.736832,4.234395,-1.461020,2.920880,8.590513,19.529065,-5.701679,-94.864411,33.601789,-85.805700,-0.178748,-0.551122,0.000000,2.541134,-0.527292,0.000000
2.070000,-1.621025,-0.341376,-1.534876,1.589597,-1.360160,0.765742,4.315488,-1.264169,2.859588,7.621576,19.828886,-6.555137,-98.861102,26.337237,-84.819332,-0.153309,-0.555643,0.000000,2.544093,-0.364476,-0.000000
2.080000,-1.604912,-0.355038,-1.527077,1.633116,-1.371806,0.793996,4.386699,-1.064686,2.789817,6.614584,20.055398,-7.396742,-102.469893,18.949096,-83.435739,-0.127913,-0.558506,0.000000,2.532744,-0.202463,-0.000000
2.090000,-1.588360,-0.368806,-1.518999,1.677297,-1.381447,0.821510,4.447667,-0.863309,2.711706,5.573579,20.207640,-8.222541,-105.658445,11.492362,-81.658850,-0.102699,-0.559736,0.000000,2.507890,-0.042413,-0.000000
2.100000,-1.571364,-0.382660,-1.510649,1.722034,-1.389068,0.848203,4.498072,-0.660782,2.625432,4.502924,20.285200,-9.028621,-108.394421,4.022031,-79.492594,-0.077798,-0.559371,0.000000,2.470457,0.114610,-0.000000
2.110000,-1.553918,-0.396580,-1.502038,1.767225,-1.394659,0.873994,4.537532,-0.457947,2.531157,3.397168,20.279629,-9.816202,-110.389407,-3.189961,-76.812223,-0.053340,-0.557438,0.000000,2.420465,0.268934,0.000000
2.120000,-1.536019,-0.410546,-1.493173,1.812752,-1.398225,0.898802,4.565957,-0.255429,2.429204,2.285324,20.211949,-10.569391,-111.898495,-10.332122,-73.766100,-0.029422,-0.554003,0.000000,2.361360,0.416577,-0.000000
2.130000,-1.517662,-0.424538,-1.484065,1.858507,-1.399771,0.922553,4.583196,-0.053944,2.319877,1.160821,20.073314,-11.290371,-112.920703,-17.376019,-70.373908,-0.006143,-0.549123,0.000000,2.293044,0.558317,0.000000
2.140000,-1.498848,-0.438535,-1.474725,1.904378,-1.399310,0.945176,4.589147,0.145804,2.203515,0.028536,19.864851,-11.975781,-113.455049,-24.293222,-66.655335,0.016411,-0.542857,0.000000,2.216550,0.693550,0.000000
2.150000,-1.479575,-0.452518,-1.465165,1.950252,-1.396863,0.966601,4.583757,0.343125,2.080490,-1.106650,19.587967,-12.622455,-113.500551,-31.055297,-62.630064,0.038164,-0.535272,0.000000,2.132883,0.821780,0.000000
2.160000,-1.459843,-0.466466,-1.455398,1.996016,-1.392459,0.986766,4.566983,0.537395,1.951165,-2.243322,19.249344,-13.231058,-112.968341,-37.759793,-58.226027,0.059054,-0.526427,0.000000,2.043540,0.943127,0.000000
2.170000,-1.439655,-0.480360,-1.445435,2.041555,-1.386130,1.005607,4.538917,0.727892,1.816020,-3.368340,18.839153,-13.790218,-111.956083,-44.236871,-53.565899,0.079017,-0.516400,0.000000,1.948180,1.056024,0.000000
2.180000,-1.419013,-0.494182,-1.435290,2.086757,-1.377916,1.023069,4.499658,0.913967,1.675520,-4.480876,18.365511,-14.301625,-110.473557,-50.442674,-48.680599,0.098003,-0.505265,0.000000,1.848338,1.160868,0.000000
2.190000,-1.397922,-0.507913,-1.424978,2.131511,-1.367867,1.039101,4.449356,1.095000,1.530154,-5.576276,17.831350,-14.763183,-108.530540,-56.333344,-43.601048,0.115972,-0.493096,0.000000,1.744894,1.257529,-0.000000
2.200000,-1.376385,-0.521533,-1.414513,2.175708,-1.356035,1.053657,4.388205,1.270403,1.380429,-6.649985,17.240041,-15.173102,-106.136812,-61.865022,-38.358166,0.132891,-0.479970,0.000000,1.638691,1.345947,0.000000
2.210000,-1.354410,-0.535027,-1.403910,2.219241,-1.342477,1.066697,4.316392,1.439533,1.226855,-7.702343,16.587122,-15.531177,-103.180914,-66.784954,-32.950746,0.148730,-0.465958,0.000000,1.529725,1.426617,-0.000000
2.220000,-1.332003,-0.548378,-1.393184,2.262003,-1.327264,1.078184,4.234264,1.601989,1.069987,-8.717628,15.896420,-15.833226,-99.808708,-71.283757,-27.445770,0.163483,-0.451146,0.000000,1.420712,1.498401,-0.000000
2.230000,-1.309172,-0.561567,-1.382351,2.303894,-1.310461,1.088088,4.142158,1.757319,0.910375,-9.697211,15.162911,-16.079883,-96.044819,-75.343153,-21.878092,0.177143,-0.435612,0.000000,1.311393,1.561985,-0.000000
2.240000,-1.285928,-0.574582,-1.371428,2.344814,-1.292142,1.096384,4.040451,1.905119,0.748576,-10.637300,14.391082,-16.270695,-91.913871,-78.944862,-16.282566,0.189712,-0.419436,0.000000,1.202404,1.617532,0.000000
2.250000,-1.262280,-0.587405,-1.360429,2.384672,-1.272385,1.103054,3.929556,2.045029,0.585148,-11.534347,13.585601,-16.405558,-87.440489,-82.070607,-10.694048,0.201194,-0.402696,0.000000,1.094331,1.665245,-0.000000
2.260000,-1.238238,-0.600025,-1.349372,2.423377,-1.251267,1.108083,3.809889,2.176668,0.420666,-12.387834,12.745171,-16.483255,-82.578994,-84.546850,-5.184275,0.211597,-0.385469,0.000000,0.987197,1.705560,-0.000000
2.270000,-1.213816,-0.612427,-1.338273,2.460843,-1.228878,1.111465,3.681966,2.299858,0.255665,-13.188117,11.889378,-16.507837,-77.432922,-86.529582,0.253299,0.220945,-0.367832,0.000000,0.882753,1.738273,-0.000000
2.280000,-1.189026,-0.624598,-1.327148,2.496991,-1.205299,1.113196,3.546302,2.414398,0.090689,-13.935655,11.016222,-16.478531,-72.035506,-88.019535,5.588336,0.229261,-0.349862,0.000000,0.780823,1.763897,0.000000
2.290000,-1.163881,-0.636529,-1.316015,2.531745,-1.180619,1.113280,3.403436,2.520141,-0.073730,-14.628100,10.130627,-16.396513,-66.419980,-89.017441,10.790497,0.236571,-0.331630,0.000000,0.681797,1.782747,0.000000
2.300000,-1.138396,-0.648207,-1.304888,2.565037,-1.154926,1.111725,3.253930,2.616986,-0.237070,-15.263438,9.237511,-16.263265,-60.619576,-89.524033,15.829445,0.242907,-0.313208,0.000000,0.586020,1.795156,-0.000000
2.310000,-1.112585,-0.659624,-1.293786,2.596804,-1.128307,1.108543,3.098363,2.704817,-0.398790,-15.840031,8.335735,-16.076924,-54.666399,-89.387319,20.582746,0.248299,-0.294664,0.000000,0.493354,1.801389,0.000000
2.320000,-1.086465,-0.670771,-1.282723,2.626986,-1.100857,1.103755,2.937330,2.783713,-0.558454,-16.356422,7.444517,-15.848208,-48.594948,-88.779456,25.123434,0.252788,-0.276061,0.000000,0.405143,1.802016,0.000000
2.330000,-1.060051,-0.681639,-1.271716,2.655534,-1.072663,1.097382,2.771439,2.853735,-0.715607,-16.811647,6.561652,-15.575227,-42.438596,-87.719878,29.432450,0.256415,-0.257461,0.000000,0.321078,1.797275,0.000000
2.340000,-1.033360,-0.692222,-1.260780,2.682401,-1.043812,1.089453,2.601304,2.914988,-0.869819,-17.205022,5.691560,-15.260394,-36.230712,-86.228017,33.490732,0.259224,-0.238920,0.000000,0.241338,1.787523,-0.000000
2.350000,-1.006409,-0.702513,-1.249932,2.707548,-1.014392,1.079997,2.427546,2.967623,-1.020684,-17.536201,4.838468,-14.906312,-30.004668,-84.323307,37.279219,0.261257,-0.220492,0.000000,0.166061,1.773114,0.000000
2.360000,-0.979215,-0.712508,-1.239185,2.730941,-0.984487,1.069050,2.250809,3.011789,-1.167774,-17.803172,4.002830,-14.511210,-23.844204,-81.934869,40.663604,0.262558,-0.202230,0.000000,0.095151,1.754165,-0.000000
2.370000,-0.951796,-0.722202,-1.228556,2.752555,-0.954182,1.056654,2.071687,3.047765,-1.310800,-18.010978,3.196948,-14.088874,-17.726154,-79.183507,43.754184,0.263176,-0.184178,0.000000,0.029172,1.731601,-0.000000
2.380000,-0.924170,-0.731591,-1.218057,2.772369,-0.923558,1.042849,1.890792,3.075825,-1.449454,-18.157928,2.420268,-13.637122,-11.677724,-76.099712,46.546010,0.263157,-0.166377,0.000000,-0.032074,1.705459,-0.000000
2.390000,-0.896355,-0.740672,-1.207703,2.790367,-0.892691,1.027680,1.708728,3.096278,-1.583455,-18.244855,1.675960,-13.158966,-5.726117,-72.713975,49.034133,0.262550,-0.148865,0.000000,-0.088578,1.676049,0.000000
2.400000,-0.868369,-0.749444,-1.197508,2.806542,-0.861656,1.011196,1.526091,3.109462,-1.712555,-18.272863,0.966893,-12.657468,0.101463,-69.056788,51.213603,0.261401,-0.131677,0.000000,-0.140354,1.643676,-0.000000
2.410000,-0.840230,-0.757905,-1.187483,2.820888,-0.830524,0.993445,1.343502,3.115731,-1.836492,-18.239738,0.294546,-12.131604,5.687096,-65.131307,52.975014,0.259758,-0.114849,0.000000,-0.187451,1.608303,-0.000000
2.420000,-0.811957,-0.766054,-1.177643,2.833412,-0.799363,0.974482,1.161480,3.115487,-1.955134,-18.155629,-0.336263,-11.594324,11.105402,-60.998706,54.430664,0.257668,-0.098403,0.000000,-0.229910,1.570994,-0.000000
2.430000,-0.783568,-0.773892,-1.167998,2.844122,-0.768235,0.954360,0.980567,3.109146,-2.068335,-18.018241,-0.924851,-11.043984,16.340286,-56.692825,55.588397,0.255175,-0.082364,0.000000,-0.267824,1.531611,0.000000
2.440000,-0.755081,-0.781419,-1.158559,2.853029,-0.737199,0.933134,0.801286,3.097136,-2.175980,-17.829489,-1.469655,-10.483523,21.375652,-52.247502,56.456053,0.252326,-0.066753,0.000000,-0.301289,1.490385,-0.000000
2.450000,-0.726513,-0.788637,-1.149339,2.860154,-0.706310,0.910860,0.624142,3.079903,-2.277981,-17.591447,-1.969449,-9.915803,26.195406,-47.696577,57.041475,0.249164,-0.051587,0.000000,-0.330420,1.447531,-0.000000
2.460000,-0.697883,-0.795546,-1.140345,2.865520,-0.675617,0.887593,0.449651,3.057914,-2.374250,-17.302929,-2.422108,-9.340792,30.696977,-43.105170,57.281375,0.245733,-0.036888,0.000000,-0.355197,1.402976,0.000000
2.470000,-0.669209,-0.802150,-1.131590,2.869156,-0.645166,0.863393,0.278229,3.031615,-2.464793,-16.974438,-2.830017,-8.767860,34.961333,-38.472008,57.263434,0.242073,-0.022663,0.000000,-0.376111,1.357570,-0.000000
2.480000,-0.640506,-0.808450,-1.123081,2.871096,-0.614998,0.838316,0.110301,3.001468,-2.549612,-16.604512,-3.191509,-8.196328,38.982966,-33.827098,57.004203,0.238224,-0.008924,0.000000,-0.393141,1.311155,-0.000000
2.490000,-0.611792,-0.814451,-1.114826,2.871375,-0.585148,0.812420,-0.053731,2.967939,-2.628732,-16.195606,-3.506620,-7.628525,42.756369,-29.200449,56.520232,0.234223,0.004320,0.000000,-0.406441,1.263878,-0.000000
2.500000,-0.583084,-0.820155,-1.106835,2.870036,-0.555649,0.785760,-0.213490,2.931489,-2.702202,-15.750230,-3.775679,-7.066617,46.276034,-24.622069,55.828073,0.230107,0.017061,0.000000,-0.416172,1.215874,0.000000
2.510000,-0.554397,-0.825565,-1.099113,2.867120,-0.526527,0.758394,-0.368594,2.892607,-2.770079,-15.268270,-3.996599,-6.511522,49.468776,-20.190730,54.916982,0.225913,0.029291,0.000000,-0.422279,1.167064,-0.000000
2.520000,-0.525746,-0.830686,-1.091669,2.862679,-0.497804,0.730376,-0.518753,2.851704,-2.832466,-14.758688,-4.176757,-5.967631,52.405053,-15.859256,53.834148,0.221672,0.041010,0.000000,-0.425469,1.118048,-0.000000
2.530000,-0.497148,-0.835523,-1.084508,2.856763,-0.469498,0.701762,-0.663674,2.809214,-2.889471,-14.221014,-4.314189,-5.435345,55.087647,-11.649235,52.599464,0.217414,0.052212,0.000000,-0.425661,1.068690,-0.000000
2.540000,-0.468616,-0.840078,-1.077636,2.849424,-0.441624,0.672605,-0.803088,2.765558,-2.941216,-13.657771,-4.410219,-4.916082,57.519338,-7.582257,51.232823,0.213168,0.062898,0.000000,-0.423029,1.019078,0.000000
2.550000,-0.440164,-0.844357,-1.071057,2.840720,-0.414190,0.642955,-0.936752,2.721142,-2.987840,-13.071455,-4.466383,-4.411062,59.702905,-3.679908,49.754118,0.208962,0.073066,0.000000,-0.417749,0.969288,0.000000
2.560000,-0.411806,-0.848363,-1.064778,2.830709,-0.387203,0.612865,-1.064433,2.676392,-3.029494,-12.463082,-4.481205,-3.921826,61.604517,-0.045414,48.196354,0.204824,0.082714,0.000000,-0.409764,0.919281,-0.000000
2.570000,-0.383554,-0.852102,-1.058801,2.819452,-0.360663,0.582381,-1.185955,2.631636,-3.066329,-11.838523,-4.464306,-3.447966,63.268050,3.391269,46.564707,0.200774,0.091844,0.000000,-0.399813,0.869391,0.000000
2.580000,-0.355421,-0.855578,-1.053131,2.807011,-0.334569,0.551553,-1.301152,2.587217,-3.098509,-11.198490,-4.414078,-2.990717,64.700767,6.618551,44.877467,0.196835,0.100459,0.000000,-0.387805,0.819547,0.000000
2.590000,-0.327418,-0.858795,-1.047771,2.793450,-0.308917,0.520426,-1.409880,2.543459,-3.126201,-10.545253,-4.332672,-2.550541,65.909931,9.624840,43.152921,0.193025,0.108559,0.000000,-0.373916,0.769802,-0.000000
2.600000,-0.299555,-0.861758,-1.042724,2.778835,-0.283697,0.489044,-1.512020,2.500660,-3.149577,-9.881012,-4.222356,-2.127722,66.902807,12.398543,41.409357,0.189362,0.116147,0.000000,-0.358317,0.720203,-0.000000
2.610000,-0.271844,-0.864470,-1.037991,2.763232,-0.258900,0.457449,-1.607467,2.459132,-3.168831,-9.207495,-4.082558,-1.723987,67.676595,14.853383,39.706236,0.185866,0.123225,0.000000,-0.340985,0.670748,0.000000
2.620000,-0.244294,-0.866937,-1.033575,2.746708,-0.234510,0.425681,-1.696147,2.419087,-3.184114,-8.527700,-3.922777,-1.335393,68.249853,17.061599,38.015632,0.182547,0.129798,0.000000,-0.322560,0.621587,-0.000000
2.630000,-0.216913,-0.869162,-1.029478,2.729332,-0.210513,0.393779,-1.778005,2.380746,-3.195595,-7.843138,-3.742156,-0.963588,68.631077,19.020746,36.350791,0.179418,0.135868,0.000000,-0.302986,0.572708,0.000000
2.640000,-0.189710,-0.871149,-1.025700,2.711171,-0.186889,0.361781,-1.853001,2.344305,-3.203440,-7.155690,-3.543200,-0.608248,68.828762,20.728378,34.724961,0.176490,0.141440,0.000000,-0.282427,0.524148,-0.000000
2.650000,-0.162692,-0.872901,-1.022243,2.692295,-0.163620,0.329722,-1.921115,2.309935,-3.207813,-6.467147,-3.328435,-0.268915,68.851405,22.182047,33.151388,0.173772,0.146518,0.000000,-0.261044,0.475942,-0.000000
2.660000,-0.135866,-0.874422,-1.019106,2.672772,-0.140684,0.297637,-1.982353,2.277805,-3.208894,-5.779866,-3.098107,0.052799,68.723893,23.321040,31.698869,0.171273,0.151107,0.000000,-0.238855,0.428146,0.000000
2.670000,-0.109238,-0.875715,-1.016290,2.652671,-0.118057,0.265556,-2.036719,2.248006,-3.206804,-5.093934,-2.860252,0.362822,68.436322,24.208314,30.318299,0.168997,0.155210,0.000000,-0.216351,0.380738,-0.000000
2.680000,-0.082814,-0.876784,-1.013794,2.632060,-0.095715,0.233511,-2.084244,2.220626,-3.201682,-4.411651,-2.614764,0.659426,67.995181,24.848556,29.016121,0.166947,0.158833,0.000000,-0.193526,0.333780,0.000000
2.690000,-0.056599,-0.877631,-1.011619,2.611008,-0.073636,0.201532,-2.124969,2.195728,-3.193658,-3.734521,-2.364089,0.943428,67.406957,25.246455,27.798781,0.165127,0.161981,0.000000,-0.170528,0.287306,-0.000000
2.700000,-0.030595,-0.878258,-1.009764,2.589583,-0.051793,0.169647,-2.158956,2.173353,-3.182853,-3.063981,-2.110627,1.215706,66.678139,25.406700,26.672722,0.163537,0.164660,0.000000,-0.147499,0.241350,0.000000
2.710000,-0.004808,-0.878667,-1.008226,2.567852,-0.030161,0.137884,-2.186282,2.153536,-3.169403,-2.401997,-1.855015,1.475052,65.830170,25.290629,25.698845,0.162178,0.166876,0.000000,-0.124481,0.195965,-0.000000
2.720000,0.020761,-0.878861,-1.007005,2.545880,-0.008714,0.106268,-2.207026,2.136245,-3.153383,-1.748477,-1.603622,1.727577,64.852752,24.951590,24.822471,0.161046,0.168634,0.000000,-0.101847,0.151147,-0.000000
2.730000,0.046109,-0.878842,-1.006100,2.523733,0.012572,0.074825,-2.221286,2.121448,-3.134879,-1.105358,-1.356693,1.971825,63.750542,24.399577,24.043376,0.160139,0.169941,0.000000,-0.079617,0.106952,-0.000000
2.740000,0.071235,-0.878610,-1.005508,2.501475,0.033723,0.043578,-2.229172,2.109090,-3.113970,-0.473866,-1.116307,2.208768,62.528197,23.644589,23.361336,0.159452,0.170803,0.000000,-0.057917,0.063418,0.000000
2.750000,0.096138,-0.878168,-1.005228,2.479170,0.054762,0.012553,-2.230806,2.099094,-3.090725,0.144821,-0.884445,2.439375,61.190374,22.696622,22.776129,0.158979,0.171228,0.000000,-0.036869,0.020585,-0.000000
2.760000,0.120819,-0.877516,-1.005256,2.456880,0.075712,-0.018228,-2.226328,2.091374,-3.065220,0.749062,-0.662213,2.662870,59.754595,21.546166,22.331540,0.158713,0.171223,0.000000,-0.016551,-0.021492,-0.000000
2.770000,0.145276,-0.876654,-1.005591,2.434664,0.096597,-0.048743,-2.215875,2.085808,-3.037481,1.338979,-0.453219,2.884344,58.211077,20.225113,21.977946,0.158645,0.170795,0.000000,0.002838,-0.062808,0.000000
2.780000,0.169512,-0.875584,-1.006230,2.412582,0.117435,-0.078970,-2.199601,2.082263,-3.007543,1.912935,-0.258238,3.102714,56.562901,18.745849,21.709736,0.158766,0.169953,0.000000,0.021232,-0.103306,-0.000000
2.790000,0.193529,-0.874305,-1.007170,2.390691,0.138248,-0.108887,-2.177673,2.080592,-2.975434,2.469899,-0.078788,3.318805,54.813149,17.120757,21.521297,0.159066,0.168706,0.000000,0.038531,-0.142941,0.000000
2.800000,0.217327,-0.872819,-1.008407,2.369046,0.159053,-0.138472,-2.150263,2.080631,-2.941172,3.008870,0.083733,3.533387,52.964904,15.362225,21.407015,0.159533,0.167061,0.000000,0.054639,-0.181670,-0.000000
