time,x,y,z,vx,vy,vz,ax,ay,az,jx,jy,jz,sx,sy,sz,roll,pitch,yaw,p,q,r
0.000000,-3.005077,0.315305,-1.491552,-0.006510,0.001024,0.004222,0.566995,-0.083080,0.053281,-19.044619,2.466011,-2.187556,491.389156,-64.743628,49.302626,-0.008501,-0.058048,0.000000,0.253245,1.958294,-0.000000
0.010000,-3.005117,0.315311,-1.491507,-0.001713,0.000307,0.004653,0.399855,-0.061503,0.033732,-14.506495,1.864255,-1.735760,417.528594,-55.752913,41.204965,-0.006286,-0.040878,0.000000,0.191258,1.488590,0.000000
0.020000,-3.005116,0.315311,-1.491459,0.001627,-0.000224,0.004910,0.274530,-0.045509,0.018310,-10.668847,1.348119,-1.360562,351.228087,-47.612558,33.975578,-0.004646,-0.028030,0.000000,0.138126,1.092607,-0.000000
0.030000,-3.005088,0.315307,-1.491409,0.003895,-0.000620,0.005031,0.184389,-0.034283,0.006293,-7.458048,0.909311,-1.053507,292.093146,-40.280094,27.568640,-0.003496,-0.018806,0.000000,0.093060,0.762484,0.000000
0.040000,-3.005041,0.315299,-1.491359,0.005412,-0.000923,0.005045,0.123513,-0.027092,-0.002960,-4.804414,0.539965,-0.806601,239.729338,-33.713050,21.938347,-0.002761,-0.012586,0.000000,0.055231,0.490554,-0.000000
0.050000,-3.004981,0.315289,-1.491309,0.006445,-0.001173,0.004979,0.086663,-0.023277,-0.010014,-2.642211,0.232640,-0.612305,193.741637,-27.869017,17.038769,-0.002370,-0.008825,0.000000,0.023831,0.269592,0.000000
0.060000,-3.004913,0.315276,-1.491260,0.007210,-0.001398,0.004851,0.069237,-0.022256,-0.015358,-0.909643,-0.019683,-0.463542,153.736110,-22.705463,12.824187,-0.002265,-0.007047,0.000000,-0.001898,0.092909,0.000000
0.070000,-3.004837,0.315261,-1.491212,0.007881,-0.001625,0.004676,0.067231,-0.023510,-0.019414,0.451136,-0.223597,-0.353691,119.318028,-18.179950,9.248741,-0.002392,-0.006840,0.000000,-0.022660,-0.045648,-0.000000
0.080000,-3.004755,0.315243,-1.491166,0.008594,-0.001874,0.004466,0.077200,-0.026587,-0.022541,1.494028,-0.385268,-0.276590,90.092889,-14.250007,6.266634,-0.002704,-0.007851,0.000000,-0.039102,-0.151716,0.000000
0.090000,-3.004665,0.315223,-1.491123,0.009455,-0.002162,0.004227,0.096219,-0.031093,-0.025036,2.268989,-0.510440,-0.226533,65.666242,-10.873149,3.832109,-0.003161,-0.009783,0.000000,-0.051817,-0.230456,-0.000000
0.100000,-3.004565,0.315200,-1.491082,0.010541,-0.002500,0.003966,0.121841,-0.036692,-0.027144,2.822029,-0.604434,-0.198280,45.643185,-8.007021,1.898837,-0.003730,-0.012385,0.000000,-0.061350,-0.286579,-0.000000
0.110000,-3.004453,0.315173,-1.491043,0.011907,-0.002898,0.003685,0.152060,-0.043095,-0.029058,3.195216,-0.672142,-0.187039,29.629641,-5.609034,0.421599,-0.004379,-0.015454,0.000000,-0.068199,-0.324374,-0.000000
0.120000,-3.004326,0.315142,-1.491008,0.013592,-0.003364,0.003385,0.185273,-0.050062,-0.030927,3.426671,-0.718034,-0.188482,17.230932,-3.636769,-0.645667,-0.005086,-0.018825,0.000000,-0.072818,-0.347718,0.000000
0.130000,-3.004180,0.315106,-1.490976,0.015618,-0.003901,0.003066,0.220236,-0.057396,-0.032857,3.550569,-0.746154,-0.198738,8.052530,-2.047765,-1.348829,-0.005830,-0.022371,0.000000,-0.075620,-0.360087,0.000000
0.140000,-3.004012,0.315064,-1.490947,0.017999,-0.004512,0.002728,0.256027,-0.064938,-0.034920,3.597141,-0.760125,-0.214397,1.699866,-0.799567,-1.733813,-0.006594,-0.026000,0.000000,-0.076974,-0.364560,-0.000000
0.150000,-3.003819,0.315015,-1.490921,0.020739,-0.005200,0.002367,0.292009,-0.072562,-0.037154,3.592670,-0.763140,-0.232507,-2.221701,0.150272,-1.846636,-0.007365,-0.029645,0.000000,-0.077207,-0.363814,-0.000000
0.160000,-3.003596,0.314959,-1.490900,0.023839,-0.005964,0.001984,0.327785,-0.080173,-0.039570,3.559501,-0.757971,-0.250557,-4.106075,0.844348,-1.731446,-0.008135,-0.033267,0.000000,-0.076603,-0.360129,-0.000000
0.170000,-3.003341,0.314896,-1.490882,0.027294,-0.006803,0.001575,0.363165,-0.087702,-0.042158,3.516024,-0.746964,-0.266527,-4.348485,1.324960,-1.436231,-0.008896,-0.036845,0.000000,-0.075403,-0.355384,0.000000
0.180000,-3.003049,0.314823,-1.490868,0.031101,-0.007717,0.001140,0.398120,-0.095100,-0.044888,3.476690,-0.732042,-0.278831,-3.343276,1.634631,-1.006001,-0.009642,-0.040376,0.000000,-0.073805,-0.351056,0.000000
0.190000,-3.002718,0.314741,-1.490859,0.035255,-0.008704,0.000677,0.432748,-0.102335,-0.047718,3.452001,-0.714700,-0.286349,-1.485142,1.815820,-0.486580,-0.010371,-0.043871,0.000000,-0.071964,-0.348218,-0.000000
0.200000,-3.002343,0.314649,-1.490855,0.039755,-0.009763,0.000186,0.467231,-0.109389,-0.050597,3.448525,-0.696012,-0.288419,0.832445,1.911017,0.076131,-0.011081,-0.047348,0.000000,-0.069991,-0.347540,-0.000000
0.210000,-3.001921,0.314545,-1.490855,0.044595,-0.010891,-0.000335,0.500053,-0.116079,-0.053674,3.069577,-0.636762,-0.331932,-4.679252,2.750640,-0.294599,-0.011753,-0.050653,0.000000,-0.063885,-0.308679,0.000000
0.220000,-3.001450,0.314431,-1.490862,0.049759,-0.012084,-0.000887,0.534285,-0.122681,-0.056558,4.016741,-0.707182,-0.216281,124.310061,-9.871556,15.190053,-0.012415,-0.054098,0.000000,-0.071015,-0.404702,0.000000
0.230000,-3.000925,0.314304,-1.490873,0.055314,-0.013347,-0.001462,0.576959,-0.129872,-0.058395,4.090083,-0.687970,-0.201042,-111.836759,13.928190,-12.402649,-0.013137,-0.058399,0.000000,-0.069000,-0.411828,-0.000000
0.240000,-3.000342,0.314163,-1.490891,0.061269,-0.014678,-0.002058,0.612297,-0.136055,-0.061018,3.191758,-0.569652,-0.297841,2.623183,2.697617,1.351573,-0.013756,-0.061950,0.000000,-0.056900,-0.320212,0.000000
0.250000,-2.999698,0.314010,-1.490915,0.067557,-0.016067,-0.002683,0.646192,-0.141798,-0.063707,3.543908,-0.574337,-0.244644,-2.446802,3.375329,0.999931,-0.014330,-0.065353,0.000000,-0.057344,-0.355742,-0.000000
0.260000,-2.998990,0.313842,-1.490945,0.074196,-0.017513,-0.003332,0.681407,-0.147352,-0.066100,3.495603,-0.535608,-0.233732,-3.470368,3.663490,1.168755,-0.014884,-0.068886,0.000000,-0.053380,-0.350605,-0.000000
0.270000,-2.998213,0.313659,-1.490981,0.081185,-0.019013,-0.004004,0.716374,-0.152558,-0.068377,3.508946,-0.507606,-0.221409,2.506429,2.616122,1.306521,-0.015402,-0.072393,0.000000,-0.050501,-0.351698,0.000000
0.280000,-2.997365,0.313461,-1.491025,0.088524,-0.020563,-0.004699,0.751383,-0.157463,-0.070522,3.469469,-0.469017,-0.207379,-10.514393,5.119965,1.498185,-0.015890,-0.075901,0.000000,-0.046567,-0.347492,-0.000000
0.290000,-2.996442,0.313248,-1.491075,0.096209,-0.022161,-0.005414,0.785542,-0.161895,-0.072519,3.372183,-0.419076,-0.191721,-5.273061,4.176046,1.619586,-0.016329,-0.079321,0.000000,-0.041506,-0.337507,-0.000000
0.300000,-2.995440,0.313018,-1.491133,0.104233,-0.023800,-0.006149,0.819084,-0.165892,-0.074353,3.332920,-0.379703,-0.174921,-6.232011,4.382624,1.750487,-0.016724,-0.082678,0.000000,-0.037515,-0.333389,0.000000
0.310000,-2.994356,0.312772,-1.491198,0.112589,-0.025477,-0.006901,0.852113,-0.169467,-0.076014,3.272244,-0.335017,-0.157016,-6.829671,4.530028,1.865664,-0.017077,-0.085981,0.000000,-0.033000,-0.327150,0.000000
0.320000,-2.993187,0.312508,-1.491271,0.121272,-0.027188,-0.007668,0.884434,-0.172590,-0.077487,3.187842,-0.289360,-0.137286,-9.140794,4.619557,2.040508,-0.017384,-0.089212,0.000000,-0.028403,-0.318572,0.000000
0.330000,-2.991929,0.312228,-1.491352,0.130275,-0.028927,-0.008450,0.915893,-0.175249,-0.078758,3.108529,-0.242238,-0.117045,-6.688163,4.802824,2.004167,-0.017645,-0.092356,0.000000,-0.023668,-0.310541,-0.000000
0.340000,-2.990580,0.311930,-1.491440,0.139588,-0.030691,-0.009243,0.946634,-0.177430,-0.079827,3.035886,-0.193785,-0.096485,-8.748136,4.863967,2.143580,-0.017857,-0.095427,0.000000,-0.018807,-0.303210,-0.000000
0.350000,-2.989137,0.311614,-1.491537,0.149205,-0.032474,-0.010046,0.976522,-0.179124,-0.080682,2.941424,-0.144828,-0.074540,-9.226744,4.945893,2.203993,-0.018021,-0.098413,0.000000,-0.013909,-0.293738,0.000000
0.360000,-2.987595,0.311280,-1.491641,0.159115,-0.034272,-0.010856,1.005475,-0.180324,-0.081319,2.848563,-0.095112,-0.052689,-9.690063,5.009859,2.242336,-0.018135,-0.101304,0.000000,-0.008942,-0.284458,-0.000000
0.370000,-2.985953,0.310929,-1.491754,0.169311,-0.036079,-0.011671,1.033450,-0.181023,-0.081729,2.744512,-0.044540,-0.029022,-10.774602,5.087582,2.412007,-0.018199,-0.104099,0.000000,-0.003902,-0.274111,0.000000
0.380000,-2.984208,0.310559,-1.491875,0.179781,-0.037891,-0.012489,1.060367,-0.181214,-0.081902,2.640320,0.006290,-0.006108,-10.047661,5.075737,2.165705,-0.018213,-0.106788,0.000000,0.001158,-0.263776,-0.000000
0.390000,-2.982357,0.310171,-1.492004,0.190515,-0.039702,-0.013308,1.086261,-0.180897,-0.081855,2.536792,0.057225,0.015783,-10.995704,5.123957,2.286828,-0.018176,-0.109375,0.000000,0.006226,-0.253528,0.000000
0.400000,-2.980397,0.309765,-1.492141,0.201502,-0.041507,-0.014126,1.111065,-0.180068,-0.081581,2.423432,0.108604,0.038912,-11.329324,5.135159,2.259785,-0.018088,-0.111855,0.000000,0.011329,-0.242344,0.000000
0.410000,-2.978326,0.309341,-1.492286,0.212732,-0.043301,-0.014939,1.134728,-0.178725,-0.081082,2.308721,0.160027,0.060780,-11.648883,5.136879,2.209778,-0.017950,-0.114223,0.000000,0.016434,-0.231041,0.000000
0.420000,-2.976142,0.308899,-1.492439,0.224193,-0.045080,-0.015747,1.157225,-0.176868,-0.080359,2.190178,0.211207,0.083961,-12.014684,5.107654,2.327561,-0.017760,-0.116476,0.000000,0.021509,-0.219400,0.000000
0.430000,-2.973842,0.308439,-1.492601,0.235873,-0.046837,-0.016546,1.178524,-0.174500,-0.079410,2.069365,0.262364,0.105260,-12.141671,5.122489,1.926504,-0.017519,-0.118611,0.000000,0.026582,-0.207539,0.000000
0.440000,-2.971424,0.307962,-1.492770,0.247759,-0.048568,-0.017334,1.198607,-0.171621,-0.078262,1.946634,0.313414,0.124376,-12.440056,5.075431,1.990727,-0.017228,-0.120627,0.000000,0.031647,-0.195486,-0.000000
0.450000,-2.968886,0.307468,-1.492948,0.259841,-0.050268,-0.018110,1.217446,-0.168234,-0.076918,1.821001,0.363932,0.144196,-12.641645,5.037062,1.874123,-0.016887,-0.122520,0.000000,0.036658,-0.183175,0.000000
0.460000,-2.966226,0.306957,-1.493132,0.272104,-0.051931,-0.018872,1.235021,-0.164343,-0.075387,1.693552,0.414191,0.161761,-12.820668,4.991927,1.736385,-0.016495,-0.124290,0.000000,0.041647,-0.170676,0.000000
0.470000,-2.963443,0.306429,-1.493325,0.284537,-0.053553,-0.019617,1.251314,-0.159954,-0.073680,1.564889,0.463546,0.179793,-12.929694,4.898714,1.770255,-0.016054,-0.125934,0.000000,0.046546,-0.158079,-0.000000
0.480000,-2.960535,0.305886,-1.493525,0.297126,-0.055128,-0.020345,1.266313,-0.155073,-0.071801,1.434577,0.512577,0.195076,-13.129068,4.906961,1.280835,-0.015564,-0.127451,0.000000,0.051420,-0.145299,0.000000
0.490000,-2.957500,0.305327,-1.493732,0.309859,-0.056653,-0.021053,1.280000,-0.149703,-0.069789,1.302845,0.561241,0.207328,-13.190600,4.803659,1.265341,-0.015026,-0.128840,0.000000,0.056266,-0.132352,-0.000000
0.500000,-2.954337,0.304753,-1.493946,0.322722,-0.058121,-0.021740,1.292369,-0.143852,-0.067653,1.170656,0.608807,0.219507,-13.265363,4.729549,1.070154,-0.014439,-0.130099,0.000000,0.061006,-0.119367,0.000000
0.510000,-2.951045,0.304165,-1.494167,0.335702,-0.059528,-0.022406,1.303411,-0.137529,-0.065410,1.037658,0.655776,0.228735,-13.315749,4.649631,0.858989,-0.013806,-0.131227,0.000000,0.065695,-0.106270,-0.000000
0.520000,-2.947623,0.303563,-1.494394,0.348786,-0.060870,-0.023048,1.313122,-0.130741,-0.063078,0.904555,0.701656,0.237435,-13.315033,4.538719,0.796107,-0.013126,-0.132224,0.000000,0.070282,-0.093161,-0.000000
0.530000,-2.944069,0.302948,-1.494627,0.361960,-0.062141,-0.023667,1.321501,-0.123498,-0.060672,0.771138,0.746811,0.242880,-13.364765,4.491819,0.288769,-0.012400,-0.133090,0.000000,0.074807,-0.079979,0.000000
0.540000,-2.940383,0.302320,-1.494867,0.375211,-0.063338,-0.024262,1.328544,-0.115807,-0.058233,0.637621,0.791210,0.244857,-13.320676,4.373861,0.188956,-0.011630,-0.133824,0.000000,0.079266,-0.066740,0.000000
0.550000,-2.936565,0.301681,-1.495113,0.388526,-0.064456,-0.024832,1.334255,-0.107678,-0.055777,0.504674,0.834388,0.245922,-13.278903,4.274311,-0.060926,-0.010815,-0.134425,0.000000,0.083610,-0.053543,-0.000000
0.560000,-2.932613,0.301031,-1.495364,0.401892,-0.065490,-0.025377,1.338639,-0.099122,-0.053326,0.372184,0.876676,0.243733,-13.214435,4.171320,-0.318866,-0.009958,-0.134895,0.000000,0.087875,-0.040343,0.000000
0.570000,-2.928527,0.300372,-1.495620,0.415295,-0.066437,-0.025898,1.341701,-0.090149,-0.050906,0.240464,0.917698,0.240069,-13.127085,4.043545,-0.472025,-0.009058,-0.135232,0.000000,0.092020,-0.027194,0.000000
0.580000,-2.924307,0.299703,-1.495882,0.428721,-0.067292,-0.026395,1.343451,-0.080771,-0.048536,0.109692,0.957769,0.233079,-13.023853,3.970617,-0.928252,-0.008118,-0.135439,0.000000,0.096079,-0.014086,0.000000
0.590000,-2.919952,0.299026,-1.496148,0.442159,-0.068051,-0.026869,1.343899,-0.070997,-0.046256,-0.019928,0.996877,0.222652,-12.895949,3.839384,-1.099610,-0.007137,-0.135514,0.000000,0.100049,-0.001039,-0.000000
0.600000,-2.915464,0.298342,-1.496419,0.455595,-0.068711,-0.027321,1.343057,-0.060838,-0.044088,-0.148169,1.034644,0.210593,-12.749915,3.724813,-1.369736,-0.006117,-0.135460,0.000000,0.103890,0.011902,-0.000000
0.610000,-2.910840,0.297652,-1.496694,0.469016,-0.069267,-0.027752,1.340941,-0.050307,-0.042055,-0.274804,1.071329,0.195420,-12.584506,3.607784,-1.638862,-0.005060,-0.135276,0.000000,0.107628,0.024735,0.000000
0.620000,-2.906083,0.296957,-1.496974,0.482410,-0.069716,-0.028163,1.337566,-0.039416,-0.040186,-0.399915,1.106751,0.178053,-12.423020,3.480662,-1.858384,-0.003965,-0.134965,0.000000,0.111243,0.037454,0.000000
0.630000,-2.901192,0.296258,-1.497257,0.495763,-0.070054,-0.028556,1.332950,-0.028176,-0.038504,-0.522956,1.141032,0.157750,-12.181896,3.375656,-2.202263,-0.002835,-0.134528,0.000000,0.114746,0.050016,0.000000
0.640000,-2.896168,0.295557,-1.497545,0.509065,-0.070278,-0.028933,1.327115,-0.016599,-0.037041,-0.643736,1.174170,0.134521,-11.983102,3.247238,-2.417758,-0.001671,-0.133966,0.000000,0.118135,0.062399,-0.000000
0.650000,-2.891011,0.294853,-1.497836,0.522302,-0.070385,-0.029298,1.320082,-0.004697,-0.035820,-0.762464,1.206012,0.109209,-11.747792,3.125794,-2.668141,-0.000473,-0.133280,0.000000,0.121393,0.074612,0.000000
0.660000,-2.885722,0.294149,-1.498131,0.535462,-0.070371,-0.029651,1.311874,0.007517,-0.034866,-0.878601,1.236658,0.081379,-11.495274,3.003775,-2.907163,0.000757,-0.132474,0.000000,0.124529,0.086605,0.000000
0.670000,-2.880302,0.293446,-1.498429,0.548535,-0.070233,-0.029996,1.302517,0.020032,-0.034202,-0.992489,1.266093,0.050999,-11.261999,2.882899,-3.156343,0.002017,-0.131549,0.000000,0.127538,0.098411,-0.000000
0.680000,-2.874752,0.292745,-1.498731,0.561509,-0.069969,-0.030336,1.292034,0.032835,-0.033852,-1.103418,1.294305,0.018513,-10.920976,2.759558,-3.338522,0.003307,-0.130507,0.000000,0.130418,0.109950,-0.000000
0.690000,-2.869073,0.292047,-1.499036,0.574372,-0.069576,-0.030674,1.280459,0.045914,-0.033838,-1.211223,1.321298,-0.015940,-10.655765,2.639777,-3.560445,0.004625,-0.129351,0.000000,0.133167,0.121202,-0.000000
0.700000,-2.863265,0.291354,-1.499344,0.587115,-0.069050,-0.031014,1.267819,0.059257,-0.034179,-1.316340,1.347099,-0.052556,-10.347308,2.520117,-3.749463,0.005970,-0.128084,0.000000,0.135786,0.132210,0.000000
0.710000,-2.857331,0.290667,-1.499656,0.599725,-0.068390,-0.031359,1.254143,0.072852,-0.034894,-1.418138,1.371694,-0.090682,-10.025877,2.401702,-3.917791,0.007341,-0.126708,0.000000,0.138272,0.142899,-0.000000
0.720000,-2.851271,0.289987,-1.499971,0.612194,-0.067592,-0.031713,1.239465,0.086687,-0.036001,-1.516963,1.395163,-0.131266,-9.722027,2.289881,-4.152305,0.008735,-0.125226,0.000000,0.140630,0.153312,0.000000
0.730000,-2.845087,0.289315,-1.500290,0.624511,-0.066655,-0.032080,1.223816,0.100751,-0.037522,-1.612227,1.417447,-0.172750,-9.328606,2.167274,-4.139838,0.010153,-0.123643,0.000000,0.142854,0.163367,0.000000
0.740000,-2.838781,0.288654,-1.500613,0.636667,-0.065577,-0.032465,1.207233,0.115032,-0.039458,-1.703807,1.438567,-0.214876,-9.001019,2.059652,-4.325835,0.011592,-0.121960,0.000000,0.144944,0.173047,-0.000000
0.750000,-2.832355,0.288004,-1.500940,0.648653,-0.064354,-0.032871,1.189751,0.129519,-0.041826,-1.792090,1.458629,-0.258821,-8.638710,1.950712,-4.415504,0.013051,-0.120182,0.000000,0.146908,0.182401,0.000000
0.760000,-2.825809,0.287367,-1.501271,0.660459,-0.062986,-0.033303,1.171404,0.144201,-0.044634,-1.876617,1.477599,-0.302938,-8.268632,1.845052,-4.476963,0.014530,-0.118313,0.000000,0.148744,0.191360,0.000000
0.770000,-2.819146,0.286745,-1.501606,0.672078,-0.061469,-0.033765,1.152231,0.159068,-0.047892,-1.957468,1.495552,-0.348950,-7.897251,1.745157,-4.650588,0.016026,-0.116356,0.000000,0.150454,0.199948,-0.000000
0.780000,-2.812368,0.286138,-1.501946,0.683501,-0.059804,-0.034262,1.132268,0.174109,-0.051611,-2.034473,1.512492,-0.394383,-7.502586,1.643456,-4.429604,0.017538,-0.114315,0.000000,0.152042,0.208118,0.000000
0.790000,-2.805477,0.285549,-1.502291,0.694721,-0.057987,-0.034799,1.111554,0.189314,-0.055776,-2.107565,1.528459,-0.438885,-7.118192,1.551700,-4.537666,0.019066,-0.112195,0.000000,0.153511,0.215856,0.000000
0.800000,-2.798474,0.284979,-1.502642,0.705730,-0.056017,-0.035379,1.090129,0.204675,-0.060393,-2.176788,1.543532,-0.484444,-6.722995,1.462736,-4.498200,0.020608,-0.109999,0.000000,0.154866,0.223187,-0.000000
0.810000,-2.791363,0.284430,-1.502999,0.716521,-0.053893,-0.036008,1.068031,0.220182,-0.065460,-2.242123,1.557762,-0.528626,-6.325918,1.379474,-4.425338,0.022163,-0.107731,0.000000,0.156115,0.230081,-0.000000
0.820000,-2.784145,0.283902,-1.503362,0.727089,-0.051613,-0.036690,1.045301,0.235827,-0.070971,-2.303134,1.571096,-0.573703,-5.892699,1.292790,-4.496200,0.023730,-0.105397,0.000000,0.157247,0.236516,0.000000
0.830000,-2.776822,0.283398,-1.503733,0.737426,-0.049176,-0.037429,1.021981,0.251602,-0.076926,-2.360324,1.583734,-0.616581,-5.545446,1.235931,-4.071734,0.025308,-0.103001,0.000000,0.158290,0.242509,0.000000
0.840000,-2.769397,0.282919,-1.504111,0.747526,-0.046580,-0.038230,0.998108,0.267500,-0.083293,-2.413694,1.595742,-0.656845,-5.111079,1.162089,-4.066378,0.026895,-0.100547,0.000000,0.159253,0.248056,-0.000000
0.850000,-2.761872,0.282467,-1.504498,0.757386,-0.043825,-0.039096,0.973722,0.283514,-0.090064,-2.462688,1.607037,-0.697045,-4.704676,1.102552,-3.878830,0.028492,-0.098040,0.000000,0.160120,0.253127,-0.000000
0.860000,-2.754250,0.282043,-1.504893,0.766999,-0.040910,-0.040032,0.948866,0.299639,-0.097222,-2.507949,1.617925,-0.734233,-4.301062,1.052227,-3.655667,0.030098,-0.095484,0.000000,0.160930,0.257759,0.000000
0.870000,-2.746533,0.281649,-1.505299,0.776362,-0.037832,-0.041042,0.923581,0.315869,-0.104749,-2.548271,1.627885,-0.770990,-3.809363,0.964115,-3.592378,0.031711,-0.092884,0.000000,0.161625,0.261857,-0.000000
0.880000,-2.738724,0.281287,-1.505714,0.785470,-0.034592,-0.042128,0.897912,0.332197,-0.112629,-2.585100,1.637719,-0.803915,-3.557948,1.004774,-2.984584,0.033330,-0.090246,0.000000,0.162297,0.265534,-0.000000
0.890000,-2.730824,0.280958,-1.506141,0.794319,-0.031188,-0.043295,0.871890,0.348624,-0.120812,-2.618505,1.647535,-0.832574,-3.076774,0.936171,-2.841493,0.034956,-0.087572,0.000000,0.162960,0.268798,0.000000
0.900000,-2.722838,0.280664,-1.506581,0.802906,-0.027619,-0.044546,0.845559,0.365145,-0.129277,-2.647041,1.656668,-0.859799,-2.676079,0.915044,-2.499959,0.036589,-0.084868,0.000000,0.163539,0.271532,-0.000000
0.910000,-2.714767,0.280406,-1.507033,0.811229,-0.023885,-0.045882,0.818960,0.381759,-0.137992,-2.672113,1.666191,-0.882390,-2.280259,0.909239,-2.123388,0.038227,-0.082139,0.000000,0.164156,0.273853,0.000000
0.920000,-2.706614,0.280186,-1.507499,0.819285,-0.019984,-0.047306,0.792134,0.398462,-0.146921,-2.692117,1.674127,-0.903181,-1.777472,0.758506,-1.923414,0.039871,-0.079389,0.000000,0.164602,0.275628,0.000000
0.930000,-2.698382,0.280007,-1.507979,0.827071,-0.015915,-0.048821,0.765128,0.415245,-0.156036,-2.708856,1.683049,-0.918525,-1.572539,1.029618,-1.137441,0.041520,-0.076623,0.000000,0.165153,0.277012,-0.000000
0.940000,-2.690074,0.279869,-1.508475,0.834587,-0.011678,-0.050427,0.737967,0.432127,-0.165271,-2.722431,1.693142,-0.927995,-1.085814,0.910100,-0.859583,0.043175,-0.073845,0.000000,0.165832,0.278018,-0.000000
0.950000,-2.681691,0.279774,-1.508988,0.841830,-0.007272,-0.052127,0.710697,0.449103,-0.174589,-2.731068,1.701954,-0.934714,-0.698586,0.933209,-0.372355,0.044836,-0.071060,0.000000,0.166383,0.278499,-0.000000
0.960000,-2.673238,0.279724,-1.509518,0.848801,-0.002696,-0.053919,0.683356,0.466172,-0.183944,-2.736391,1.712081,-0.935301,-0.315752,0.971416,0.146543,0.046503,-0.068271,0.000000,0.167083,0.278599,-0.000000
0.970000,-2.664716,0.279720,-1.510067,0.855497,0.002051,-0.055805,0.655986,0.483336,-0.193286,-2.736926,1.720281,-0.932735,0.159259,0.787835,0.479828,0.048177,-0.065483,0.000000,0.167598,0.278196,0.000000
0.980000,-2.656129,0.279765,-1.510635,0.861920,0.006971,-0.057785,0.628628,0.500585,-0.202575,-2.734246,1.730337,-0.923331,0.374775,1.227751,1.408277,0.049856,-0.062702,0.000000,0.168326,0.277431,0.000000
0.990000,-2.647479,0.279860,-1.511223,0.868070,0.012063,-0.059856,0.601311,0.517950,-0.211728,-2.728444,1.742460,-0.906705,0.834857,1.078117,1.810314,0.051544,-0.059929,0.000000,0.169294,0.276318,-0.000000
1.000000,-2.638769,0.280007,-1.511832,0.873947,0.017330,-0.062019,0.574076,0.535426,-0.220697,-2.717977,1.752924,-0.886118,1.208660,1.134264,2.420475,0.053241,-0.057170,0.000000,0.170119,0.274731,0.000000
1.010000,-2.630001,0.280208,-1.512463,0.879552,0.022772,-0.064270,0.546962,0.553015,-0.229425,-2.704229,1.765047,-0.858266,1.579264,1.195722,3.054266,0.054947,-0.054428,0.000000,0.171150,0.272795,0.000000
1.020000,-2.621178,0.280463,-1.513118,0.884887,0.028391,-0.066606,0.520007,0.570722,-0.237849,-2.686041,1.775970,-0.825881,2.020418,1.080961,3.521430,0.056664,-0.051707,0.000000,0.172094,0.270419,-0.000000
1.030000,-2.612304,0.280776,-1.513796,0.889953,0.034187,-0.069025,0.493251,0.588541,-0.245916,-2.664613,1.788599,-0.785770,2.263781,1.447529,4.506232,0.058390,-0.049012,0.000000,0.173261,0.267710,-0.000000
1.040000,-2.603380,0.281148,-1.514498,0.894752,0.040162,-0.071523,0.466725,0.606500,-0.253537,-2.640010,1.803053,-0.737646,2.694549,1.350106,5.024132,0.060130,-0.046345,0.000000,0.174669,0.264684,0.000000
1.050000,-2.594410,0.281580,-1.515226,0.899288,0.046318,-0.074094,0.440466,0.624597,-0.260654,-2.611048,1.816380,-0.684427,3.060121,1.407324,5.718501,0.061883,-0.043710,0.000000,0.176014,0.261244,-0.000000
1.060000,-2.585395,0.282075,-1.515981,0.903563,0.052655,-0.076734,0.414513,0.642831,-0.267199,-2.579019,1.830547,-0.623314,3.419536,1.451419,6.426430,0.063651,-0.041111,0.000000,0.177512,0.257511,-0.000000
1.070000,-2.576339,0.282634,-1.516761,0.907580,0.059175,-0.079436,0.388904,0.661211,-0.273103,-2.541978,1.845631,-0.556600,3.917214,1.538967,6.994609,0.065434,-0.038551,0.000000,0.179161,0.253311,0.000000
1.080000,-2.567245,0.283259,-1.517569,0.911342,0.065879,-0.082194,0.363682,0.679744,-0.278303,-2.502178,1.860769,-0.481783,4.040732,1.486476,7.972156,0.067234,-0.036034,0.000000,0.180898,0.248862,-0.000000
1.090000,-2.558113,0.283952,-1.518405,0.914855,0.072770,-0.085000,0.338869,0.698426,-0.282710,-2.459708,1.875849,-0.398700,4.525770,1.553820,8.567105,0.069052,-0.033563,0.000000,0.182719,0.244179,-0.000000
1.100000,-2.548948,0.284715,-1.519270,0.918121,0.079848,-0.087845,0.314506,0.717263,-0.286259,-2.412266,1.891596,-0.309776,4.890659,1.568316,9.295696,0.070889,-0.031141,0.000000,0.184685,0.239048,0.000000
1.110000,-2.539752,0.285549,-1.520162,0.921146,0.087116,-0.090722,0.290633,0.736257,-0.288878,-2.361753,1.907120,-0.212830,5.257958,1.570027,10.026581,0.072746,-0.028771,0.000000,0.186730,0.233656,0.000000
1.120000,-2.530526,0.286458,-1.521084,0.923935,0.094574,-0.093619,0.267287,0.755409,-0.290497,-2.306675,1.923284,-0.109868,5.714196,1.626512,10.629911,0.074624,-0.026457,0.000000,0.188931,0.227864,0.000000
1.130000,-2.521274,0.287442,-1.522035,0.926494,0.102225,-0.096528,0.244510,0.774721,-0.291048,-2.248380,1.938885,0.001111,5.944424,1.490305,11.566745,0.076525,-0.024202,0.000000,0.191190,0.221805,0.000000
1.140000,-2.511997,0.288503,-1.523015,0.928828,0.110069,-0.099437,0.222330,0.794184,-0.290447,-2.186875,1.953741,0.120131,6.402088,1.513386,12.170517,0.078448,-0.022008,0.000000,0.193498,0.215481,0.000000
1.150000,-2.502698,0.289644,-1.524023,0.930943,0.118109,-0.102333,0.200789,0.813797,-0.288627,-2.120692,1.968809,0.245036,6.791056,1.462880,12.874231,0.080395,-0.019880,0.000000,0.195938,0.208756,0.000000
1.160000,-2.493379,0.290866,-1.525061,0.932846,0.126345,-0.105205,0.179929,0.833557,-0.285520,-2.050615,1.983011,0.377504,7.193971,1.396487,13.566540,0.082367,-0.017821,0.000000,0.198426,0.201704,0.000000
1.170000,-2.484042,0.292171,-1.526127,0.934544,0.134780,-0.108039,0.159787,0.853456,-0.281058,-1.977077,1.996882,0.515850,7.545978,1.353980,14.148608,0.084364,-0.015833,0.000000,0.201008,0.194372,0.000000
1.180000,-2.474689,0.293562,-1.527222,0.936044,0.143415,-0.110821,0.140403,0.873490,-0.275179,-1.899017,2.009590,0.661443,8.068593,1.183919,14.968176,0.086387,-0.013921,0.000000,0.203621,0.186650,0.000000
1.190000,-2.465322,0.295040,-1.528344,0.937354,0.152251,-0.113537,0.121823,0.893643,-0.267805,-1.816295,2.020925,0.814151,8.446408,1.101019,15.520141,0.088437,-0.012088,0.000000,0.206251,0.178524,0.000000
1.200000,-2.455942,0.296608,-1.529492,0.938483,0.161288,-0.116172,0.104089,0.913906,-0.258879,-1.729788,2.031366,0.972184,8.887937,0.962748,16.131449,0.090513,-0.010337,0.000000,0.208939,0.170080,0.000000
1.210000,-2.446553,0.298267,-1.530667,0.939439,0.170529,-0.118710,0.087244,0.934263,-0.248340,-1.638307,2.039706,1.136551,9.345717,0.795180,16.715198,0.092615,-0.008674,0.000000,0.211580,0.161194,-0.000000
1.220000,-2.437154,0.300019,-1.531866,0.940231,0.179974,-0.121133,0.071333,0.954702,-0.236131,-1.543440,2.048056,1.306191,9.693296,0.781020,17.228310,0.094745,-0.007100,0.000000,0.214383,0.152020,0.000000
1.230000,-2.427748,0.301867,-1.533089,0.940869,0.189623,-0.123427,0.056394,0.975213,-0.222198,-1.443064,2.053358,1.481446,10.386163,0.272835,17.817580,0.096902,-0.005621,0.000000,0.217055,0.142338,-0.000000
1.240000,-2.418337,0.303812,-1.534334,0.941363,0.199478,-0.125571,0.042491,0.995757,-0.206484,-1.336961,2.055269,1.662000,10.772350,0.196982,18.265977,0.099085,-0.004242,0.000000,0.219568,0.132119,-0.000000
1.250000,-2.408922,0.305857,-1.535600,0.941722,0.209539,-0.127550,0.029667,1.016318,-0.188944,-1.227028,2.056449,1.846811,11.280702,-0.055656,18.710864,0.101294,-0.002967,0.000000,0.222181,0.121540,-0.000000
1.260000,-2.399503,0.308004,-1.536885,0.941960,0.219805,-0.129344,0.017972,1.036873,-0.169534,-1.110888,2.053960,2.035863,11.813643,-0.336966,19.110602,0.103528,-0.001801,0.000000,0.224609,0.110355,0.000000
1.270000,-2.390083,0.310254,-1.538186,0.942086,0.230276,-0.130934,0.007456,1.057396,-0.148212,-0.991960,2.050638,2.229042,12.106113,-0.436900,19.499709,0.105787,-0.000749,0.000000,0.227139,0.098889,-0.000000
1.280000,-2.380662,0.312610,-1.539502,0.942113,0.240952,-0.132302,-0.001842,1.077870,-0.124943,-0.865954,2.042927,2.425326,13.101242,-1.112247,19.748313,0.108070,0.000185,0.000000,0.229414,0.086699,0.000000
1.290000,-2.371241,0.315073,-1.540831,0.942053,0.251833,-0.133427,-0.009838,1.098238,-0.099697,-0.732558,2.030458,2.624199,13.447146,-1.278462,20.035523,0.110374,0.000993,0.000000,0.231393,0.073735,-0.000000
1.300000,-2.361821,0.317647,-1.542170,0.941921,0.262917,-0.134289,-0.016485,1.118476,-0.072449,-0.595837,2.016377,2.825707,14.031463,-1.647746,20.239067,0.112698,0.001668,0.000000,0.233396,0.060384,-0.000000
1.310000,-2.352403,0.320333,-1.543516,0.941728,0.274202,-0.134869,-0.021728,1.138548,-0.043179,-0.451688,1.997435,3.028485,14.637394,-2.043063,20.379518,0.115041,0.002205,0.000000,0.235085,0.046212,-0.000000
1.320000,-2.342986,0.323132,-1.544866,0.941491,0.285687,-0.135146,-0.025511,1.158419,-0.011870,-0.304551,1.976376,3.233771,14.949852,-2.270307,20.597140,0.117400,0.002597,0.000000,0.236750,0.031643,0.000000
1.330000,-2.333573,0.326047,-1.546218,0.941223,0.297369,-0.135099,-0.027791,1.178057,0.021494,-0.149338,1.949899,3.438743,16.099408,-3.031586,20.384731,0.119774,0.002839,0.000000,0.238029,0.016137,-0.000000
1.340000,-2.324162,0.329080,-1.547567,0.940940,0.309247,-0.134709,-0.028469,1.197397,0.056901,0.014268,1.917665,3.642680,16.463529,-3.319383,20.462971,0.122159,0.002919,0.000000,0.238873,-0.000370,0.000000
1.350000,-2.314754,0.332232,-1.548911,0.940659,0.321316,-0.133955,-0.027497,1.216402,0.094351,0.181317,1.882605,3.847174,17.106257,-3.794429,20.354134,0.124552,0.002830,0.000000,0.239596,-0.017406,0.000000
1.360000,-2.305349,0.335507,-1.550245,0.940396,0.333574,-0.132815,-0.024813,1.235028,0.133835,0.356567,1.841693,4.049133,17.764945,-4.292291,20.166066,0.126949,0.002564,0.000000,0.239848,-0.035489,-0.000000
1.370000,-2.295946,0.338905,-1.551566,0.940169,0.346015,-0.131271,-0.020358,1.253227,0.175338,0.534978,1.797609,4.251549,18.092154,-4.622971,20.169361,0.129348,0.002113,0.000000,0.239931,-0.054138,-0.000000
1.380000,-2.286545,0.342428,-1.552869,0.939995,0.358637,-0.129302,-0.014083,1.270959,0.218849,0.722079,1.747171,4.449428,19.333733,-5.470151,19.390095,0.131746,0.001468,0.000000,0.239449,-0.073958,0.000000
1.390000,-2.277146,0.346078,-1.554150,0.939894,0.371433,-0.126888,-0.005885,1.288148,0.264307,0.918126,1.690092,4.641852,19.699734,-5.851489,19.219223,0.134135,0.000617,0.000000,0.238341,-0.095021,0.000000
1.400000,-2.267747,0.349857,-1.555405,0.939884,0.384398,-0.124009,0.004287,1.304750,0.311683,1.117563,1.629276,4.832399,20.362458,-6.410141,18.740577,0.136512,-0.000451,0.000000,0.236942,-0.116792,0.000000
1.410000,-2.258348,0.353766,-1.556629,0.939986,0.397526,-0.120648,0.016497,1.320710,0.360930,1.325477,1.561714,5.015960,21.030616,-6.987780,18.170123,0.138872,-0.001746,0.000000,0.234851,-0.139843,0.000000
1.420000,-2.248947,0.357808,-1.557817,0.940221,0.410810,-0.116785,0.030804,1.335974,0.411999,1.536416,1.490556,5.197488,21.338887,-7.358421,17.917229,0.141208,-0.003278,0.000000,0.232446,-0.163649,0.000000
1.430000,-2.239543,0.361983,-1.558963,0.940609,0.424243,-0.112402,0.047255,1.350496,0.464847,1.756066,1.412146,5.369734,22.594888,-8.328420,16.512318,0.143518,-0.005057,0.000000,0.229218,-0.188851,-0.000000
1.440000,-2.230134,0.366293,-1.560063,0.941173,0.437817,-0.107482,0.065956,1.364191,0.519357,1.984566,1.326248,5.531621,22.917882,-8.738182,16.059165,0.145789,-0.007099,0.000000,0.225090,-0.215514,-0.000000
1.450000,-2.220719,0.370740,-1.561111,0.941936,0.451524,-0.102009,0.086953,1.377010,0.575468,2.215940,1.236397,5.688891,23.538237,-9.346357,15.174750,0.148018,-0.009416,0.000000,0.220493,-0.243054,-0.000000
1.460000,-2.211295,0.375324,-1.562101,0.942920,0.465354,-0.095968,0.110302,1.388896,0.633093,2.454895,1.139767,5.834455,24.138617,-9.953350,14.194294,0.150196,-0.012019,0.000000,0.214982,-0.272013,-0.000000
1.470000,-2.201860,0.380047,-1.563028,0.944150,0.479298,-0.089343,0.136061,1.399787,0.692145,2.697597,1.037573,5.974999,24.506456,-10.511447,13.639137,0.152315,-0.014921,0.000000,0.208757,-0.302032,-0.000000
1.480000,-2.192411,0.384910,-1.563886,0.945650,0.493346,-0.082120,0.164278,1.409626,0.752544,2.947222,0.928993,6.101470,25.417215,-11.205154,11.633842,0.154368,-0.018135,0.000000,0.201540,-0.333486,-0.000000
1.490000,-2.182946,0.389915,-1.564669,0.947444,0.507487,-0.074288,0.195029,1.418345,0.814121,3.203636,0.814006,6.212719,25.750237,-11.765254,10.867520,0.156343,-0.021676,0.000000,0.193257,-0.366397,-0.000000
1.500000,-2.173461,0.395060,-1.565370,0.949559,0.521709,-0.065834,0.228358,1.425888,0.876778,3.463042,0.693479,6.316322,26.235068,-12.365418,9.575830,0.158230,-0.025557,0.000000,0.184084,-0.400403,0.000000
1.510000,-2.163953,0.400349,-1.565983,0.952020,0.536001,-0.056749,0.264309,1.432199,0.940390,3.727938,0.567891,6.403696,26.681191,-12.936860,8.191179,0.160021,-0.029791,0.000000,0.173874,-0.435788,0.000000
1.520000,-2.154419,0.405781,-1.566503,0.954854,0.550349,-0.047024,0.302927,1.437212,1.004829,3.996008,0.433058,6.482702,26.980070,-13.848100,7.302276,0.161703,-0.034390,0.000000,0.162250,-0.472344,-0.000000
1.530000,-2.144855,0.411356,-1.566922,0.958088,0.564740,-0.036650,0.344245,1.440850,1.069981,4.268532,0.294745,6.543297,27.518413,-13.807241,4.795868,0.163263,-0.039367,0.000000,0.149609,-0.510199,0.000000
1.540000,-2.135256,0.417076,-1.567233,0.961748,0.579161,-0.025623,0.388311,1.443097,1.135628,4.545106,0.153297,6.584368,27.732612,-14.662650,3.705245,0.164692,-0.044735,0.000000,0.135911,-0.549299,-0.000000
1.550000,-2.125618,0.422939,-1.567432,0.965863,0.593597,-0.013937,0.435152,1.443883,1.201637,4.823469,0.003073,6.614649,27.985877,-15.198701,2.042424,0.165975,-0.050507,0.000000,0.120630,-0.589426,0.000000
1.560000,-2.115937,0.428948,-1.567510,0.970460,0.608034,-0.001589,0.484786,1.443130,1.267850,5.103646,-0.155149,6.624914,28.164048,-15.804838,0.301461,0.167098,-0.056691,0.000000,0.103611,-0.630515,-0.000000
1.570000,-2.106207,0.435100,-1.567461,0.975568,0.622455,0.011421,0.537240,1.440812,1.334101,5.387691,-0.307096,6.623251,28.513555,-15.201252,-0.936039,0.168049,-0.063300,0.000000,0.086578,-0.672823,0.000000
1.580000,-2.096424,0.441397,-1.567279,0.981215,0.636845,0.025092,0.592537,1.436939,1.400241,5.671163,-0.472123,6.599866,28.166029,-17.820007,-3.759110,0.168821,-0.070342,0.000000,0.067092,-0.715724,-0.000000
1.590000,-2.086581,0.447837,-1.566957,0.987428,0.651188,0.039424,0.650657,1.431319,1.466021,5.953228,-0.650879,6.553810,28.357277,-17.301202,-5.165261,0.169381,-0.077822,0.000000,0.044974,-0.759023,-0.000000
1.600000,-2.076673,0.454420,-1.566489,0.994237,0.665465,0.054411,0.711610,1.423954,1.531276,6.237035,-0.823365,6.493897,28.270247,-17.814794,-7.119661,0.169721,-0.085746,0.000000,0.022666,-0.803079,-0.000000
1.610000,-2.066694,0.461146,-1.565867,1.001670,0.679661,0.070047,0.775392,1.414838,1.595819,6.519110,-0.999978,6.411288,28.117637,-18.181022,-9.129751,0.169829,-0.094118,0.000000,-0.001235,-0.847291,-0.000000
1.620000,-2.056638,0.468013,-1.565086,1.009755,0.693756,0.086324,0.841984,1.403887,1.659457,6.798995,-1.193117,6.313742,27.859995,-19.782164,-10.656269,0.169685,-0.102939,0.000000,-0.028074,-0.891556,0.000000
1.630000,-2.046497,0.475020,-1.564138,1.018519,0.707732,0.103233,0.911363,1.390996,1.722013,7.076330,-1.381670,6.192367,27.593528,-17.901826,-13.632291,0.169266,-0.112208,0.000000,-0.055564,-0.935574,-0.000000
1.640000,-2.036265,0.482167,-1.563019,1.027991,0.721570,0.120760,0.983500,1.376279,1.783220,7.350301,-1.564358,6.046483,27.172081,-19.294829,-15.275082,0.168573,-0.121920,0.000000,-0.083534,-0.979034,0.000000
1.650000,-2.025935,0.489451,-1.561721,1.038198,0.735251,0.138892,1.058353,1.359648,1.842894,7.619597,-1.761794,5.884469,26.686060,-19.523163,-17.403385,0.167585,-0.132067,0.000000,-0.114275,-1.021695,0.000000
1.660000,-2.015499,0.496872,-1.560239,1.049167,0.748756,0.157612,1.135867,1.341057,1.900827,7.881900,-1.956554,5.698619,26.072827,-19.723472,-19.553938,0.166285,-0.142639,0.000000,-0.145810,-1.062931,-0.000000
1.670000,-2.004949,0.504426,-1.558567,1.060924,0.762066,0.176902,1.215995,1.320487,1.956811,8.143625,-2.158909,5.495334,25.952076,-20.449650,-21.312432,0.164662,-0.153621,0.000000,-0.179225,-1.103388,0.000000
1.680000,-1.994277,0.512112,-1.556699,1.073495,0.775159,0.196741,1.298700,1.297888,2.010652,8.394234,-2.359300,5.267984,24.143957,-19.613415,-24.164135,0.162699,-0.165000,0.000000,-0.213384,-1.141398,-0.000000
1.690000,-1.983476,0.519928,-1.554630,1.086906,0.788017,0.217107,1.383836,1.273312,2.062088,8.632334,-2.556965,5.016279,23.766921,-20.208412,-25.965171,0.160393,-0.176744,0.000000,-0.248079,-1.176472,0.000000
1.700000,-1.972536,0.527872,-1.552355,1.101180,0.800619,0.237975,1.471339,1.246723,2.110923,8.866632,-2.760852,4.746927,22.769628,-20.269694,-28.112792,0.157732,-0.188829,0.000000,-0.284194,-1.209543,0.000000
1.710000,-1.961450,0.535940,-1.549869,1.116341,0.812945,0.259316,1.561116,1.218083,2.156948,9.086645,-2.967607,4.454551,21.644881,-20.391809,-30.242068,0.154705,-0.201225,0.000000,-0.321245,-1.238906,0.000000
1.720000,-1.950207,0.544130,-1.547168,1.132410,0.824974,0.281103,1.653068,1.187423,2.199953,9.303157,-3.162285,4.143260,21.223320,-19.200759,-32.126248,0.151312,-0.213899,0.000000,-0.357158,-1.265707,-0.000000
1.730000,-1.938798,0.552438,-1.544246,1.149409,0.836687,0.303305,1.747118,1.154804,2.239738,9.502015,-3.365418,3.809721,18.518729,-21.440161,-34.579204,0.147557,-0.226816,0.000000,-0.394320,-1.287825,0.000000
1.740000,-1.927215,0.560862,-1.541100,1.167358,0.848063,0.325887,1.843041,1.120079,2.276073,9.681641,-3.577540,3.454128,17.811178,-20.307744,-36.416558,0.143421,-0.239920,0.000000,-0.432598,-1.304799,-0.000000
1.750000,-1.915448,0.569398,-1.537727,1.186276,0.859081,0.348814,1.940735,1.083307,2.308763,9.854332,-3.777113,3.080560,16.290458,-20.266748,-38.404220,0.138913,-0.253171,0.000000,-0.469036,-1.318041,-0.000000
1.760000,-1.903486,0.578043,-1.534123,1.206178,0.869722,0.372049,2.040060,1.044539,2.337616,10.007853,-3.975954,2.686768,14.668555,-20.072856,-40.332281,0.134043,-0.266518,0.000000,-0.504884,-1.325764,0.000000
1.770000,-1.891321,0.586791,-1.530285,1.227082,0.879965,0.395553,2.140858,1.003748,2.362436,10.149876,-4.183742,2.274230,13.457098,-20.914838,-42.176396,0.128813,-0.279911,0.000000,-0.541153,-1.328805,0.000000
1.780000,-1.878941,0.595640,-1.526211,1.249000,0.889790,0.419284,2.242986,0.960899,2.383039,10.271159,-4.382294,1.843217,10.775721,-18.770117,-44.014715,0.123227,-0.293296,0.000000,-0.575267,-1.325918,-0.000000
1.790000,-1.866338,0.604586,-1.521899,1.271945,0.899177,0.443199,2.346206,0.916142,2.399241,10.370401,-4.570357,1.394430,9.322924,-19.402097,-45.717374,0.117316,-0.306611,0.000000,-0.606829,-1.316917,-0.000000
1.800000,-1.853499,0.613622,-1.517347,1.295927,0.908107,0.467253,2.450350,0.869459,2.410872,10.455064,-4.765362,0.929043,7.329761,-19.025683,-47.357594,0.111091,-0.319800,0.000000,-0.637871,-1.302753,0.000000
1.810000,-1.840416,0.622746,-1.512553,1.320954,0.916560,0.491401,2.555221,0.820861,2.417771,10.515373,-4.953567,0.448303,5.210913,-18.636453,-48.893650,0.104568,-0.332806,0.000000,-0.666407,-1.282349,-0.000000
1.820000,-1.827076,0.631952,-1.507518,1.347033,0.924518,0.515592,2.660626,0.770399,2.419779,10.563540,-5.138206,-0.049601,3.930339,-18.255857,-50.554909,0.097770,-0.345573,0.000000,-0.692769,-1.257211,-0.000000
1.830000,-1.813471,0.641235,-1.502242,1.374168,0.931962,0.539779,2.766395,0.718113,2.416739,10.583664,-5.317949,-0.560027,0.066605,-17.684432,-51.508902,0.090721,-0.358050,0.000000,-0.716539,-1.225793,0.000000
1.840000,-1.799590,0.650589,-1.496723,1.402361,0.938874,0.563910,2.872197,0.664058,2.408542,10.574304,-5.492311,-1.081744,-1.467631,-17.208956,-52.932034,0.083449,-0.370170,0.000000,-0.737563,-1.188251,-0.000000
1.850000,-1.785421,0.660010,-1.490964,1.431612,0.945237,0.587933,2.977840,0.608283,2.395056,10.549972,-5.661742,-1.617282,-3.891646,-16.641805,-54.039945,0.075979,-0.381885,0.000000,-0.755928,-1.146451,-0.000000
1.860000,-1.770954,0.669492,-1.484965,1.461917,0.951034,0.611793,3.083109,0.550878,2.376169,10.499839,-5.817295,-2.161462,-6.330149,-15.877655,-55.006224,0.068344,-0.393149,0.000000,-0.770426,-1.099679,0.000000
1.870000,-1.756179,0.679029,-1.478729,1.493272,0.956249,0.635438,3.187739,0.491848,2.351777,10.421465,-5.992197,-2.719103,-9.175533,-17.723827,-56.275510,0.060566,-0.403912,0.000000,-0.785211,-1.047797,0.000000
1.880000,-1.741085,0.688615,-1.472257,1.525669,0.960865,0.658810,3.291462,0.431125,2.321772,10.319896,-6.142833,-3.281808,-11.141908,-12.356175,-56.235554,0.052658,-0.414131,0.000000,-0.794895,-0.992174,-0.000000
1.890000,-1.725662,0.698244,-1.465554,1.559097,0.964868,0.681854,3.394060,0.369090,2.286132,10.194821,-6.267035,-3.847886,-14.062682,-13.867986,-57.182670,0.044687,-0.423773,0.000000,-0.799389,-0.933255,-0.000000
1.900000,-1.709900,0.707911,-1.458621,1.593545,0.968243,0.704514,3.495256,0.305703,2.244780,10.040009,-6.408373,-4.423051,-16.727672,-13.015611,-57.599570,0.036667,-0.432802,0.000000,-0.804105,-0.870483,0.000000
1.910000,-1.693788,0.717607,-1.451465,1.628997,0.970977,0.726731,3.594725,0.240880,2.197674,9.847800,-6.557729,-4.998333,-19.675932,-12.702698,-57.835139,0.028606,-0.441181,0.000000,-0.807969,-0.803924,0.000000
1.920000,-1.677316,0.727328,-1.444088,1.665433,0.973056,0.748448,3.692279,0.174896,2.144775,9.665189,-6.624185,-5.582952,-18.835147,-4.612952,-58.670777,0.020553,-0.448894,0.000000,-0.800518,-0.738524,-0.000000
1.930000,-1.660476,0.737066,-1.436498,1.702836,0.974473,0.769607,3.787837,0.108221,2.086033,9.429366,-6.734472,-6.162993,-28.393904,-17.564895,-57.298385,0.012579,-0.455939,0.000000,-0.796864,-0.668633,-0.000000
1.940000,-1.643256,0.746815,-1.428698,1.741181,0.975215,0.790149,3.880664,0.040011,2.021541,9.137427,-6.893864,-6.736306,-27.990795,-10.239142,-57.732587,0.004598,-0.462253,0.000000,-0.797565,-0.594623,-0.000000
1.950000,-1.625649,0.756568,-1.420697,1.780440,0.975269,0.810018,3.970644,-0.029320,1.951286,8.852565,-6.973603,-7.313734,-30.975874,-9.751745,-57.330847,-0.003330,-0.467842,0.000000,-0.788031,-0.522788,0.000000
1.960000,-1.607645,0.766318,-1.412500,1.820584,0.974626,0.829156,4.057633,-0.099384,1.875302,8.542210,-7.033685,-7.881815,-33.539874,-8.272540,-56.734271,-0.011151,-0.472709,0.000000,-0.775493,-0.450698,0.000000
1.970000,-1.589235,0.776058,-1.404116,1.861581,0.973279,0.847505,4.141204,-0.170433,1.793634,8.159352,-7.194231,-8.452261,-40.652339,-17.987370,-56.862474,-0.018887,-0.476834,0.000000,-0.773499,-0.373416,0.000000
1.980000,-1.570410,0.785781,-1.395553,1.903394,0.971212,0.865010,4.220846,-0.242946,1.706307,7.779122,-7.270648,-9.008751,-35.314168,2.893037,-54.392486,-0.026583,-0.480192,0.000000,-0.761487,-0.299528,0.000000
1.990000,-1.551164,0.795480,-1.386819,1.945986,0.968420,0.881613,4.296826,-0.315491,1.613517,7.405141,-7.254426,-9.548930,-41.873597,-5.541763,-54.083428,-0.034077,-0.482842,0.000000,-0.739206,-0.229489,0.000000
2.000000,-1.531488,0.805147,-1.377924,1.989317,0.964901,0.897262,4.368677,-0.388447,1.515331,6.962117,-7.331380,-10.085866,-44.335916,-3.971065,-52.808008,-0.041412,-0.484767,0.000000,-0.727001,-0.155596,0.000000
2.010000,-1.511375,0.814776,-1.368877,2.033344,0.960649,0.911902,4.436003,-0.462013,1.411868,6.497864,-7.381744,-10.603940,-47.075219,-3.116401,-51.329590,-0.048606,-0.485963,0.000000,-0.711961,-0.083385,0.000000
2.020000,-1.490819,0.824358,-1.359689,2.078021,0.955660,0.925482,4.498660,-0.535811,1.303260,6.033933,-7.366281,-11.116963,-47.094441,3.306172,-50.711788,-0.055623,-0.486448,0.000000,-0.690161,-0.014207,-0.000000
2.030000,-1.469813,0.833886,-1.350371,2.123302,0.949934,0.937951,4.556528,-0.609445,1.189612,5.526934,-7.376572,-11.606379,-54.339919,-5.458967,-47.126625,-0.062423,-0.486246,0.000000,-0.671573,0.055013,0.000000
2.040000,-1.448351,0.843354,-1.340934,2.169134,0.943470,0.949259,4.609040,-0.683466,1.071223,4.975460,-7.416892,-12.069765,-54.540573,0.317616,-46.063139,-0.069068,-0.485345,0.000000,-0.656569,0.124185,0.000000
2.050000,-1.426429,0.852753,-1.331390,2.215464,0.936264,0.959360,4.656063,-0.757525,0.948243,4.424421,-7.395164,-12.522506,-57.054980,1.105662,-43.919475,-0.075529,-0.483769,0.000000,-0.635745,0.190031,-0.000000
2.060000,-1.404041,0.862077,-1.321751,2.262236,0.928319,0.968209,4.697370,-0.831468,0.820875,3.831747,-7.393609,-12.946853,-59.607233,1.772341,-41.576731,-0.081796,-0.481533,0.000000,-0.617734,0.255507,0.000000
2.070000,-1.381183,0.871317,-1.312030,2.309392,0.919636,0.975763,4.732766,-0.905167,0.689333,3.249680,-7.336116,-13.359531,-58.591301,7.230203,-40.299165,-0.087863,-0.478657,0.000000,-0.594839,0.316887,-0.000000
2.080000,-1.357852,0.880467,-1.302240,2.356872,0.910218,0.981982,4.762200,-0.978285,0.553799,2.622453,-7.301392,-13.739019,-66.890180,-0.363378,-35.553959,-0.093706,-0.475170,0.000000,-0.575210,0.378138,-0.000000
2.090000,-1.334044,0.889519,-1.292395,2.404614,0.900070,0.986828,4.785046,-1.051302,0.414676,1.948776,-7.292904,-14.082950,-66.002011,4.581288,-33.848424,-0.099381,-0.471061,0.000000,-0.559089,0.439296,-0.000000
2.100000,-1.309759,0.898466,-1.282509,2.452551,0.889194,0.990265,4.801248,-1.123921,0.272185,1.287461,-7.231088,-14.410083,-68.047989,5.275753,-30.917432,-0.104869,-0.466357,0.000000,-0.538642,0.496345,0.000000
2.110000,-1.284993,0.907301,-1.272595,2.500616,0.877594,0.992261,4.810777,-1.195819,0.126603,0.617908,-7.143198,-14.700855,-69.414186,6.770201,-27.826211,-0.110148,-0.461090,0.000000,-0.516841,0.550387,0.000000
2.120000,-1.259746,0.916016,-1.262668,2.548743,0.865279,0.992787,4.813273,-1.267185,-0.021776,-0.133179,-7.146553,-14.971808,-77.300266,-2.067401,-25.751573,-0.115246,-0.455263,0.000000,-0.504509,0.608238,0.000000
2.130000,-1.234018,0.924604,-1.252744,2.596856,0.852250,0.991817,4.808238,-1.338450,-0.172696,-0.854572,-7.071742,-15.203052,-66.840271,17.197071,-20.459960,-0.120213,-0.448866,0.000000,-0.485857,0.660092,0.000000
2.140000,-1.207809,0.933058,-1.242837,2.644885,0.838515,0.989327,4.796330,-1.408292,-0.325694,-1.539671,-6.911322,-15.392636,-73.657055,9.460189,-18.037704,-0.124938,-0.441988,0.000000,-0.460629,0.705732,0.000000
2.150000,-1.181121,0.941372,-1.232963,2.692759,0.824088,0.985297,4.777142,-1.477057,-0.480480,-2.297351,-6.836590,-15.558396,-74.353316,10.885562,-14.501878,-0.129463,-0.434624,0.000000,-0.444225,0.754734,-0.000000
2.160000,-1.153955,0.949538,-1.223136,2.740403,0.808977,0.979712,4.750417,-1.544969,-0.636718,-3.049391,-6.747287,-15.682923,-75.191557,11.423285,-10.862167,-0.133821,-0.426779,0.000000,-0.427529,0.800344,0.000000
2.170000,-1.126314,0.957549,-1.213374,2.787742,0.793193,0.972559,4.716197,-1.611623,-0.794054,-3.792925,-6.567294,-15.779723,-74.295094,20.242180,-8.027107,-0.137984,-0.418483,0.000000,-0.404008,0.843064,-0.000000
2.180000,-1.098201,0.965399,-1.203690,2.834702,0.776751,0.963828,4.674502,-1.676501,-0.952166,-4.551689,-6.433411,-15.833612,-77.452877,6.391325,-2.725990,-0.141921,-0.409760,0.000000,-0.385654,0.884427,-0.000000
2.190000,-1.069621,0.973082,-1.194102,2.881206,0.759665,0.953515,4.625108,-1.740501,-1.110576,-5.324999,-6.352125,-15.843330,-76.361141,14.225149,0.328111,-0.145718,-0.400618,0.000000,-0.372748,0.924534,0.000000
2.200000,-1.040579,0.980591,-1.184625,2.927179,0.741945,0.941617,4.568060,-1.803185,-1.268941,-6.085225,-6.186109,-15.822968,-76.466788,14.620438,4.212130,-0.149349,-0.391081,0.000000,-0.353652,0.961931,-0.000000
2.210000,-1.011080,0.987919,-1.175275,2.972542,0.723607,0.928137,4.503402,-1.864268,-1.426889,-6.845732,-6.028409,-15.760119,-76.255880,15.429407,8.126106,-0.152799,-0.381170,0.000000,-0.336303,0.997457,-0.000000
2.220000,-0.981130,0.995061,-1.166068,3.017221,0.704665,0.913082,4.431102,-1.923847,-1.584031,-7.615707,-5.891278,-15.662550,-77.072460,13.433762,11.619332,-0.156086,-0.370898,0.000000,-0.321559,1.032242,0.000000
2.230000,-0.950738,1.002010,-1.157019,3.061139,0.685134,0.896461,4.351134,-1.982001,-1.739998,-8.373215,-5.729559,-15.522891,-74.376594,18.950423,16.320081,-0.159225,-0.360279,0.000000,-0.305740,1.064596,0.000000
2.240000,-0.919910,1.008762,-1.148144,3.104219,0.665031,0.878287,4.263694,-2.038339,-1.894346,-9.115411,-5.541531,-15.340799,-74.669992,17.194651,19.865211,-0.162196,-0.349342,0.000000,-0.288768,1.094533,-0.000000
2.250000,-0.888657,1.015309,-1.139458,3.146388,0.644373,0.858580,4.168805,-2.092923,-2.046701,-9.860521,-5.373412,-15.123678,-73.680796,17.874209,23.785956,-0.165011,-0.338099,0.000000,-0.274231,1.123804,-0.000000
2.260000,-0.856986,1.021647,-1.130977,3.187570,0.623179,0.837361,4.066551,-2.145766,-2.196684,-10.587787,-5.194592,-14.866371,-72.455952,18.372375,27.663370,-0.167680,-0.326564,0.000000,-0.259672,1.150910,0.000000
2.270000,-0.824909,1.027771,-1.122716,3.227694,0.601464,0.814656,3.957035,-2.196759,-2.343901,-11.315581,-5.001588,-14.570606,-72.375394,19.748570,31.487477,-0.170203,-0.314754,0.000000,-0.244881,1.177438,0.000000
2.280000,-0.792436,1.033675,-1.114689,3.266687,0.579250,0.790494,3.840322,-2.245805,-2.487969,-12.020058,-4.809690,-14.236680,-68.466573,18.610596,35.287745,-0.172580,-0.302678,0.000000,-0.230913,1.201819,0.000000
2.290000,-0.759579,1.039354,-1.106911,3.304478,0.556554,0.764908,3.716727,-2.292964,-2.628509,-12.698341,-4.619903,-13.865194,-67.860195,19.819563,38.991375,-0.174824,-0.290363,0.000000,-0.217793,1.224042,0.000000
2.300000,-0.726351,1.044804,-1.099395,3.340999,0.533397,0.737937,3.586363,-2.338153,-2.765151,-13.370682,-4.417473,-13.457069,-65.877539,20.183751,42.625255,-0.176935,-0.277819,0.000000,-0.204469,1.245768,-0.000000
2.310000,-0.692763,1.050021,-1.092157,3.376183,0.509798,0.709619,3.449412,-2.381313,-2.897537,-14.015586,-4.214077,-13.014458,-63.688736,20.540199,46.138200,-0.178916,-0.265059,0.000000,-0.191691,1.265638,0.000000
2.320000,-0.658832,1.054999,-1.085207,3.409966,0.485778,0.680001,3.306077,-2.422419,-3.025304,-14.649528,-4.006314,-12.532280,-62.473470,20.958545,50.029190,-0.180770,-0.252097,0.000000,-0.179316,1.284899,0.000000
2.330000,-0.624569,1.059735,-1.078561,3.442284,0.461357,0.649130,3.156531,-2.461431,-3.148082,-15.251945,-3.796028,-12.019507,-57.963073,21.092220,52.497378,-0.182503,-0.238942,0.000000,-0.167278,1.302391,-0.000000
2.340000,-0.589991,1.064225,-1.072229,3.473077,0.436556,0.617057,3.001157,-2.498332,-3.265599,-15.820320,-3.583588,-11.477696,-56.287813,21.439810,56.095326,-0.184117,-0.225616,0.000000,-0.155566,1.318093,-0.000000
2.350000,-0.555113,1.068465,-1.066223,3.502289,0.411397,0.583837,2.840169,-2.533091,-3.377513,-16.372052,-3.367743,-10.900202,-53.431483,21.675491,59.127974,-0.185616,-0.212128,0.000000,-0.144218,1.333270,-0.000000
2.360000,-0.519951,1.072452,-1.060556,3.529863,0.385902,0.549527,2.673841,-2.565684,-3.483521,-16.888186,-3.150716,-10.296924,-50.392839,21.870233,61.976109,-0.187002,-0.198490,0.000000,-0.133196,1.346852,-0.000000
2.370000,-0.484521,1.076182,-1.055236,3.555749,0.360091,0.514187,2.502459,-2.596087,-3.583321,-17.385156,-2.929092,-9.656843,-48.374394,22.309678,65.553232,-0.188280,-0.184714,0.000000,-0.122438,1.359967,-0.000000
2.380000,-0.448841,1.079652,-1.050275,3.579896,0.333987,0.477882,2.326275,-2.624268,-3.676592,-17.842551,-2.707561,-8.996073,-43.064202,21.988102,66.557780,-0.189452,-0.170807,0.000000,-0.112003,1.371505,-0.000000
2.390000,-0.412929,1.082861,-1.045682,3.602260,0.307613,0.440677,2.145752,-2.650242,-3.763185,-18.258237,-2.486560,-8.316965,-40.662544,22.350309,69.698398,-0.190521,-0.156790,0.000000,-0.101879,1.381421,-0.000000
2.400000,-0.376802,1.085804,-1.041464,3.622798,0.280990,0.402641,1.961178,-2.673984,-3.842820,-18.650243,-2.261833,-7.606661,-37.112615,22.450037,71.868047,-0.191490,-0.142670,0.000000,-0.091972,1.390936,0.000000
2.410000,-0.340479,1.088480,-1.037631,3.641471,0.254141,0.363845,1.772886,-2.695477,-3.915274,-19.001979,-2.036564,-6.881212,-33.468918,22.545191,73.807036,-0.192361,-0.128458,0.000000,-0.082251,1.399137,0.000000
2.420000,-0.303979,1.090886,-1.034190,3.658244,0.227088,0.324361,1.581241,-2.714717,-3.980332,-19.321617,-1.811498,-6.125503,-30.200344,22.518688,76.702444,-0.193137,-0.114164,0.000000,-0.072981,1.406540,-0.000000
2.430000,-0.267321,1.093021,-1.031146,3.673086,0.199854,0.284264,1.386591,-2.731702,-4.037757,-19.600593,-1.585122,-5.360416,-25.574025,22.755422,76.261731,-0.193821,-0.099798,0.000000,-0.063758,1.412801,-0.000000
2.440000,-0.230524,1.094883,-1.028506,3.685967,0.172461,0.243631,1.189371,-2.746415,-4.087524,-19.837783,-1.357525,-4.588850,-22.098789,22.707427,78.620830,-0.194412,-0.085373,0.000000,-0.054547,1.417883,-0.000000
2.450000,-0.193608,1.096470,-1.026275,3.696866,0.144933,0.202539,0.989947,-2.758856,-4.129445,-20.040274,-1.130562,-3.793849,-18.144644,22.736884,79.740521,-0.194914,-0.070899,0.000000,-0.045714,1.422233,-0.000000
2.460000,-0.156593,1.097781,-1.024457,3.705760,0.117292,0.161069,0.788708,-2.769021,-4.163398,-20.200656,-0.902329,-2.995628,-14.132341,22.765557,80.599004,-0.195326,-0.056384,0.000000,-0.036842,1.425490,0.000000
2.470000,-0.119500,1.098815,-1.023055,3.712635,0.089560,0.119298,0.586051,-2.776913,-4.189273,-20.324703,-0.676597,-2.175871,-10.469642,22.516585,82.605022,-0.195652,-0.041839,0.000000,-0.028446,1.428020,-0.000000
2.480000,-0.082348,1.099572,-1.022072,3.717478,0.061761,0.077311,0.382359,-2.782546,-4.206931,-20.405722,-0.449144,-1.359186,-5.724292,22.976520,80.672494,-0.195895,-0.027272,0.000000,-0.019894,1.429478,-0.000000
2.490000,-0.045157,1.100050,-1.021509,3.720280,0.033917,0.035187,0.178083,-2.785889,-4.216484,-20.443218,-0.219890,-0.548801,-1.977054,22.733483,82.083921,-0.196049,-0.012696,0.000000,-0.011141,1.429810,0.000000
2.500000,-0.007949,1.100250,-1.021368,3.721039,0.006051,-0.006992,-0.026385,-2.786955,-4.217847,-20.443523,0.006674,0.275648,2.118969,22.716010,82.053368,-0.196119,0.001881,0.000000,-0.002774,1.429447,-0.000000
2.510000,0.029257,1.100171,-1.021649,3.719753,-0.021815,-0.049143,-0.230647,-2.785749,-4.211009,-20.402122,0.234609,1.091077,6.190170,22.698526,81.757561,-0.196104,0.016449,0.000000,0.005801,1.428090,0.000000
2.520000,0.066440,1.099814,-1.022350,3.716428,-0.049657,-0.091185,-0.434289,-2.782278,-4.195977,-20.319499,0.459039,1.917067,10.299621,22.351645,82.662935,-0.196005,0.030997,0.000000,0.013980,1.425787,-0.000000
2.530000,0.103579,1.099178,-1.023472,3.711071,-0.077453,-0.133035,-0.636904,-2.776562,-4.172723,-20.196874,0.685087,2.728053,14.218115,22.861398,79.474074,-0.195823,0.045518,0.000000,0.022463,1.422576,0.000000
2.540000,0.140654,1.098265,-1.025010,3.703695,-0.105180,-0.174613,-0.838095,-2.768569,-4.141483,-20.034668,0.912880,3.520786,18.245470,22.528030,79.783173,-0.195554,0.060000,0.000000,0.031304,1.418406,0.000000
2.550000,0.177646,1.097075,-1.026963,3.694315,-0.132816,-0.215838,-1.037463,-2.758319,-4.102284,-19.832411,1.137031,4.316644,22.165318,22.467334,78.607624,-0.195198,0.074434,0.000000,0.039840,1.413299,-0.000000
2.560000,0.214534,1.095609,-1.029326,3.682953,-0.160339,-0.256632,-1.234620,-2.745823,-4.055226,-19.592659,1.362103,5.092209,25.995530,22.400640,77.186202,-0.194756,0.088810,0.000000,0.048706,1.407291,-0.000000
2.570000,0.251298,1.093869,-1.032094,3.669631,-0.187725,-0.296917,-1.429172,-2.731091,-4.000433,-19.310712,1.583675,5.866261,30.163986,22.051699,76.895035,-0.194225,0.103118,0.000000,0.057337,1.400116,-0.000000
2.580000,0.287920,1.091855,-1.035262,3.654379,-0.214953,-0.336615,-1.620720,-2.714146,-3.937991,-18.994208,1.806034,6.614842,33.114373,22.422314,72.766170,-0.193608,0.117346,0.000000,0.066366,1.392101,0.000000
2.590000,0.324380,1.089570,-1.038824,3.637228,-0.242001,-0.375652,-1.808947,-2.694966,-3.868236,-18.644387,2.029239,7.334986,37.050566,22.074782,71.931887,-0.192897,0.131487,0.000000,0.075843,1.383201,0.000000
2.600000,0.360658,1.087016,-1.042773,3.618213,-0.268845,-0.413956,-1.993474,-2.673576,-3.791307,-18.255414,2.248678,8.046889,40.507561,21.951536,69.717997,-0.192092,0.145529,0.000000,0.085168,1.373115,-0.000000
2.610000,0.396738,1.084194,-1.047100,3.597372,-0.295465,-0.451455,-2.173957,-2.649992,-3.707405,-17.836037,2.467909,8.729109,43.807908,21.811577,67.299101,-0.191192,0.159461,0.000000,0.094899,1.362175,0.000000
2.620000,0.432600,1.081107,-1.051799,3.574748,-0.321838,-0.488082,-2.350049,-2.624230,-3.616759,-17.375446,2.684114,9.397836,47.841136,21.503949,65.833202,-0.190194,0.173272,0.000000,0.104601,1.349706,0.000000
2.630000,0.468227,1.077758,-1.056859,3.550387,-0.347943,-0.523769,-2.521384,-2.596312,-3.519565,-16.889053,2.899553,10.032941,49.399983,21.583064,61.142625,-0.189098,0.186948,0.000000,0.114744,1.336469,-0.000000
2.640000,0.503602,1.074149,-1.062271,3.524337,-0.373757,-0.558452,-2.687755,-2.566241,-3.416225,-16.378888,3.114134,10.632003,53.059398,21.251098,59.235360,-0.187897,0.200484,0.000000,0.125370,1.322437,-0.000000
2.650000,0.538708,1.070284,-1.068024,3.496650,-0.399260,-0.592073,-2.848832,-2.534043,-3.306977,-15.832207,3.325166,11.212146,55.800984,21.029644,56.181042,-0.186591,0.213865,0.000000,0.136035,1.306832,0.000000
2.660000,0.573530,1.066165,-1.074109,3.467379,-0.424431,-0.624573,-3.004330,-2.499744,-3.192109,-15.263457,3.534024,11.756055,58.362432,20.774991,52.983257,-0.185175,0.227080,0.000000,0.147115,1.290310,-0.000000
2.670000,0.608051,1.061797,-1.080512,3.436582,-0.449248,-0.655898,-3.153983,-2.463368,-3.071932,-14.661461,3.740921,12.275103,61.580998,20.564289,50.415303,-0.183648,0.240114,0.000000,0.158453,1.272125,0.000000
2.680000,0.642257,1.057182,-1.087222,3.404320,-0.473691,-0.685995,-3.297503,-2.424937,-2.946737,-14.041387,3.944467,12.755767,62.391213,20.139287,45.687304,-0.182005,0.252954,0.000000,0.170185,1.253003,0.000000
2.690000,0.676133,1.052324,-1.094228,3.370653,-0.497740,-0.714817,-3.434761,-2.384491,-2.816953,-13.405584,4.144340,13.196426,65.170628,19.866697,42.823661,-0.180243,0.265592,0.000000,0.182332,1.232918,0.000000
2.700000,0.709665,1.047228,-1.101514,3.335646,-0.521375,-0.742320,-3.565515,-2.342059,-2.682897,-12.742253,4.341395,13.608586,67.034394,19.503444,39.200314,-0.178357,0.278012,0.000000,0.194779,1.211090,-0.000000
2.710000,0.742841,1.041898,-1.109069,3.299365,-0.544575,-0.768462,-3.689574,-2.297683,-2.544917,-12.067251,4.533146,13.981140,68.656891,19.085360,35.501708,-0.176346,0.290201,0.000000,0.207557,1.188294,0.000000
2.720000,0.775648,1.036338,-1.116879,3.261878,-0.567322,-0.793206,-3.806750,-2.251391,-2.403382,-11.363107,4.725243,14.320271,71.438544,19.092405,32.117622,-0.174204,0.302144,0.000000,0.220961,1.163219,-0.000000
2.730000,0.808075,1.030553,-1.124929,3.223254,-0.589596,-0.816519,-3.916824,-2.203204,-2.258647,-10.653847,4.909927,14.619176,70.359120,17.831779,27.649433,-0.171926,0.313821,0.000000,0.234605,1.137302,0.000000
2.740000,0.840110,1.024548,-1.133204,3.183565,-0.611380,-0.838370,-4.019825,-2.153221,-2.111137,-9.942397,5.086560,14.877115,72.605817,17.728601,24.131720,-0.169511,0.325228,0.000000,0.248471,1.110567,0.000000
2.750000,0.871743,1.018327,-1.141691,3.142882,-0.632655,-0.858734,-4.115585,-2.101472,-1.961218,-9.208401,5.262369,15.100025,73.454688,17.189979,20.248778,-0.166954,0.336346,0.000000,0.262975,1.081471,-0.000000
2.760000,0.902964,1.011897,-1.150374,3.101278,-0.653404,-0.877588,-4.204001,-2.048001,-1.809269,-8.474158,5.430704,15.283326,74.071349,16.619884,16.368566,-0.164251,0.347160,0.000000,0.277773,1.051373,-0.000000
2.770000,0.933766,1.005261,-1.159238,3.058826,-0.673609,-0.894914,-4.284993,-1.992865,-1.655685,-7.721097,5.596027,15.427008,75.818738,16.296464,12.408867,-0.161397,0.357651,0.000000,0.293149,1.018686,-0.000000
2.780000,0.964138,0.998426,-1.168267,3.015603,-0.693256,-0.910697,-4.358444,-1.936108,-1.500857,-6.972913,5.753525,15.532381,73.763813,15.193909,8.669581,-0.158387,0.367799,0.000000,0.308830,0.985031,0.000000
2.790000,0.994075,0.991398,-1.177447,2.971682,-0.712327,-0.924928,-4.424483,-1.877823,-1.345164,-6.232523,5.902713,15.599664,74.978024,14.783760,4.751330,-0.155219,0.377599,0.000000,0.324801,0.950462,-0.000000
2.800000,1.023570,0.984182,-1.186761,2.927138,-0.730807,-0.937599,-4.483042,-1.818064,-1.188994,-5.479907,6.047877,15.627871,74.819622,14.100574,0.937228,-0.151889,0.387029,0.000000,0.341342,0.913222,0.000000
2.810000,1.052616,0.976784,-1.196193,2.882046,-0.748683,-0.948708,-4.534120,-1.756902,-1.032724,-4.736599,6.183168,15.620093,74.445655,13.356035,-2.797437,-0.148392,0.396073,0.000000,0.358051,0.874860,-0.000000
2.820000,1.081209,0.969210,-1.205730,2.836481,-0.765941,-0.958254,-4.577738,-1.694393,-0.876741,-3.985769,6.318624,15.569234,75.073678,13.340658,-7.059541,-0.144724,0.404710,0.000000,0.375777,0.833639,0.000000
