time,x,y,z,vx,vy,vz,ax,ay,az,jx,jy,jz,sx,sy,sz,roll,pitch,yaw,p,q,r
0.000000,-3.005077,0.315305,-1.491552,-0.003972,0.000648,0.004454,0.201668,-0.030984,0.017038,6.936484,-1.147661,0.464845,-270.639400,34.186316,-34.439999,-0.003163,-0.020590,0.000000,-0.117270,-0.708986,-0.000000
0.010000,-3.005117,0.315311,-1.491507,-0.001956,0.000338,0.004624,0.271033,-0.042461,0.021686,4.230090,-0.805798,0.120446,-539.018454,74.461313,-59.417965,-0.004336,-0.027682,0.000000,-0.082291,-0.432162,-0.000000
0.020000,-3.005116,0.315311,-1.491459,0.001448,-0.000202,0.004888,0.286270,-0.047100,0.019447,-3.843885,0.341565,-0.723514,-598.349221,87.493395,-60.202875,-0.004809,-0.029231,0.000000,0.035171,0.394431,0.000000
0.030000,-3.005088,0.315307,-1.491409,0.003770,-0.000604,0.005013,0.194155,-0.035629,0.007216,-7.736894,0.944070,-1.083612,-60.325377,11.471904,-5.471152,-0.003634,-0.019804,0.000000,0.096631,0.791129,0.000000
0.040000,-3.005041,0.315299,-1.491359,0.005331,-0.000914,0.005032,0.131532,-0.028219,-0.002226,-5.050393,0.571004,-0.832937,243.980121,-34.195052,22.425500,-0.002876,-0.013404,0.000000,0.058412,0.515747,0.000000
0.050000,-3.004981,0.315289,-1.491309,0.006400,-0.001169,0.004969,0.093147,-0.024209,-0.009443,-2.857292,0.260169,-0.635102,197.729613,-28.322686,17.495409,-0.002465,-0.009486,0.000000,0.026647,0.291570,-0.000000
0.060000,-3.004913,0.315276,-1.491260,0.007194,-0.001398,0.004843,0.074386,-0.023015,-0.014928,-1.095800,0.004550,-0.483029,157.461068,-23.130825,13.250271,-0.002342,-0.007571,0.000000,0.000576,0.111898,-0.000000
0.070000,-3.004837,0.315261,-1.491212,0.007888,-0.001629,0.004670,0.071231,-0.024118,-0.019103,0.291929,-0.202447,-0.370097,122.779965,-18.577003,9.644255,-0.002454,-0.007247,0.000000,-0.020503,-0.029426,0.000000
0.080000,-3.004755,0.315243,-1.491166,0.008619,-0.001881,0.004461,0.080225,-0.027064,-0.022330,1.359799,-0.366990,-0.290144,93.291787,-14.618757,6.631553,-0.002752,-0.008159,0.000000,-0.037239,-0.138048,0.000000
0.090000,-3.004665,0.315223,-1.491123,0.009493,-0.002170,0.004224,0.098427,-0.031458,-0.024906,2.157765,-0.494822,-0.237466,68.602004,-11.213625,4.166322,-0.003198,-0.010008,0.000000,-0.050226,-0.219134,-0.000000
0.100000,-3.004565,0.315200,-1.491082,0.010588,-0.002510,0.003963,0.123380,-0.036961,-0.027079,2.731839,-0.591263,-0.206817,48.316087,-8.319145,2.202708,-0.003757,-0.012542,0.000000,-0.060008,-0.277399,0.000000
0.110000,-3.004453,0.315173,-1.491043,0.011960,-0.002910,0.003682,0.153064,-0.043283,-0.029043,3.124087,-0.661205,-0.193411,32.039526,-5.892849,0.694902,-0.004399,-0.015556,0.000000,-0.067085,-0.317134,0.000000
0.120000,-3.004326,0.315142,-1.491008,0.013649,-0.003376,0.003382,0.185862,-0.050185,-0.030947,3.372630,-0.709120,-0.192919,19.377794,-3.892274,-0.402881,-0.005099,-0.018884,0.000000,-0.071910,-0.342217,0.000000
0.130000,-3.004180,0.315106,-1.490976,0.015677,-0.003913,0.003063,0.220517,-0.057466,-0.032901,3.511643,-0.739051,-0.201469,9.936365,-2.274955,-1.136496,-0.005837,-0.022400,0.000000,-0.074897,-0.356126,0.000000
0.140000,-3.004012,0.315064,-1.490947,0.018059,-0.004525,0.002724,0.256095,-0.064966,-0.034976,3.571357,-0.754619,-0.215649,3.320745,-0.998436,-1.551886,-0.006597,-0.026007,0.000000,-0.076414,-0.361937,-0.000000
0.150000,-3.003819,0.315015,-1.490921,0.020799,-0.005213,0.002363,0.291944,-0.072558,-0.037214,3.578058,-0.759020,-0.232507,-0.863616,-0.020248,-1.694785,-0.007365,-0.029639,0.000000,-0.076789,-0.362329,-0.000000
0.160000,-3.003596,0.314959,-1.490900,0.023898,-0.005976,0.001980,0.327656,-0.080146,-0.039627,3.554085,-0.755024,-0.249545,-3.011264,0.702080,-1.610883,-0.008132,-0.033254,0.000000,-0.076304,-0.359582,0.000000
0.170000,-3.003341,0.314896,-1.490882,0.027352,-0.006815,0.001571,0.363026,-0.087659,-0.042205,3.517832,-0.744978,-0.264724,-3.575648,1.216892,-1.353138,-0.008891,-0.036830,0.000000,-0.075203,-0.355574,0.000000
0.180000,-3.003049,0.314823,-1.490868,0.031159,-0.007729,0.001136,0.398012,-0.095046,-0.044921,3.482572,-0.730686,-0.276607,-3.981761,1.669521,-1.088975,-0.009636,-0.040365,0.000000,-0.073670,-0.351660,0.000000
0.190000,-3.002718,0.314741,-1.490859,0.035313,-0.008716,0.000673,0.432677,-0.102272,-0.047737,3.438197,-0.711588,-0.286504,-4.267811,2.066864,-0.822067,-0.010364,-0.043864,0.000000,-0.071650,-0.346819,0.000000
0.200000,-3.002343,0.314649,-1.490855,0.039812,-0.009775,0.000181,0.466776,-0.109278,-0.050651,3.397215,-0.689349,-0.293049,2.775432,1.692278,0.298614,-0.011069,-0.047302,0.000000,-0.069314,-0.342327,0.000000
0.210000,-3.001921,0.314545,-1.490855,0.044648,-0.010902,-0.000341,0.500621,-0.116059,-0.053598,3.493706,-0.677742,-0.280532,15.938739,0.669556,2.131115,-0.011751,-0.050711,0.000000,-0.068070,-0.351828,0.000000
0.220000,-3.001450,0.314431,-1.490862,0.049825,-0.012096,-0.000891,0.536651,-0.122832,-0.056262,3.715990,-0.675958,-0.250426,13.022486,1.218318,2.058030,-0.012431,-0.054339,0.000000,-0.067832,-0.374120,-0.000000
0.230000,-3.000925,0.314304,-1.490873,0.055381,-0.013359,-0.001466,0.574941,-0.129579,-0.058607,3.754155,-0.653376,-0.239371,-6.807645,3.429659,-0.011853,-0.013107,-0.058194,0.000000,-0.065478,-0.377686,-0.000000
0.240000,-3.000342,0.314163,-1.490891,0.061323,-0.014688,-0.002063,0.611734,-0.135900,-0.061049,3.579837,-0.607364,-0.250664,-13.661974,4.321023,-0.554512,-0.013740,-0.061893,0.000000,-0.060745,-0.359671,-0.000000
0.250000,-2.999698,0.314010,-1.490915,0.067616,-0.016077,-0.002687,0.646538,-0.141726,-0.063620,3.480916,-0.566955,-0.250461,-4.424379,3.549542,0.750331,-0.014322,-0.065388,0.000000,-0.056596,-0.349352,-0.000000
0.260000,-2.998990,0.313842,-1.490945,0.074254,-0.017522,-0.003336,0.681352,-0.147239,-0.066058,3.491350,-0.536374,-0.235657,0.379158,3.171215,1.487419,-0.014872,-0.068881,0.000000,-0.053456,-0.350165,-0.000000
0.270000,-2.998213,0.313659,-1.490981,0.081243,-0.019021,-0.004008,0.716365,-0.152453,-0.068333,3.488499,-0.503531,-0.220713,-2.148036,3.578321,1.453295,-0.015391,-0.072392,0.000000,-0.050094,-0.349646,0.000000
0.280000,-2.997365,0.313461,-1.491025,0.088581,-0.020571,-0.004702,0.751122,-0.157310,-0.070473,3.448389,-0.464807,-0.206591,-4.963404,4.074269,1.479654,-0.015874,-0.075875,0.000000,-0.046147,-0.345381,0.000000
0.290000,-2.996442,0.313248,-1.491075,0.096265,-0.022168,-0.005417,0.785333,-0.161749,-0.072465,3.389231,-0.422045,-0.191120,-6.058542,4.322349,1.613704,-0.016314,-0.079301,0.000000,-0.041806,-0.339229,-0.000000
0.300000,-2.995440,0.313018,-1.491133,0.104288,-0.023806,-0.006152,0.818907,-0.165751,-0.074295,3.327218,-0.378360,-0.174317,-6.346619,4.390383,1.744620,-0.016710,-0.082660,0.000000,-0.037382,-0.332824,0.000000
0.310000,-2.994356,0.312772,-1.491198,0.112644,-0.025483,-0.006903,0.851877,-0.169317,-0.075951,3.262299,-0.334238,-0.156227,-6.932754,4.485145,1.868003,-0.017062,-0.085958,0.000000,-0.032926,-0.326162,0.000000
0.320000,-2.993187,0.312508,-1.491271,0.121326,-0.027192,-0.007671,0.884153,-0.172435,-0.077420,3.188563,-0.288657,-0.136957,-7.618714,4.631023,1.971152,-0.017369,-0.089185,0.000000,-0.028334,-0.318652,-0.000000
0.330000,-2.991929,0.312228,-1.491352,0.130327,-0.028931,-0.008452,0.915648,-0.175090,-0.078690,3.109924,-0.241617,-0.116804,-8.020536,4.759549,2.050489,-0.017629,-0.092332,0.000000,-0.023607,-0.310687,-0.000000
0.340000,-2.990580,0.311930,-1.491440,0.139639,-0.030694,-0.009244,0.946351,-0.177268,-0.079756,3.028152,-0.193466,-0.095947,-8.502646,4.857945,2.121895,-0.017841,-0.095400,0.000000,-0.018778,-0.302445,-0.000000
0.350000,-2.989137,0.311614,-1.491537,0.149254,-0.032477,-0.010047,0.976211,-0.178959,-0.080609,2.939871,-0.144458,-0.074366,-9.186370,4.936985,2.194595,-0.018004,-0.098382,0.000000,-0.013873,-0.293588,0.000000
0.360000,-2.987595,0.311280,-1.491641,0.159163,-0.034273,-0.010857,1.005148,-0.180157,-0.081243,2.844425,-0.094727,-0.052055,-9.803928,5.003823,2.255801,-0.018118,-0.101272,0.000000,-0.008906,-0.284055,-0.000000
0.370000,-2.985953,0.310929,-1.491754,0.169357,-0.036080,-0.011672,1.033100,-0.180854,-0.081650,2.743793,-0.044382,-0.029250,-10.225105,5.055049,2.279864,-0.018183,-0.104064,0.000000,-0.003887,-0.274041,-0.000000
0.380000,-2.984208,0.310559,-1.491875,0.179825,-0.037891,-0.012490,1.060024,-0.181044,-0.081828,2.639923,0.006374,-0.006458,-10.537728,5.089193,2.268043,-0.018196,-0.106754,0.000000,0.001167,-0.263736,-0.000000
0.390000,-2.982357,0.310171,-1.492004,0.190557,-0.039701,-0.013308,1.085898,-0.180726,-0.081779,2.533038,0.057402,0.016110,-10.893916,5.112960,2.253446,-0.018159,-0.109340,0.000000,0.006242,-0.253161,0.000000
0.400000,-2.980397,0.309765,-1.492141,0.201543,-0.041505,-0.014125,1.110685,-0.179896,-0.081506,2.422044,0.108634,0.038611,-11.299357,5.126750,2.248646,-0.018071,-0.111818,0.000000,0.011331,-0.242205,-0.000000
0.410000,-2.978326,0.309341,-1.492286,0.212771,-0.043299,-0.014938,1.134339,-0.178553,-0.081007,2.307051,0.159937,0.061083,-11.653728,5.127109,2.229754,-0.017933,-0.114185,0.000000,0.016424,-0.230881,-0.000000
0.420000,-2.976142,0.308899,-1.492439,0.224230,-0.045076,-0.015745,1.156826,-0.176698,-0.080284,2.188970,0.211176,0.083206,-11.936601,5.117602,2.164470,-0.017743,-0.116437,0.000000,0.021506,-0.219274,0.000000
0.430000,-2.973842,0.308439,-1.492601,0.235907,-0.046833,-0.016544,1.178119,-0.174330,-0.079343,2.068319,0.262289,0.104373,-12.183002,5.100744,2.058219,-0.017503,-0.118571,0.000000,0.026576,-0.207428,-0.000000
0.440000,-2.971424,0.307962,-1.492770,0.247792,-0.048563,-0.017332,1.198192,-0.171452,-0.078197,1.945310,0.313191,0.124370,-12.412873,5.072684,1.953256,-0.017211,-0.120586,0.000000,0.031625,-0.195357,0.000000
0.450000,-2.968886,0.307468,-1.492948,0.259871,-0.050262,-0.018108,1.217025,-0.168066,-0.076856,1.820062,0.363743,0.143438,-12.621420,5.031157,1.863056,-0.016870,-0.122479,0.000000,0.036640,-0.183074,-0.000000
0.460000,-2.966226,0.306957,-1.493132,0.272132,-0.051924,-0.018869,1.234594,-0.164177,-0.075328,1.692881,0.413814,0.161632,-12.797671,4.980059,1.758478,-0.016479,-0.124248,0.000000,0.041609,-0.170609,0.000000
0.470000,-2.963443,0.306429,-1.493325,0.284563,-0.053545,-0.019614,1.250882,-0.159790,-0.073623,1.564108,0.463344,0.178607,-12.948364,4.926780,1.606880,-0.016038,-0.125892,0.000000,0.046528,-0.157988,0.000000
0.480000,-2.960535,0.305886,-1.493525,0.297150,-0.055120,-0.020342,1.265876,-0.154910,-0.071756,1.433914,0.512349,0.193769,-13.078620,4.871192,1.416379,-0.015548,-0.127408,0.000000,0.051400,-0.145218,0.000000
0.490000,-2.957500,0.305327,-1.493732,0.309881,-0.056643,-0.021050,1.279561,-0.149543,-0.069748,1.302536,0.560768,0.206935,-13.179713,4.804744,1.230352,-0.015010,-0.128797,0.000000,0.056219,-0.132317,0.000000
0.500000,-2.954337,0.304753,-1.493946,0.322741,-0.058111,-0.021737,1.291927,-0.143695,-0.067617,1.170320,0.608444,0.218376,-13.249327,4.725828,1.061054,-0.014424,-0.130055,0.000000,0.060972,-0.119320,-0.000000
0.510000,-2.951045,0.304165,-1.494167,0.335719,-0.059517,-0.022402,1.302967,-0.137374,-0.065380,1.037549,0.655284,0.228156,-13.294761,4.641213,0.879637,-0.013790,-0.131183,0.000000,0.065647,-0.106253,0.000000
0.520000,-2.947623,0.303563,-1.494394,0.348801,-0.060858,-0.023044,1.312678,-0.130589,-0.063054,0.904425,0.701269,0.235969,-13.321613,4.556057,0.658414,-0.013111,-0.132180,0.000000,0.070246,-0.093129,0.000000
0.530000,-2.944069,0.302948,-1.494627,0.361973,-0.062129,-0.023663,1.321056,-0.123349,-0.060661,0.771117,0.746405,0.241324,-13.328357,4.468987,0.406639,-0.012385,-0.133046,0.000000,0.074769,-0.079956,0.000000
0.540000,-2.940383,0.302320,-1.494867,0.375222,-0.063325,-0.024258,1.328100,-0.115661,-0.058228,0.637858,0.790648,0.244102,-13.309360,4.374587,0.161929,-0.011615,-0.133780,0.000000,0.079211,-0.066753,-0.000000
0.550000,-2.936565,0.301681,-1.495113,0.388535,-0.064442,-0.024828,1.333813,-0.107536,-0.055779,0.504930,0.833897,0.244563,-13.264841,4.271851,-0.066407,-0.010801,-0.134381,0.000000,0.083563,-0.053549,-0.000000
0.560000,-2.932613,0.301031,-1.495364,0.401898,-0.065476,-0.025373,1.338199,-0.098983,-0.053336,0.372561,0.876085,0.242774,-13.199513,4.165227,-0.302281,-0.009944,-0.134851,0.000000,0.087817,-0.040367,-0.000000
0.570000,-2.928527,0.300372,-1.495620,0.415299,-0.066422,-0.025894,1.341264,-0.090014,-0.050923,0.240940,0.917202,0.238517,-13.114588,4.058924,-0.564497,-0.009045,-0.135188,0.000000,0.091972,-0.027219,0.000000
0.580000,-2.924307,0.299703,-1.495882,0.428723,-0.067276,-0.026392,1.343017,-0.080639,-0.048566,0.110269,0.957264,0.231484,-13.009026,3.952167,-0.844163,-0.008105,-0.135395,0.000000,0.096030,-0.014121,-0.000000
0.590000,-2.919952,0.299026,-1.496148,0.442159,-0.068035,-0.026866,1.343469,-0.070869,-0.046294,-0.019241,0.996245,0.221634,-12.882859,3.840508,-1.114618,-0.007124,-0.135471,0.000000,0.099987,-0.001093,0.000000
0.600000,-2.915464,0.298342,-1.496419,0.455593,-0.068693,-0.027317,1.342632,-0.060714,-0.044133,-0.147388,1.034074,0.209191,-12.738167,3.723549,-1.370644,-0.006105,-0.135417,0.000000,0.103834,0.011844,-0.000000
0.610000,-2.910840,0.297652,-1.496694,0.469012,-0.069249,-0.027748,1.340522,-0.050187,-0.042110,-0.274004,1.070716,0.194221,-12.575768,3.604926,-1.627924,-0.005048,-0.135234,0.000000,0.107567,0.024672,0.000000
0.620000,-2.906083,0.296957,-1.496974,0.482403,-0.069697,-0.028160,1.337152,-0.039300,-0.040249,-0.398904,1.106172,0.176633,-12.392372,3.486732,-1.894001,-0.003953,-0.134923,0.000000,0.111186,0.037374,0.000000
0.630000,-2.901192,0.296258,-1.497257,0.495755,-0.070035,-0.028553,1.332543,-0.028064,-0.038577,-0.521852,1.140451,0.156341,-12.188057,3.368250,-2.161570,-0.002824,-0.134486,0.000000,0.114688,0.049925,-0.000000
0.640000,-2.896168,0.295557,-1.497545,0.509054,-0.070259,-0.028931,1.326715,-0.016491,-0.037122,-0.642665,1.173537,0.133401,-11.968713,3.247799,-2.418251,-0.001660,-0.133925,0.000000,0.118072,0.062308,0.000000
0.650000,-2.891011,0.294853,-1.497836,0.522289,-0.070365,-0.029296,1.319690,-0.004593,-0.035909,-0.761226,1.205407,0.107976,-11.737372,3.125761,-2.663407,-0.000462,-0.133240,0.000000,0.121332,0.074506,0.000000
0.660000,-2.885722,0.294149,-1.498131,0.535448,-0.070350,-0.029649,1.311491,0.007617,-0.034962,-0.877412,1.236053,0.080133,-11.490931,3.003809,-2.902515,0.000767,-0.132435,0.000000,0.124467,0.086504,-0.000000
0.670000,-2.880302,0.293446,-1.498429,0.548519,-0.070212,-0.029995,1.302142,0.020128,-0.034306,-0.991045,1.265483,0.049926,-11.224134,2.882223,-3.131242,0.002027,-0.131510,0.000000,0.127476,0.098281,0.000000
0.680000,-2.874752,0.292745,-1.498731,0.561491,-0.069948,-0.030335,1.291670,0.032927,-0.033964,-1.101895,1.293697,0.017508,-10.938481,2.760850,-3.344793,0.003316,-0.130469,0.000000,0.130356,0.109811,-0.000000
0.690000,-2.869073,0.292047,-1.499036,0.574352,-0.069554,-0.030674,1.280104,0.046002,-0.033956,-1.209814,1.320700,-0.016970,-10.642478,2.640257,-3.546196,0.004634,-0.129314,0.000000,0.133105,0.121075,0.000000
0.700000,-2.863265,0.291354,-1.499344,0.587093,-0.069028,-0.031015,1.267474,0.059341,-0.034303,-1.314744,1.346502,-0.053415,-10.339016,2.521143,-3.739393,0.005979,-0.128048,0.000000,0.135724,0.132061,-0.000000
0.710000,-2.857331,0.290667,-1.499656,0.599702,-0.068367,-0.031360,1.253809,0.072932,-0.035025,-1.416595,1.371123,-0.091758,-10.023398,2.403669,-3.919239,0.007349,-0.126673,0.000000,0.138212,0.142757,-0.000000
0.720000,-2.851271,0.289987,-1.499971,0.612169,-0.067569,-0.031715,1.239142,0.086763,-0.036139,-1.515212,1.394576,-0.131800,-9.691176,2.287394,-4.070243,0.008743,-0.125192,0.000000,0.140569,0.153142,0.000000
0.730000,-2.845087,0.289315,-1.500290,0.624484,-0.066632,-0.032083,1.223505,0.100824,-0.037661,-1.610418,1.416871,-0.173163,-9.344724,2.172687,-4.190631,0.010160,-0.123610,0.000000,0.142794,0.163190,-0.000000
0.740000,-2.838781,0.288654,-1.500613,0.636639,-0.065553,-0.032468,1.206933,0.115101,-0.039602,-1.702107,1.438029,-0.215613,-8.991442,2.060979,-4.298166,0.011599,-0.121928,0.000000,0.144887,0.172884,-0.000000
0.750000,-2.832355,0.288004,-1.500940,0.648623,-0.064330,-0.032875,1.189463,0.129584,-0.041973,-1.790247,1.458090,-0.259126,-8.632838,1.952843,-4.400791,0.013058,-0.120152,0.000000,0.146852,0.182218,-0.000000
0.760000,-2.825809,0.287367,-1.501271,0.660428,-0.062961,-0.033308,1.171128,0.144263,-0.044784,-1.874764,1.477086,-0.303629,-8.265207,1.847897,-4.483574,0.014536,-0.118284,0.000000,0.148689,0.191180,-0.000000
0.770000,-2.819146,0.286745,-1.501606,0.672046,-0.061444,-0.033771,1.151967,0.159126,-0.048045,-1.955551,1.495048,-0.348798,-7.887978,1.746095,-4.521954,0.016031,-0.116328,0.000000,0.150401,0.199752,0.000000
0.780000,-2.812368,0.286138,-1.501946,0.683468,-0.059778,-0.034269,1.132017,0.174164,-0.051760,-2.032523,1.512008,-0.394068,-7.503743,1.648111,-4.517303,0.017543,-0.114288,0.000000,0.151991,0.207916,-0.000000
0.790000,-2.805477,0.285549,-1.502291,0.694686,-0.057961,-0.034806,1.111317,0.189366,-0.055927,-2.105626,1.528010,-0.439144,-7.114677,1.554779,-4.499689,0.019071,-0.112169,0.000000,0.153463,0.215662,0.000000
0.800000,-2.798474,0.284979,-1.502642,0.705694,-0.055991,-0.035387,1.089905,0.204724,-0.060543,-2.174817,1.543104,-0.484062,-6.719639,1.465973,-4.480075,0.020613,-0.109974,0.000000,0.154821,0.222982,0.000000
0.810000,-2.791363,0.284430,-1.502999,0.716484,-0.053867,-0.036017,1.067821,0.220228,-0.065608,-2.240019,1.557330,-0.528745,-6.318720,1.381784,-4.435713,0.022167,-0.107709,0.000000,0.156068,0.229868,0.000000
0.820000,-2.784145,0.283902,-1.503362,0.727050,-0.051587,-0.036699,1.045105,0.235870,-0.071118,-2.301191,1.570739,-0.572776,-5.918005,1.304009,-4.335933,0.023734,-0.105376,0.000000,0.157211,0.236308,-0.000000
0.830000,-2.776822,0.283398,-1.503733,0.737386,-0.049149,-0.037439,1.021797,0.251643,-0.077063,-2.358379,1.583410,-0.615464,-5.519375,1.233495,-4.185020,0.025311,-0.102981,0.000000,0.158258,0.242299,-0.000000
0.840000,-2.769397,0.282919,-1.504111,0.747486,-0.046554,-0.038241,0.997937,0.267539,-0.083427,-2.411579,1.595409,-0.656476,-5.116065,1.168496,-4.021710,0.026899,-0.100529,0.000000,0.159218,0.247837,0.000000
0.850000,-2.761872,0.282467,-1.504498,0.757345,-0.043799,-0.039108,0.973565,0.283551,-0.090193,-2.460700,1.606780,-0.695898,-4.703119,1.106631,-3.858768,0.028496,-0.098023,0.000000,0.160094,0.252914,-0.000000
0.860000,-2.754250,0.282043,-1.504893,0.766958,-0.040883,-0.040045,0.948723,0.299674,-0.097345,-2.505641,1.617542,-0.733652,-4.286789,1.049868,-3.668345,0.030101,-0.095468,0.000000,0.160891,0.257519,0.000000
0.870000,-2.746533,0.281649,-1.505299,0.776319,-0.037805,-0.041055,0.923452,0.315902,-0.104866,-2.546436,1.627777,-0.769265,-3.882562,1.005978,-3.416973,0.031714,-0.092870,0.000000,0.161617,0.261654,-0.000000
0.880000,-2.738724,0.281287,-1.505714,0.785427,-0.034565,-0.042142,0.897794,0.332230,-0.112731,-2.583292,1.637662,-0.801991,-3.490500,0.976130,-3.111134,0.033333,-0.090233,0.000000,0.162295,0.265333,0.000000
0.890000,-2.730824,0.280958,-1.506141,0.794275,-0.031160,-0.043309,0.871787,0.348655,-0.120906,-2.616246,1.647300,-0.831487,-3.091081,0.950166,-2.794133,0.034959,-0.087561,0.000000,0.162938,0.268560,0.000000
0.900000,-2.722838,0.280664,-1.506581,0.802862,-0.027592,-0.044560,0.845469,0.365176,-0.129360,-2.645114,1.656665,-0.857874,-2.677084,0.918823,-2.480291,0.036592,-0.084858,0.000000,0.163544,0.271321,0.000000
0.910000,-2.714767,0.280406,-1.507033,0.811185,-0.023857,-0.045896,0.818884,0.381788,-0.138063,-2.669787,1.665676,-0.881093,-2.263063,0.890056,-2.139545,0.038230,-0.082131,0.000000,0.164107,0.273608,0.000000
0.920000,-2.706614,0.280186,-1.507499,0.819240,-0.019956,-0.047321,0.792074,0.398489,-0.146982,-2.690375,1.674466,-0.900665,-1.868327,0.889500,-1.736123,0.039874,-0.079382,0.000000,0.164644,0.275432,0.000000
0.930000,-2.698382,0.280007,-1.507979,0.827026,-0.015887,-0.048836,0.765077,0.415278,-0.156077,-2.707154,1.683466,-0.915816,-1.489771,0.917206,-1.277856,0.041523,-0.076618,0.000000,0.165205,0.276820,0.000000
0.940000,-2.690074,0.279869,-1.508475,0.834542,-0.011650,-0.050443,0.737931,0.432159,-0.165298,-2.720170,1.692810,-0.926222,-1.102804,0.938287,-0.812267,0.043178,-0.073841,0.000000,0.165805,0.277779,0.000000
0.950000,-2.681691,0.279774,-1.508988,0.841785,-0.007244,-0.052142,0.710673,0.449134,-0.174601,-2.729210,1.702232,-0.932061,-0.700653,0.936863,-0.354754,0.044839,-0.071057,0.000000,0.166422,0.278295,-0.000000
0.960000,-2.673238,0.279724,-1.509518,0.848755,-0.002668,-0.053935,0.683346,0.466203,-0.183940,-2.734184,1.711547,-0.933317,-0.300666,0.937347,0.126645,0.046506,-0.068270,0.000000,0.167038,0.278366,0.000000
0.970000,-2.664716,0.279720,-1.510067,0.855452,0.002080,-0.055821,0.655990,0.483365,-0.193267,-2.735223,1.720979,-0.929528,0.080199,0.978507,0.668137,0.048180,-0.065484,0.000000,0.167683,0.278007,-0.000000
0.980000,-2.656129,0.279765,-1.510635,0.861875,0.007000,-0.057800,0.628642,0.500623,-0.202530,-2.732580,1.731117,-0.919954,0.446661,1.054120,1.260268,0.049860,-0.062703,0.000000,0.168421,0.277245,-0.000000
0.990000,-2.647479,0.279860,-1.511223,0.868025,0.012093,-0.059871,0.601338,0.517987,-0.211666,-2.726290,1.742061,-0.904323,0.820427,1.111731,1.853821,0.051548,-0.059932,0.000000,0.169267,0.276092,-0.000000
1.000000,-2.638769,0.280007,-1.511832,0.873902,0.017359,-0.062033,0.574116,0.535464,-0.220617,-2.716171,1.753352,-0.882878,1.206849,1.136912,2.434294,0.053245,-0.057174,0.000000,0.170179,0.274536,-0.000000
1.010000,-2.630001,0.280208,-1.512463,0.879507,0.022802,-0.064284,0.547015,0.553054,-0.229324,-2.702153,1.764800,-0.855637,1.591121,1.164604,3.033648,0.054952,-0.054433,0.000000,0.171141,0.272578,-0.000000
1.020000,-2.621178,0.280463,-1.513118,0.884842,0.028421,-0.066620,0.520073,0.570760,-0.237729,-2.684349,1.776644,-0.822205,1.960329,1.225638,3.683347,0.056668,-0.051714,0.000000,0.172183,0.270236,0.000000
1.030000,-2.612304,0.280776,-1.513796,0.889908,0.034217,-0.069038,0.493328,0.588587,-0.245768,-2.662947,1.789312,-0.781970,2.318306,1.307323,4.372755,0.058396,-0.049020,0.000000,0.173355,0.267531,0.000000
1.040000,-2.603380,0.281148,-1.514498,0.894708,0.040192,-0.071535,0.466814,0.606546,-0.253369,-2.637982,1.802791,-0.734750,2.682103,1.368247,5.057939,0.060135,-0.046354,0.000000,0.174662,0.264475,-0.000000
1.050000,-2.594410,0.281580,-1.515226,0.899245,0.046348,-0.074106,0.440568,0.624643,-0.260463,-2.609305,1.816677,-0.680811,3.060616,1.407841,5.726464,0.061889,-0.043721,0.000000,0.176068,0.261061,-0.000000
1.060000,-2.585395,0.282075,-1.515981,0.903520,0.052685,-0.076745,0.414628,0.642880,-0.266985,-2.576770,1.830947,-0.620220,3.442289,1.451537,6.405638,0.063657,-0.041123,0.000000,0.177574,0.257282,0.000000
1.070000,-2.576339,0.282634,-1.516761,0.907537,0.059206,-0.079446,0.389033,0.661262,-0.272868,-2.540459,1.845708,-0.552698,3.804071,1.492293,7.120186,0.065440,-0.038564,0.000000,0.179197,0.253152,-0.000000
1.080000,-2.567245,0.283259,-1.517569,0.911300,0.065910,-0.082202,0.363819,0.679794,-0.278039,-2.500689,1.860793,-0.477817,4.149007,1.518778,7.860007,0.067241,-0.036049,0.000000,0.180931,0.248707,-0.000000
1.090000,-2.558113,0.283952,-1.518405,0.914814,0.072801,-0.085006,0.339019,0.698478,-0.282424,-2.457479,1.876084,-0.395498,4.508958,1.540248,8.588955,0.069059,-0.033579,0.000000,0.182769,0.243955,0.000000
1.100000,-2.548948,0.284715,-1.519270,0.918081,0.079880,-0.087850,0.314669,0.717316,-0.285949,-2.410510,1.891598,-0.306037,4.891727,1.561496,9.296061,0.070896,-0.031158,0.000000,0.184717,0.238871,-0.000000
1.110000,-2.539752,0.285549,-1.520162,0.921107,0.087148,-0.090725,0.290809,0.736310,-0.288545,-2.359644,1.907313,-0.209577,5.276447,1.573499,10.002544,0.072754,-0.028789,0.000000,0.186778,0.233446,0.000000
1.120000,-2.530526,0.286458,-1.521084,0.923897,0.094606,-0.093621,0.267476,0.755462,-0.290141,-2.304981,1.923068,-0.105987,5.648265,1.563622,10.728398,0.074632,-0.026476,0.000000,0.188945,0.227695,-0.000000
1.130000,-2.521274,0.287442,-1.522035,0.926456,0.102257,-0.096528,0.244709,0.774771,-0.290664,-2.246679,1.938586,0.004991,6.015344,1.532712,11.464697,0.076533,-0.024222,0.000000,0.191197,0.221636,-0.000000
1.140000,-2.511997,0.288503,-1.523015,0.928791,0.110102,-0.099435,0.222543,0.794234,-0.290041,-2.184674,1.953723,0.123307,6.397829,1.494745,12.180395,0.078456,-0.022030,0.000000,0.193528,0.215265,-0.000000
1.150000,-2.502698,0.289644,-1.524023,0.930907,0.118142,-0.102329,0.201016,0.813846,-0.288198,-2.118722,1.968481,0.248599,6.794044,1.451967,12.866112,0.080403,-0.019903,0.000000,0.195942,0.208563,0.000000
1.160000,-2.493379,0.290866,-1.525061,0.932811,0.126379,-0.105199,0.180168,0.833603,-0.285069,-2.048793,1.982762,0.380630,7.192294,1.392979,13.538917,0.082375,-0.017845,0.000000,0.198436,0.201527,0.000000
1.170000,-2.484042,0.292171,-1.526127,0.934511,0.134814,-0.108030,0.160040,0.853501,-0.280586,-1.974876,1.996340,0.519377,7.602068,1.309233,14.213193,0.084372,-0.015859,0.000000,0.200994,0.194156,-0.000000
1.180000,-2.474689,0.293562,-1.527222,0.936012,0.143449,-0.110810,0.140671,0.873530,-0.274681,-1.896752,2.008947,0.664893,8.029895,1.201722,14.880393,0.086395,-0.013948,0.000000,0.203598,0.186428,-0.000000
1.190000,-2.465322,0.295040,-1.528344,0.937324,0.152284,-0.113524,0.122105,0.893680,-0.267288,-1.814278,2.020375,0.816985,8.463414,1.079218,15.516177,0.088445,-0.012116,0.000000,0.206233,0.178328,0.000000
1.200000,-2.455942,0.296608,-1.529492,0.938454,0.161322,-0.116156,0.104385,0.913938,-0.258342,-1.727483,2.030531,0.975217,8.894555,0.950984,16.114424,0.090520,-0.010367,0.000000,0.208895,0.169855,0.000000
1.210000,-2.446553,0.298267,-1.530667,0.939412,0.170563,-0.118691,0.087555,0.934290,-0.247783,-1.636387,2.039394,1.139273,9.333718,0.808839,16.686977,0.092623,-0.008705,0.000000,0.211587,0.161007,-0.000000
1.220000,-2.437154,0.300019,-1.531866,0.940205,0.180008,-0.121112,0.071657,0.954725,-0.235556,-1.540809,2.046708,1.308957,9.802599,0.623023,17.238719,0.094753,-0.007133,0.000000,0.214289,0.151761,0.000000
1.230000,-2.427748,0.301867,-1.533089,0.940845,0.189658,-0.123402,0.056739,0.975225,-0.221604,-1.440335,2.051855,1.484048,10.301201,0.392680,17.761715,0.096909,-0.005656,0.000000,0.216946,0.142069,0.000000
1.240000,-2.418337,0.303812,-1.534334,0.941340,0.199512,-0.125544,0.042851,0.995763,-0.205875,-1.334785,2.054561,1.664191,10.801711,0.156746,18.243863,0.099092,-0.004278,0.000000,0.219534,0.131903,-0.000000
1.250000,-2.408922,0.305857,-1.535600,0.941702,0.209573,-0.127519,0.030043,1.016316,-0.188320,-1.224301,2.054990,1.848925,11.288142,-0.070441,18.683995,0.101300,-0.003005,0.000000,0.222072,0.121269,-0.000000
1.260000,-2.399503,0.308004,-1.536885,0.941941,0.219839,-0.129310,0.018365,1.036862,-0.168897,-1.109022,2.053152,2.037871,11.781182,-0.317068,19.085131,0.103534,-0.001840,0.000000,0.224565,0.110167,-0.000000
1.270000,-2.390083,0.310254,-1.538186,0.942069,0.230310,-0.130897,0.007863,1.057379,-0.147563,-0.988678,2.048648,2.230628,12.324148,-0.618943,19.439250,0.105792,-0.000790,0.000000,0.226974,0.098558,0.000000
1.280000,-2.380662,0.312610,-1.539502,0.942098,0.240986,-0.132261,-0.001409,1.077835,-0.124284,-0.862539,2.040774,2.426656,12.914083,-0.969381,19.740139,0.108074,0.000142,0.000000,0.229230,0.086352,0.000000
1.290000,-2.371241,0.315073,-1.540831,0.942041,0.251867,-0.133383,-0.009388,1.098194,-0.099030,-0.730396,2.029261,2.625430,13.493045,-1.321879,19.992776,0.110377,0.000947,0.000000,0.231304,0.073511,0.000000
1.300000,-2.361821,0.317647,-1.542170,0.941911,0.262950,-0.134242,-0.016017,1.118421,-0.071775,-0.592678,2.014336,2.826511,14.039236,-1.662707,20.202992,0.112700,0.001621,0.000000,0.233218,0.060057,0.000000
1.310000,-2.352403,0.320333,-1.543516,0.941721,0.274235,-0.134818,-0.021242,1.138481,-0.042500,-0.449611,1.996007,3.029490,14.592913,-2.023942,20.361909,0.115042,0.002156,0.000000,0.234970,0.045991,-0.000000
1.320000,-2.342986,0.323132,-1.544866,0.941486,0.285720,-0.135092,-0.025009,1.158341,-0.011186,-0.300820,1.973857,3.233749,15.206617,-2.438834,20.444088,0.117400,0.002546,0.000000,0.236514,0.031251,0.000000
1.330000,-2.333573,0.326047,-1.546218,0.941221,0.297402,-0.135042,-0.027258,1.177958,0.022175,-0.145479,1.947230,3.438372,15.870171,-2.898493,20.446106,0.119773,0.002785,0.000000,0.237772,0.015728,-0.000000
1.340000,-2.324162,0.329080,-1.547567,0.940941,0.309279,-0.134649,-0.027919,1.197285,0.057582,0.016583,1.915887,3.642672,16.512979,-3.359030,20.396484,0.122156,0.002863,0.000000,0.238710,-0.000626,0.000000
1.350000,-2.314754,0.332232,-1.548911,0.940662,0.321348,-0.133891,-0.026926,1.216276,0.095029,0.184781,1.880049,3.846302,17.110517,-3.806959,20.310051,0.124548,0.002772,0.000000,0.239342,-0.017784,0.000000
1.360000,-2.305349,0.335507,-1.550245,0.940402,0.333605,-0.132748,-0.024223,1.234886,0.134508,0.358794,1.839748,4.048873,17.710142,-4.271587,20.162085,0.126944,0.002504,0.000000,0.239661,-0.035745,0.000000
1.370000,-2.295946,0.338905,-1.551566,0.940178,0.346045,-0.131200,-0.019750,1.253071,0.176006,0.538984,1.794618,4.249543,18.369273,-4.784669,19.905766,0.129341,0.002050,0.000000,0.239613,-0.054582,-0.000000
1.380000,-2.286545,0.342428,-1.552869,0.940007,0.358666,-0.129228,-0.013443,1.270779,0.219499,0.726179,1.744055,4.446988,19.074422,-5.337791,19.541962,0.131736,0.001402,0.000000,0.239108,-0.074418,-0.000000
1.390000,-2.277146,0.346078,-1.554150,0.939909,0.371461,-0.126810,-0.005227,1.287952,0.264946,0.920472,1.687862,4.640383,19.746878,-5.887571,19.128610,0.134124,0.000548,0.000000,0.238102,-0.095305,-0.000000
1.400000,-2.267747,0.349857,-1.555405,0.939903,0.384425,-0.123929,0.004966,1.304536,0.312306,1.121117,1.626303,4.829560,20.359940,-6.418113,18.690700,0.136499,-0.000523,0.000000,0.236603,-0.117206,-0.000000
1.410000,-2.258348,0.353766,-1.556629,0.940008,0.397552,-0.120564,0.017196,1.320478,0.361537,1.327671,1.559500,5.014197,20.964901,-6.957668,18.184217,0.138856,-0.001820,0.000000,0.234602,-0.140121,-0.000000
1.420000,-2.248947,0.357808,-1.557817,0.940246,0.410835,-0.116698,0.031520,1.335726,0.412590,1.540415,1.487150,5.193244,21.621282,-7.542716,17.539706,0.141191,-0.003354,0.000000,0.232032,-0.164121,0.000000
1.430000,-2.239543,0.361983,-1.558963,0.940639,0.424266,-0.112312,0.048004,1.350221,0.465402,1.760097,1.408645,5.364991,22.311962,-8.163380,16.764189,0.143497,-0.005137,0.000000,0.228780,-0.189333,-0.000000
1.440000,-2.230134,0.366293,-1.560063,0.941207,0.437839,-0.107390,0.066722,1.363899,0.519890,1.986654,1.323882,5.528528,22.953846,-8.768753,15.947154,0.145767,-0.007182,0.000000,0.224791,-0.215796,-0.000000
1.450000,-2.220719,0.370740,-1.561111,0.941973,0.451544,-0.101915,0.087737,1.376699,0.575973,2.219173,1.233270,5.683934,23.527115,-9.351070,15.122706,0.147993,-0.009501,0.000000,0.220078,-0.243461,0.000000
1.460000,-2.211295,0.375324,-1.562101,0.942961,0.465373,-0.095871,0.111105,1.388564,0.633569,2.457196,1.136861,5.830982,24.083661,-9.942000,14.226882,0.150168,-0.012107,0.000000,0.214608,-0.272326,-0.000000
1.470000,-2.201860,0.380047,-1.563028,0.944195,0.479315,-0.089243,0.136881,1.399436,0.692592,2.700847,1.034430,5.968472,24.659181,-10.550543,13.171820,0.152285,-0.015012,0.000000,0.208300,-0.302447,-0.000000
1.480000,-2.192411,0.384910,-1.563886,0.945699,0.493362,-0.082019,0.165122,1.409253,0.752938,2.950380,0.925850,6.094419,25.233504,-11.160933,11.971850,0.154334,-0.018229,0.000000,0.201065,-0.333894,-0.000000
1.490000,-2.182946,0.389915,-1.564669,0.947498,0.507501,-0.074185,0.195888,1.417953,0.814481,3.205517,0.811212,6.207909,25.754712,-11.760241,10.742882,0.156306,-0.021773,0.000000,0.192850,-0.366673,-0.000000
1.500000,-2.173461,0.395060,-1.565370,0.949617,0.521721,-0.065729,0.229232,1.425477,0.877096,3.465474,0.690645,6.309276,26.211410,-12.366693,9.525406,0.158191,-0.025656,0.000000,0.183626,-0.400735,0.000000
1.510000,-2.163953,0.400349,-1.565983,0.952082,0.536010,-0.056643,0.265198,1.431766,0.940666,3.729745,0.563878,6.398417,26.632679,-12.983951,8.239727,0.159978,-0.029892,0.000000,0.173309,-0.436057,-0.000000
1.520000,-2.154419,0.405781,-1.566503,0.954921,0.550356,-0.046916,0.303827,1.436755,1.005065,3.998128,0.430966,6.474071,27.034492,-13.554892,6.787524,0.161656,-0.034493,0.000000,0.161827,-0.472636,0.000000
1.530000,-2.144855,0.411356,-1.566922,0.958159,0.564745,-0.036541,0.345160,1.440385,1.070148,4.270435,0.292780,6.534167,27.400634,-14.083072,5.190210,0.163213,-0.039472,0.000000,0.149181,-0.510460,-0.000000
1.540000,-2.135256,0.417076,-1.567233,0.961824,0.579164,-0.025513,0.389236,1.442610,1.135748,4.546141,0.149305,6.577875,27.703645,-14.641398,3.579967,0.164638,-0.044842,0.000000,0.135297,-0.549470,0.000000
1.550000,-2.125618,0.422939,-1.567432,0.965943,0.593597,-0.013826,0.436083,1.443371,1.201705,4.824508,-0.000048,6.605766,27.952051,-15.168799,1.999056,0.165918,-0.050615,0.000000,0.120059,-0.589579,0.000000
1.560000,-2.115937,0.428948,-1.567510,0.970546,0.608031,-0.001479,0.485726,1.442609,1.267863,5.105182,-0.154071,6.617856,28.156543,-15.618657,0.359603,0.167038,-0.056801,0.000000,0.103543,-0.630729,-0.000000
1.570000,-2.106207,0.435100,-1.567461,0.975658,0.622450,0.011531,0.538187,1.440290,1.334062,5.387639,-0.312421,6.612958,28.276762,-16.178508,-1.434928,0.167987,-0.063411,0.000000,0.085712,-0.672821,0.000000
1.580000,-2.096424,0.441397,-1.567279,0.981309,0.636837,0.025202,0.593479,1.436361,1.400123,5.670717,-0.477641,6.589158,28.302726,-16.859328,-3.357803,0.168751,-0.070452,0.000000,0.066182,-0.715656,0.000000
1.590000,-2.086581,0.447837,-1.566957,0.987528,0.651177,0.039533,0.651601,1.430737,1.465845,5.953693,-0.649608,6.545802,28.282402,-17.395923,-5.276490,0.169309,-0.077933,0.000000,0.044895,-0.759070,0.000000
1.600000,-2.076673,0.454420,-1.566489,0.994341,0.665452,0.054519,0.712553,1.423369,1.531039,6.236365,-0.825560,6.483628,28.216406,-17.828936,-7.150064,0.169646,-0.085856,0.000000,0.022137,-0.802953,0.000000
1.610000,-2.066694,0.461146,-1.565867,1.001779,0.679644,0.070154,0.776329,1.414226,1.595518,6.518021,-1.006186,6.402801,28.066185,-18.327933,-9.063660,0.169749,-0.094227,0.000000,-0.002206,-0.847114,0.000000
1.620000,-2.056638,0.468013,-1.565086,1.009868,0.693736,0.086430,0.842913,1.403245,1.659095,6.797689,-1.192118,6.302355,27.829468,-18.698060,-11.105345,0.169600,-0.103047,0.000000,-0.028257,-0.891295,-0.000000
1.630000,-2.046497,0.475020,-1.564138,1.018637,0.707709,0.103336,0.912282,1.390383,1.721565,7.074611,-1.380148,6.180694,27.510715,-18.864286,-13.246043,0.169182,-0.112314,0.000000,-0.055685,-0.935228,-0.000000
1.640000,-2.036265,0.482167,-1.563019,1.028113,0.721544,0.120861,0.984405,1.375642,1.782709,7.347903,-1.569404,6.037434,27.102886,-19.105394,-15.361341,0.168484,-0.122023,0.000000,-0.084388,-0.978614,-0.000000
1.650000,-2.025935,0.489451,-1.561721,1.038325,0.735222,0.138990,1.059240,1.358995,1.842314,7.616668,-1.762256,5.873467,26.633501,-19.486772,-17.416467,0.167492,-0.132167,0.000000,-0.114612,-1.021148,-0.000000
1.660000,-2.015499,0.496872,-1.560239,1.049298,0.748724,0.157707,1.136739,1.340397,1.900178,7.880573,-1.959140,5.689104,26.099575,-19.811538,-19.487985,0.166189,-0.142735,0.000000,-0.146375,-1.062570,-0.000000
1.670000,-2.004949,0.504426,-1.558567,1.061060,0.762030,0.176994,1.216852,1.319813,1.956096,8.138660,-2.158486,5.483708,25.402667,-19.971825,-21.642330,0.164562,-0.153714,0.000000,-0.179448,-1.102508,0.000000
1.680000,-1.994277,0.512112,-1.556699,1.073635,0.775120,0.196829,1.299512,1.297227,2.009852,8.388626,-2.358576,5.256258,24.530103,-20.041703,-23.849452,0.162599,-0.165085,0.000000,-0.213556,-1.140393,0.000000
1.690000,-1.983476,0.519928,-1.554630,1.087050,0.787974,0.217191,1.384624,1.272641,2.061221,8.629262,-2.559320,5.006719,23.612383,-20.147796,-26.011216,0.160290,-0.176823,0.000000,-0.248584,-1.175787,0.000000
1.700000,-1.972536,0.527872,-1.552355,1.101328,0.800573,0.238054,1.472097,1.246041,2.109986,8.860874,-2.761532,4.736034,22.705374,-20.221071,-28.103957,0.157626,-0.188902,0.000000,-0.284494,-1.208457,0.000000
1.710000,-1.961450,0.535940,-1.549869,1.116492,0.812895,0.259391,1.561842,1.217410,2.155942,9.083369,-2.963742,4.444640,21.713306,-20.184015,-30.183599,0.154599,-0.201291,0.000000,-0.320950,-1.238112,-0.000000
1.720000,-1.950207,0.544130,-1.547168,1.132565,0.824921,0.281172,1.653765,1.186766,2.198879,9.295140,-3.165212,4.132362,20.496126,-20.236719,-32.284715,0.151207,-0.213957,0.000000,-0.357692,-1.264260,-0.000000
1.730000,-1.938798,0.552438,-1.544246,1.149567,0.836630,0.303368,1.747745,1.154106,2.238589,9.493292,-3.368476,3.798945,19.076646,-20.404895,-34.380416,0.147446,-0.226861,0.000000,-0.394845,-1.286256,0.000000
1.740000,-1.927215,0.560862,-1.541100,1.167520,0.848003,0.325944,1.843630,1.119396,2.274858,9.676673,-3.573310,3.444753,17.637451,-20.406659,-36.412766,0.143311,-0.239957,0.000000,-0.432171,-1.303703,-0.000000
1.750000,-1.915448,0.569398,-1.537727,1.186440,0.859018,0.348865,1.941278,1.082640,2.307484,9.846041,-3.776609,3.070690,16.219854,-20.270441,-38.371575,0.138804,-0.253197,0.000000,-0.469047,-1.316487,-0.000000
1.760000,-1.903486,0.578043,-1.534123,1.206345,0.869656,0.372094,2.040551,1.043864,2.336272,10.001070,-3.978719,2.677322,14.698650,-20.181099,-40.283565,0.133933,-0.266534,0.000000,-0.505283,-1.324385,0.000000
1.770000,-1.891321,0.586791,-1.530285,1.227251,0.879896,0.395591,2.141299,1.003066,2.361030,10.140014,-4.180231,2.265019,12.981369,-19.976889,-42.147959,0.128702,-0.279915,0.000000,-0.540713,-1.327033,-0.000000
1.780000,-1.878941,0.595640,-1.526211,1.249171,0.889717,0.419314,2.243351,0.960259,2.381572,10.260697,-4.378257,1.834363,11.102237,-19.584398,-43.944226,0.123122,-0.293286,0.000000,-0.574725,-1.324071,0.000000
1.790000,-1.866338,0.604586,-1.521899,1.272118,0.899101,0.443222,2.346513,0.915500,2.397718,10.362059,-4.571919,1.386134,9.180946,-19.240390,-45.659754,0.117212,-0.306589,0.000000,-0.606975,-1.315340,-0.000000
1.800000,-1.853499,0.613622,-1.517347,1.296101,0.908027,0.467269,2.450593,0.868821,2.409295,10.444316,-4.763065,0.921168,7.276144,-18.979354,-47.300880,0.110988,-0.319766,0.000000,-0.637487,-1.300899,-0.000000
1.810000,-1.840416,0.622746,-1.512553,1.321130,0.916477,0.491408,2.555400,0.820239,2.416141,10.507582,-4.951506,0.440117,5.306735,-18.636944,-48.862509,0.104468,-0.332760,0.000000,-0.666048,-1.280842,0.000000
1.820000,-1.827076,0.631952,-1.507518,1.347209,0.924432,0.515592,2.660744,0.769791,2.418097,10.550451,-5.135804,-0.056083,3.118735,-18.189463,-50.301372,0.097673,-0.345515,0.000000,-0.692305,-1.255152,-0.000000
1.830000,-1.813471,0.641235,-1.502242,1.374345,0.931873,0.539770,2.766409,0.717523,2.415019,10.569956,-5.315296,-0.565911,0.740728,-17.673630,-51.604977,0.090629,-0.357975,0.000000,-0.716021,-1.223713,0.000000
1.840000,-1.799590,0.650589,-1.496723,1.402538,0.938783,0.563892,2.872143,0.663485,2.406779,10.565266,-5.489276,-1.088182,-1.617017,-17.112478,-52.817064,0.083360,-0.370083,0.000000,-0.737010,-1.186719,0.000000
1.850000,-1.785421,0.660010,-1.490964,1.431788,0.945143,0.587906,2.977714,0.607738,2.393256,10.537616,-5.657545,-1.622252,-3.954345,-16.649406,-53.960035,0.075895,-0.381786,0.000000,-0.755197,-1.144630,-0.000000
1.860000,-1.770954,0.669492,-1.484965,1.462092,0.950937,0.611757,3.082896,0.550334,2.374334,10.486179,-5.822264,-2.167383,-6.405152,-16.260165,-54.990754,0.068263,-0.393037,0.000000,-0.770828,-1.097703,0.000000
1.870000,-1.756179,0.679029,-1.478729,1.493445,0.956150,0.635392,3.187438,0.491292,2.349908,10.409513,-5.982749,-2.722067,-8.922575,-15.518845,-55.829179,0.060486,-0.403788,0.000000,-0.783815,-1.046201,-0.000000
1.880000,-1.741085,0.688615,-1.472257,1.525841,0.960763,0.658755,3.291086,0.430679,2.319893,10.307727,-6.132641,-3.283966,-11.481930,-14.480560,-56.473223,0.052594,-0.413997,0.000000,-0.793424,-0.990638,0.000000
1.890000,-1.725662,0.698244,-1.465554,1.559267,0.964763,0.681790,3.393592,0.368639,2.284229,10.179874,-6.272360,-3.851532,-14.143099,-13.720958,-57.016255,0.044624,-0.423627,0.000000,-0.799808,-0.931389,0.000000
1.900000,-1.709900,0.707911,-1.458621,1.593712,0.968136,0.704440,3.494683,0.305232,2.242862,10.024865,-6.407060,-4.424292,-16.699957,-12.862589,-57.502676,0.036604,-0.432643,0.000000,-0.803717,-0.868775,-0.000000
1.910000,-1.693788,0.717607,-1.451465,1.629161,0.970868,0.726647,3.594090,0.240498,2.195743,9.845875,-6.529611,-5.001585,-19.119922,-11.557526,-57.856492,0.028555,-0.441015,0.000000,-0.804444,-0.803585,0.000000
1.920000,-1.677316,0.727328,-1.444088,1.665594,0.972946,0.748355,3.691601,0.174640,2.142830,9.642467,-6.638211,-5.581421,-22.012651,-11.032513,-57.943831,0.020520,-0.448723,0.000000,-0.801963,-0.736256,-0.000000
1.930000,-1.660476,0.737066,-1.436498,1.702993,0.974361,0.769504,3.786939,0.107734,2.084114,9.405622,-6.750262,-6.160462,-25.368606,-11.370527,-57.772894,0.012521,-0.455747,0.000000,-0.798491,-0.666398,-0.000000
1.940000,-1.643256,0.746815,-1.428698,1.741333,0.975101,0.790037,3.879713,0.039635,2.019621,9.135095,-6.865621,-6.736879,-28.337205,-10.871563,-57.511824,0.004554,-0.462057,0.000000,-0.794150,-0.594493,0.000000
1.950000,-1.625649,0.756568,-1.420697,1.780587,0.975153,0.809896,3.969641,-0.029578,1.949377,8.838878,-6.967693,-7.310698,-31.082430,-9.981127,-57.220162,-0.003359,-0.467642,0.000000,-0.787217,-0.521720,0.000000
1.960000,-1.607645,0.766318,-1.412500,1.820726,0.974509,0.829025,4.056491,-0.099719,1.873407,8.513446,-7.065244,-7.881283,-34.143788,-9.797224,-56.774151,-0.011187,-0.472498,0.000000,-0.778905,-0.448050,0.000000
1.970000,-1.589235,0.776058,-1.404116,1.861717,0.973159,0.847365,4.139910,-0.170883,1.791751,8.156002,-7.163637,-8.446181,-36.816208,-8.584784,-56.015046,-0.018934,-0.476611,0.000000,-0.769973,-0.373628,-0.000000
1.980000,-1.570410,0.785781,-1.395553,1.903524,0.971091,0.864860,4.219611,-0.242992,1.704483,7.777122,-7.236940,-9.001583,-38.891918,-5.932623,-54.968634,-0.026585,-0.479980,0.000000,-0.757734,-0.299931,0.000000
1.990000,-1.551164,0.795480,-1.386819,1.946109,0.968299,0.881454,4.295452,-0.315622,1.611719,7.378164,-7.282290,-9.545554,-41.366092,-4.318441,-53.838204,-0.034088,-0.482620,0.000000,-0.742181,-0.227339,-0.000000
2.000000,-1.531488,0.805147,-1.377924,1.989433,0.964779,0.897094,4.367174,-0.388638,1.513572,6.949800,-7.323308,-10.078348,-44.206171,-3.728565,-52.693999,-0.041428,-0.484538,0.000000,-0.726109,-0.155090,-0.000000
2.010000,-1.511375,0.814776,-1.368877,2.033453,0.960526,0.911726,4.434448,-0.462088,1.410153,6.494040,-7.356861,-10.599434,-46.732155,-2.505003,-51.392473,-0.048610,-0.485733,0.000000,-0.709313,-0.083543,-0.000000
2.020000,-1.490819,0.824358,-1.359689,2.078122,0.955537,0.925297,4.497055,-0.535775,1.301584,6.015157,-7.373408,-11.106197,-49.319041,-1.426943,-49.753517,-0.055615,-0.486220,0.000000,-0.690964,-0.013306,0.000000
2.030000,-1.469813,0.833886,-1.350371,2.123394,0.949811,0.937757,4.554751,-0.609556,1.188029,5.507660,-7.385400,-11.594504,-52.239946,-1.156079,-47.810969,-0.062430,-0.486009,0.000000,-0.672548,0.055875,-0.000000
2.040000,-1.448351,0.843354,-1.340934,2.169217,0.943346,0.949058,4.607208,-0.683483,1.069694,4.970358,-7.396530,-12.062416,-54.896382,-0.478063,-45.802251,-0.069067,-0.485109,0.000000,-0.654547,0.123978,0.000000
2.050000,-1.426429,0.852753,-1.331390,2.215538,0.936141,0.959151,4.654158,-0.757487,0.946780,4.409732,-7.394961,-12.510549,-56.995803,1.070986,-43.813101,-0.075522,-0.483533,0.000000,-0.635837,0.190456,0.000000
2.060000,-1.404041,0.862077,-1.321751,2.262300,0.928196,0.967993,4.695403,-0.831382,0.819483,3.830442,-7.375110,-12.938678,-58.956283,2.614386,-41.680934,-0.081785,-0.481298,0.000000,-0.615976,0.254935,-0.000000
2.070000,-1.381183,0.871317,-1.312030,2.309446,0.919513,0.975541,4.730767,-0.904989,0.688007,3.230606,-7.342674,-13.344168,-61.363504,3.302923,-39.195880,-0.087844,-0.478425,0.000000,-0.595668,0.317535,0.000000
2.080000,-1.357852,0.880467,-1.302240,2.356916,0.910096,0.981753,4.760015,-0.978236,0.552599,2.603172,-7.309052,-13.722596,-64.026312,3.493492,-36.401937,-0.093700,-0.474931,0.000000,-0.576144,0.378750,0.000000
2.090000,-1.334044,0.889519,-1.292395,2.404646,0.899949,0.986593,4.782831,-1.051170,0.413555,1.950080,-7.272804,-14.072207,-66.162984,4.256980,-33.582621,-0.099369,-0.470825,0.000000,-0.557293,0.438429,0.000000
2.100000,-1.309759,0.898466,-1.282509,2.452572,0.889073,0.990024,4.799017,-1.123692,0.271155,1.279912,-7.223912,-14.394248,-68.081649,5.077502,-30.825498,-0.104848,-0.466127,0.000000,-0.538169,0.496027,0.000000
2.110000,-1.284993,0.907301,-1.272595,2.500627,0.877475,0.992016,4.808429,-1.195649,0.125670,0.588447,-7.171254,-14.688717,-70.252547,5.295529,-27.942849,-0.110134,-0.460857,0.000000,-0.519661,0.552041,-0.000000
2.120000,-1.259746,0.916016,-1.262668,2.548741,0.865160,0.992538,4.810786,-1.267117,-0.022619,-0.125139,-7.118002,-14.953105,-71.617570,6.534442,-24.738846,-0.115243,-0.455025,0.000000,-0.502076,0.606567,-0.000000
2.130000,-1.234018,0.924604,-1.252744,2.596842,0.852133,0.991564,4.805926,-1.338009,-0.173392,-0.843904,-7.040565,-15.183494,-71.968149,9.024135,-21.273140,-0.120178,-0.448651,0.000000,-0.483269,0.658239,-0.000000
2.140000,-1.207809,0.933058,-1.242837,2.644859,0.838400,0.989070,4.793907,-1.407928,-0.326289,-1.564502,-6.937519,-15.378568,-72.775942,10.485133,-17.814732,-0.124911,-0.441770,0.000000,-0.463222,0.706964,0.000000
2.150000,-1.181121,0.941372,-1.232963,2.692720,0.823974,0.985038,4.774636,-1.476759,-0.480964,-2.299423,-6.830862,-15.539788,-74.113824,11.126034,-14.436849,-0.129444,-0.434405,0.000000,-0.443956,0.754006,0.000000
2.160000,-1.153955,0.949538,-1.223136,2.740352,0.808865,0.979451,4.747919,-1.544545,-0.637085,-3.046778,-6.714998,-15.667305,-74.973943,12.452059,-10.968597,-0.133792,-0.426568,0.000000,-0.424956,0.799395,-0.000000
2.170000,-1.126314,0.957549,-1.213374,2.787679,0.793083,0.972296,4.713701,-1.611059,-0.794310,-3.798902,-6.581821,-15.759160,-75.521563,13.230486,-7.260507,-0.137946,-0.418277,0.000000,-0.405536,0.842653,0.000000
2.180000,-1.098201,0.965399,-1.203690,2.834626,0.776644,0.963565,4.671941,-1.676182,-0.952268,-4.557210,-6.450389,-15.812515,-76.103403,12.897397,-3.375437,-0.141905,-0.409556,0.000000,-0.387353,0.883999,0.000000
2.190000,-1.069621,0.973082,-1.194102,2.881118,0.759559,0.953251,4.622556,-1.740067,-1.110560,-5.320970,-6.323873,-15.826669,-76.394302,13.268272,0.473998,-0.145695,-0.400421,0.000000,-0.370615,0.923558,-0.000000
2.200000,-1.040579,0.980591,-1.184625,2.927077,0.741842,0.941353,4.565522,-1.802659,-1.268801,-6.085096,-6.185023,-15.803035,-76.379370,14.435486,4.241747,-0.149319,-0.390890,0.000000,-0.353828,0.961192,0.000000
2.210000,-1.011080,0.987919,-1.175275,2.972428,0.723506,0.927875,4.500854,-1.863767,-1.426621,-6.848557,-6.035163,-15.741834,-76.281385,15.157792,8.054131,-0.152773,-0.380982,0.000000,-0.337105,0.997034,0.000000
2.220000,-0.981130,0.995061,-1.166068,3.017094,0.704567,0.912821,4.428550,-1.923363,-1.583638,-7.610723,-5.881867,-15.641953,-75.917613,15.782606,11.982944,-0.156063,-0.370715,0.000000,-0.321054,1.031201,-0.000000
2.230000,-0.950738,1.002010,-1.157019,3.060999,0.685039,0.896202,4.348640,-1.981405,-1.739460,-8.366910,-5.719511,-15.502175,-75.188042,16.754425,15.971849,-0.159196,-0.360105,0.000000,-0.305200,1.063503,-0.000000
2.240000,-0.919910,1.008762,-1.148144,3.104067,0.664939,0.878032,4.261212,-2.037753,-1.893682,-9.114484,-5.546779,-15.322516,-74.361615,17.484447,19.907152,-0.162169,-0.349173,0.000000,-0.289426,1.093952,0.000000
2.250000,-0.888657,1.015309,-1.139458,3.146223,0.644284,0.858328,4.166350,-2.092340,-2.045910,-9.854142,-5.369822,-15.104032,-73.549190,17.906205,23.773003,-0.164986,-0.337935,0.000000,-0.274193,1.122824,-0.000000
2.260000,-0.856986,1.021647,-1.130977,3.187394,0.623092,0.837114,4.064129,-2.145149,-2.195762,-10.585468,-5.188655,-14.847056,-72.556429,18.431486,27.624522,-0.167654,-0.326407,0.000000,-0.259472,1.150282,-0.000000
2.270000,-0.824909,1.027771,-1.122716,3.227506,0.601381,0.814413,3.954641,-2.196113,-2.342851,-11.305271,-5.001193,-14.551542,-71.148925,18.946358,31.456527,-0.170176,-0.314601,0.000000,-0.245073,1.176271,-0.000000
2.280000,-0.792436,1.033675,-1.114689,3.266487,0.579170,0.790256,3.838024,-2.245173,-2.486793,-12.008446,-4.809728,-14.217925,-69.377295,19.299651,35.229613,-0.172557,-0.302535,0.000000,-0.231129,1.200608,0.000000
2.290000,-0.759579,1.039354,-1.106911,3.304266,0.556477,0.764677,3.714472,-2.292308,-2.627210,-12.692817,-4.615200,-13.846949,-67.549215,19.685852,38.928472,-0.174800,-0.290225,0.000000,-0.217673,1.223327,0.000000
2.300000,-0.726351,1.044804,-1.099395,3.340776,0.533324,0.737712,3.584168,-2.337477,-2.763732,-13.359431,-4.416011,-13.439356,-65.751146,20.149327,42.570685,-0.176911,-0.277687,0.000000,-0.204566,1.244688,-0.000000
2.310000,-0.692763,1.050021,-1.092157,3.375950,0.509728,0.709403,3.447283,-2.380628,-2.895997,-14.007839,-4.212213,-12.995536,-63.774636,20.552298,46.142665,-0.178892,-0.264934,0.000000,-0.191789,1.264827,0.000000
2.320000,-0.658832,1.054999,-1.085207,3.409722,0.485711,0.679792,3.304011,-2.421721,-3.023643,-14.634923,-4.004965,-12.516502,-61.418112,20.868231,49.553495,-0.180748,-0.251977,0.000000,-0.179390,1.283693,0.000000
2.330000,-0.624569,1.059735,-1.078561,3.442030,0.461293,0.648930,3.154585,-2.460727,-3.146327,-15.236202,-3.794848,-12.004466,-58.742598,21.143368,52.781818,-0.182481,-0.238831,0.000000,-0.167354,1.301152,0.000000
2.340000,-0.589991,1.064225,-1.072229,3.472814,0.436496,0.616866,2.999287,-2.497618,-3.263732,-15.809775,-3.582097,-11.460866,-56.017551,21.403159,55.925769,-0.184095,-0.225511,0.000000,-0.155661,1.317230,-0.000000
2.350000,-0.555113,1.068465,-1.066223,3.502016,0.411341,0.583655,2.838389,-2.532369,-3.375544,-16.356553,-3.366785,-10.885950,-53.328730,21.659183,59.034120,-0.185595,-0.212030,0.000000,-0.144305,1.332129,0.000000
2.360000,-0.519951,1.072452,-1.060556,3.529581,0.385849,0.549355,2.672156,-2.564954,-3.481451,-16.876350,-3.148914,-10.280184,-50.499508,21.896074,62.016965,-0.186982,-0.198398,0.000000,-0.133269,1.345967,0.000000
2.370000,-0.484521,1.076182,-1.055236,3.555459,0.360042,0.514026,2.500862,-2.595347,-3.581148,-17.366543,-2.928864,-9.645611,-47.332319,22.069592,64.712622,-0.188261,-0.184628,0.000000,-0.122535,1.358707,0.000000
2.380000,-0.448841,1.079652,-1.050275,3.579599,0.333942,0.477732,2.324825,-2.623531,-3.674363,-17.822996,-2.707522,-8.985931,-43.886838,22.185547,67.123783,-0.189433,-0.170731,0.000000,-0.112099,1.370216,0.000000
2.390000,-0.412929,1.082861,-1.045682,3.601955,0.307571,0.440539,2.144402,-2.649498,-3.760867,-18.244280,-2.485153,-8.303136,-40.436039,22.305898,69.443375,-0.190503,-0.156719,0.000000,-0.101943,1.380511,-0.000000
2.400000,-0.376802,1.085804,-1.041464,3.622487,0.280952,0.402515,1.959939,-2.673234,-3.840426,-18.631717,-2.261404,-7.597064,-37.031394,22.431303,71.742502,-0.191473,-0.142606,0.000000,-0.092042,1.389773,0.000000
2.410000,-0.340479,1.088480,-1.037631,3.641154,0.254107,0.363730,1.771768,-2.694726,-3.912808,-18.984908,-2.036527,-6.868285,-33.502075,22.522728,73.870350,-0.192344,-0.128401,0.000000,-0.082398,1.398067,-0.000000
2.420000,-0.303979,1.090886,-1.034190,3.657922,0.227058,0.324258,1.580241,-2.713965,-3.977792,-19.301759,-1.810949,-6.119657,-29.766028,22.595163,75.619016,-0.193121,-0.114114,0.000000,-0.072996,1.405356,0.000000
2.430000,-0.267321,1.093021,-1.031146,3.672759,0.199827,0.284174,1.385733,-2.730945,-4.035201,-19.580228,-1.584623,-5.355905,-25.889430,22.666835,77.012541,-0.193804,-0.099755,0.000000,-0.063762,1.411601,0.000000
2.440000,-0.230524,1.094883,-1.028506,3.685637,0.172439,0.243554,1.188637,-2.745657,-4.084910,-19.819547,-1.357612,-4.579406,-21.992410,22.716375,78.308505,-0.194396,-0.085337,0.000000,-0.054664,1.416816,0.000000
2.450000,-0.193608,1.096470,-1.026275,3.696532,0.144914,0.202476,0.989342,-2.758097,-4.126789,-20.020076,-1.130296,-3.789735,-18.108960,22.726104,79.595955,-0.194898,-0.070869,0.000000,-0.045735,1.421071,-0.000000
2.460000,-0.156593,1.097781,-1.024457,3.705424,0.117277,0.161019,0.788235,-2.768263,-4.160705,-20.181726,-0.903090,-2.987487,-14.175535,22.714594,80.685156,-0.195311,-0.056361,0.000000,-0.036994,1.424411,0.000000
2.470000,-0.119500,1.098815,-1.023055,3.712296,0.089549,0.119262,0.585707,-2.776159,-4.186539,-20.303587,-0.676004,-2.176032,-10.133827,22.727715,81.333162,-0.195638,-0.041822,0.000000,-0.028393,1.426826,0.000000
2.480000,-0.082348,1.099572,-1.022072,3.717138,0.061754,0.077288,0.382163,-2.781783,-4.204225,-20.384403,-0.448536,-1.360824,-6.018606,22.764614,81.580273,-0.195879,-0.027263,0.000000,-0.019825,1.428271,0.000000
2.490000,-0.045157,1.100050,-1.021509,3.719940,0.033913,0.035178,0.178019,-2.785130,-4.213755,-20.423959,-0.220712,-0.544426,-1.929585,22.765744,81.736708,-0.196034,-0.012693,0.000000,-0.011256,1.428742,-0.000000
2.500000,-0.007949,1.100250,-1.021368,3.720698,0.006051,-0.006987,-0.026316,-2.786198,-4.215114,-20.422995,0.006779,0.273911,2.120090,22.709014,81.901093,-0.196104,0.001876,0.000000,-0.002745,1.428294,-0.000000
2.510000,0.029257,1.100171,-1.021649,3.719413,-0.021811,-0.049125,-0.230440,-2.784994,-4.208277,-20.381557,0.233468,1.093595,6.177568,22.637403,81.854422,-0.196089,0.016437,0.000000,0.005682,1.426937,0.000000
2.520000,0.066440,1.099814,-1.022350,3.716089,-0.049649,-0.091153,-0.433947,-2.781528,-4.193242,-20.299443,0.459527,1.910999,10.226356,22.606855,81.345560,-0.195991,0.030979,0.000000,0.014087,1.424652,-0.000000
2.530000,0.103579,1.099178,-1.023472,3.710734,-0.077441,-0.132990,-0.636429,-2.775804,-4.170057,-20.177030,0.685606,2.720507,14.230785,22.607041,80.430468,-0.195808,0.045493,0.000000,0.022589,1.421436,-0.000000
2.540000,0.140654,1.098265,-1.025010,3.703361,-0.105165,-0.174554,-0.837488,-2.767816,-4.138832,-20.014828,0.911668,3.519608,18.191917,22.565104,79.436654,-0.195539,0.059968,0.000000,0.031220,1.417282,0.000000
2.550000,0.177646,1.097075,-1.026963,3.693985,-0.132797,-0.215766,-1.036726,-2.757570,-4.099665,-19.813192,1.136908,4.309240,22.125506,22.460896,78.461487,-0.195183,0.074395,0.000000,0.039913,1.412180,-0.000000
2.560000,0.214534,1.095609,-1.029326,3.682626,-0.160316,-0.256547,-1.233751,-2.745078,-4.052647,-19.572318,1.360886,5.088838,26.008587,22.344478,77.281696,-0.194740,0.088764,0.000000,0.048644,1.406103,-0.000000
2.570000,0.251298,1.093869,-1.032094,3.669310,-0.187699,-0.296819,-1.428172,-2.730353,-3.997888,-19.293020,1.583797,5.854874,29.760854,22.263540,75.663658,-0.194210,0.103065,0.000000,0.057476,1.399044,-0.000000
2.580000,0.287920,1.091855,-1.035262,3.654063,-0.214923,-0.336505,-1.619612,-2.713402,-3.935549,-18.977100,1.806156,6.602111,33.365861,22.202941,73.672261,-0.193591,0.117287,0.000000,0.066521,1.391034,-0.000000
2.590000,0.324380,1.089570,-1.038824,3.636917,-0.241967,-0.375530,-1.807714,-2.694229,-3.865846,-18.625703,2.027856,7.328319,36.907978,22.100173,71.619078,-0.192880,0.131421,0.000000,0.075806,1.382056,0.000000
2.600000,0.360658,1.087016,-1.042773,3.617908,-0.268808,-0.413822,-1.992126,-2.672845,-3.788983,-18.238941,2.248160,8.034493,40.433367,21.942517,69.591109,-0.192074,0.145456,0.000000,0.085270,1.372049,-0.000000
2.610000,0.396738,1.084194,-1.047100,3.597075,-0.295424,-0.451310,-2.172493,-2.649266,-3.705156,-17.817036,2.466706,8.720141,43.862943,21.771050,67.383401,-0.191174,0.159382,0.000000,0.094898,1.360943,0.000000
2.620000,0.432600,1.081107,-1.051799,3.574459,-0.321793,-0.487925,-2.348467,-2.623511,-3.614580,-17.361682,2.683581,9.382161,47.040771,21.612446,64.801746,-0.190176,0.173185,0.000000,0.104747,1.348739,-0.000000
2.630000,0.468227,1.077758,-1.056859,3.550105,-0.347894,-0.523601,-2.519727,-2.595595,-3.517513,-16.876220,2.898955,10.016176,49.969360,21.451372,61.913723,-0.189079,0.186857,0.000000,0.114900,1.335520,-0.000000
2.640000,0.503602,1.074149,-1.062271,3.524064,-0.373705,-0.558275,-2.685991,-2.565532,-3.414257,-16.362295,3.112608,10.620435,52.835621,21.252398,58.985793,-0.187878,0.200385,0.000000,0.125379,1.321262,0.000000
2.650000,0.538708,1.070284,-1.068024,3.496386,-0.399205,-0.591886,-2.846973,-2.533342,-3.305104,-15.819508,3.324003,11.195892,55.692460,21.016828,56.083324,-0.186571,0.213759,0.000000,0.136140,1.305834,-0.000000
2.660000,0.573530,1.066165,-1.074109,3.467125,-0.424372,-0.624377,-3.002381,-2.499052,-3.190339,-15.248446,3.532945,11.742102,58.395430,20.765628,53.039033,-0.185154,0.226967,0.000000,0.147186,1.289149,0.000000
2.670000,0.608051,1.061797,-1.080512,3.436338,-0.449186,-0.655693,-3.151942,-2.462684,-3.070262,-14.651599,3.739316,12.256672,60.791260,20.487885,49.725410,-0.183626,0.239995,0.000000,0.158559,1.271223,0.000000
2.680000,0.642257,1.057182,-1.087222,3.404086,-0.473626,-0.685783,-3.295413,-2.424265,-2.945205,-14.032620,3.942703,12.736610,62.904403,20.170580,46.206047,-0.181983,0.252830,0.000000,0.170291,1.252125,-0.000000
2.690000,0.676133,1.052324,-1.094228,3.370430,-0.497671,-0.714597,-3.432594,-2.383829,-2.815530,-13.393511,4.142727,13.180793,64.918446,19.828478,42.664823,-0.180220,0.265461,0.000000,0.182389,1.231831,0.000000
2.700000,0.709665,1.047228,-1.101514,3.335434,-0.521302,-0.742093,-3.563283,-2.341411,-2.681590,-12.734252,4.339272,13.589906,66.914556,19.488536,39.142089,-0.178334,0.277875,0.000000,0.194850,1.210198,-0.000000
2.710000,0.742841,1.041898,-1.109069,3.299164,-0.544499,-0.768229,-3.687279,-2.297044,-2.543732,-12.055220,4.532498,13.963635,68.753109,19.136257,35.531905,-0.176322,0.290057,0.000000,0.207706,1.187092,0.000000
2.720000,0.775648,1.036338,-1.116879,3.261688,-0.567243,-0.792968,-3.804388,-2.250761,-2.402317,-11.359189,4.721997,14.300545,70.198055,18.695463,31.774501,-0.174179,0.301992,0.000000,0.220972,1.162520,-0.000000
2.730000,0.808075,1.030553,-1.124929,3.223076,-0.589515,-0.816275,-3.914463,-2.202604,-2.257721,-10.651259,4.906407,14.599125,71.272810,18.165075,27.920594,-0.171901,0.313666,0.000000,0.234600,1.136652,0.000000
2.740000,0.840110,1.024548,-1.133204,3.183399,-0.611295,-0.838122,-4.017413,-2.152633,-2.110334,-9.933733,5.085299,14.858956,72.281859,17.647320,24.069593,-0.169486,0.325067,0.000000,0.248589,1.109471,0.000000
2.750000,0.871743,1.018327,-1.141691,3.142728,-0.632567,-0.858482,-4.113137,-2.100898,-1.960542,-9.205622,5.259354,15.080517,73.319907,17.166601,20.232103,-0.166928,0.336179,0.000000,0.262996,1.080736,0.000000
2.760000,0.902964,1.011897,-1.150374,3.101136,-0.653313,-0.877333,-4.201525,-2.047446,-1.808724,-8.467335,5.428631,15.263598,74.171028,16.651858,16.363145,-0.164225,0.346986,0.000000,0.277849,1.050285,0.000000
2.770000,0.933766,1.005261,-1.159238,3.058698,-0.673516,-0.894657,-4.282484,-1.992326,-1.655270,-7.722201,5.592391,15.407780,74.599851,16.052045,12.483259,-0.161370,0.357471,0.000000,0.293127,1.018166,-0.000000
2.780000,0.964138,0.998426,-1.168267,3.015487,-0.693160,-0.910438,-4.355969,-1.935598,-1.500568,-6.975338,5.749672,15.513264,74.662462,15.384543,8.629758,-0.158361,0.367617,0.000000,0.308790,0.984576,0.000000
2.790000,0.994075,0.991398,-1.177447,2.971578,-0.712228,-0.924668,-4.421991,-1.877332,-1.345005,-6.228952,5.900082,15.580375,74.663509,14.715069,4.797635,-0.155193,0.377410,0.000000,0.324829,0.949503,-0.000000
2.800000,1.023570,0.984182,-1.186761,2.927047,-0.730706,-0.937339,-4.480548,-1.817596,-1.188961,-5.482068,6.043973,15.609216,74.689237,14.089324,0.961933,-0.151862,0.386836,0.000000,0.341280,0.912682,0.000000
2.810000,1.052616,0.976784,-1.196193,2.881967,-0.748580,-0.948447,-4.531632,-1.756453,-1.032820,-4.735167,6.181868,15.599614,74.531544,13.461299,-2.849741,-0.148365,0.395874,0.000000,0.358203,0.873943,0.000000
2.820000,1.081209,0.969210,-1.205730,2.836414,-0.765835,-0.957995,-4.575252,-1.693959,-0.876969,-3.991437,6.313199,15.552222,73.981763,12.709126,-6.528502,-0.144697,0.404506,0.000000,0.375573,0.833349,0.000000
2.830000,1.109345,0.961467,-1.215353,2.790462,-0.782459,-0.965987,-4.611461,-1.630189,-0.721776,-3.255532,6.436051,15.469044,73.094688,11.898139,-10.056984,-0.140852,0.412714,0.000000,0.393237,0.791136,0.000000
