time,x,y,z,vx,vy,vz,ax,ay,az,jx,jy,jz,sx,sy,sz,roll,pitch,yaw,p,q,r
0.000000,-2.478431,-1.631692,-1.469993,-0.009593,0.001671,-0.004789,0.247076,-0.363205,0.078541,-9.239099,8.951786,-2.221086,257.396649,-108.530834,61.662620,-0.037293,-0.025384,0.000000,0.925907,0.953921,-0.000000
0.010000,-2.478516,-1.631692,-1.470038,-0.007543,-0.001531,-0.004105,0.166871,-0.278799,0.059260,-6.868667,7.959989,-1.650107,217.403797,-90.167971,52.684371,-0.028581,-0.017112,0.000000,0.820049,0.706826,-0.000000
0.020000,-2.478584,-1.631720,-1.470076,-0.006183,-0.003935,-0.003587,0.108440,-0.203427,0.045255,-4.877108,7.141807,-1.164451,181.585384,-73.790883,44.590337,-0.020828,-0.011105,0.000000,0.733392,0.500615,0.000000
0.030000,-2.478641,-1.631768,-1.470110,-0.005313,-0.005624,-0.003185,0.068202,-0.135449,0.035716,-3.223781,6.477890,-0.755503,149.720685,-59.298071,37.335370,-0.013856,-0.006978,0.000000,0.663644,0.330314,0.000000
0.040000,-2.478692,-1.631830,-1.470140,-0.004769,-0.006664,-0.002860,0.042966,-0.073416,0.029916,-1.870251,5.949903,-0.415097,121.588904,-46.588029,30.874325,-0.007506,-0.004393,0.000000,0.608641,0.191408,-0.000000
0.050000,-2.478737,-1.631899,-1.470167,-0.004413,-0.007108,-0.002577,0.029918,-0.016056,0.027211,-0.780282,5.540524,-0.135521,96.970597,-35.559389,25.162026,-0.001641,-0.003058,0.000000,0.566372,0.079802,-0.000000
0.060000,-2.478780,-1.631970,-1.470192,-0.004138,-0.006997,-0.002307,0.026595,0.037736,0.027028,0.080138,5.233449,0.090489,75.643612,-26.110515,20.153344,0.003857,-0.002719,0.000000,0.534981,-0.008217,0.000000
0.070000,-2.478820,-1.632038,-1.470213,-0.003856,-0.006362,-0.002029,0.030862,0.088903,0.028865,0.742828,5.013386,0.269741,57.387850,-18.139976,15.803114,0.009089,-0.003155,0.000000,0.512760,-0.076028,-0.000000
0.080000,-2.478857,-1.632096,-1.470232,-0.003502,-0.005225,-0.001725,0.040892,0.138246,0.032288,1.237397,4.866060,0.408595,41.982631,-11.546309,12.066171,0.014138,-0.004182,0.000000,0.498148,-0.126713,0.000000
0.090000,-2.478890,-1.632140,-1.470248,-0.003024,-0.003601,-0.001380,0.055141,0.186423,0.036922,1.591246,4.778209,0.512958,29.207231,-6.228086,8.897347,0.019073,-0.005642,0.000000,0.489713,-0.163081,-0.000000
0.100000,-2.478917,-1.632166,-1.470259,-0.002389,-0.001499,-0.000983,0.072332,0.233967,0.042450,1.829577,4.737589,0.588288,18.841523,-2.083412,6.251696,0.023948,-0.007405,0.000000,0.486151,-0.187694,0.000000
0.110000,-2.478937,-1.632169,-1.470267,-0.001571,0.001078,-0.000528,0.091425,0.281294,0.048608,1.975374,4.732967,0.639586,10.664228,0.988711,4.083795,0.028808,-0.009366,0.000000,0.486274,-0.202878,0.000000
0.120000,-2.478948,-1.632143,-1.470270,-0.000557,0.004127,-0.000010,0.111600,0.328712,0.055177,2.049422,4.754127,0.671406,4.454922,3.089950,2.348599,0.033682,-0.011440,0.000000,0.489013,-0.210733,0.000000
0.130000,-2.478947,-1.632085,-1.470267,0.000662,0.007653,0.000576,0.132236,0.376432,0.061985,2.070297,4.791868,0.687850,-0.007068,4.321788,1.000967,0.038594,-0.013565,0.000000,0.493406,-0.213140,-0.000000
0.140000,-2.478934,-1.631989,-1.470258,0.002088,0.011658,0.001230,0.152884,0.424578,0.068895,2.054369,4.838003,0.692567,-2.942416,4.785723,-0.004233,0.043553,-0.015693,0.000000,0.498604,-0.211760,0.000000
0.150000,-2.478905,-1.631850,-1.470242,0.003719,0.016146,0.001954,0.173248,0.473196,0.075807,2.015802,4.885361,0.688756,-4.571775,4.583326,-0.712133,0.048566,-0.017796,0.000000,0.503865,-0.208032,0.000000
0.160000,-2.478859,-1.631664,-1.470219,0.005551,0.021123,0.002746,0.193165,0.522268,0.082651,1.966560,4.927786,0.679160,-5.115218,3.815886,-1.168226,0.053629,-0.019855,0.000000,0.508557,-0.203182,-0.000000
0.170000,-2.478793,-1.631426,-1.470187,0.007580,0.026593,0.003606,0.212577,0.571718,0.089379,1.916384,4.960135,0.666080,-4.794245,2.585064,-1.417195,0.058733,-0.021865,0.000000,0.512150,-0.198207,-0.000000
0.180000,-2.478707,-1.631130,-1.470146,0.009801,0.032558,0.004533,0.231515,0.621423,0.095967,1.872822,4.978281,0.651356,-3.829210,0.992306,-1.504376,0.063867,-0.023828,0.000000,0.514227,-0.193887,-0.000000
0.190000,-2.478597,-1.630773,-1.470096,0.012209,0.039021,0.005525,0.250073,0.671226,0.102405,1.841210,4.979113,0.636381,-2.440862,-0.860882,-1.474910,0.069012,-0.025755,0.000000,0.514472,-0.190774,-0.000000
0.200000,-2.478462,-1.630348,-1.470036,0.014802,0.045982,0.006581,0.268389,0.720941,0.108697,1.824687,4.960532,0.622096,-0.849161,-2.873138,-1.373956,0.074149,-0.027658,0.000000,0.512675,-0.189194,-0.000000
0.210000,-2.478300,-1.629852,-1.469964,0.017574,0.053440,0.007698,0.285602,0.770718,0.114656,1.591141,5.001536,0.564376,-3.881999,-3.359861,-2.128563,0.079293,-0.029449,0.000000,0.516622,-0.165164,0.000000
0.220000,-2.478110,-1.629278,-1.469882,0.020515,0.061395,0.008874,0.303522,0.819783,0.120613,2.133128,4.760535,0.653529,71.535568,-30.843278,12.162995,0.084364,-0.031315,0.000000,0.492666,-0.221256,0.000000
0.230000,-2.477889,-1.628622,-1.469787,0.023664,0.069827,0.010114,0.326267,0.866563,0.127340,2.166338,4.678619,0.643928,-66.179824,14.902221,-14.325816,0.089208,-0.033683,0.000000,0.484315,-0.224821,-0.000000
0.240000,-2.477636,-1.627880,-1.469679,0.027023,0.078729,0.011417,0.344640,0.914061,0.133065,1.633355,4.775525,0.524804,0.695740,-9.644619,-1.624694,0.094119,-0.035600,0.000000,0.493333,-0.169749,-0.000000
0.250000,-2.477348,-1.627046,-1.469558,0.030555,0.088106,0.012774,0.362087,0.960938,0.138437,1.830827,4.605932,0.544597,-2.204285,-10.174814,-2.263927,0.098963,-0.037421,0.000000,0.476088,-0.190205,0.000000
0.260000,-2.477024,-1.626116,-1.469423,0.034267,0.097944,0.014185,0.380260,1.006565,0.143764,1.802892,4.519901,0.520624,-2.596685,-11.085493,-2.404940,0.103678,-0.039319,0.000000,0.467012,-0.187330,-0.000000
0.270000,-2.476662,-1.625086,-1.469274,0.038159,0.108233,0.015648,0.398195,1.050977,0.148855,1.786121,4.347066,0.497674,-1.521505,-19.523681,-2.303358,0.108267,-0.041193,0.000000,0.449030,-0.185590,0.000000
0.280000,-2.476260,-1.623950,-1.469110,0.042230,0.118958,0.017161,0.415934,1.093663,0.153708,1.756430,4.212524,0.472069,-4.439779,-7.247490,-2.820007,0.112675,-0.043047,0.000000,0.434911,-0.182495,-0.000000
0.290000,-2.475817,-1.622705,-1.468931,0.046476,0.130104,0.018722,0.433271,1.135407,0.158286,1.712799,4.122592,0.443726,-3.513858,-14.707396,-2.726449,0.116983,-0.044860,0.000000,0.425290,-0.177939,0.000000
0.300000,-2.475330,-1.621347,-1.468736,0.050894,0.141661,0.020326,0.450239,1.175778,0.162588,1.679649,3.952486,0.416529,-3.882055,-15.328945,-2.832910,0.121146,-0.046636,0.000000,0.407467,-0.174448,0.000000
0.310000,-2.474798,-1.619871,-1.468524,0.055480,0.153614,0.021972,0.466859,1.214549,0.166606,1.644726,3.801131,0.386688,-4.074545,-15.998969,-2.947914,0.125141,-0.048375,0.000000,0.391509,-0.170747,-0.000000
0.320000,-2.474220,-1.618273,-1.468296,0.060230,0.165947,0.023657,0.483048,1.251692,0.170334,1.589252,3.622943,0.359309,-6.069880,-18.586180,-2.709674,0.128966,-0.050069,0.000000,0.372848,-0.164935,0.000000
0.330000,-2.473593,-1.616550,-1.468051,0.065139,0.178642,0.025378,0.498683,1.287038,0.173780,1.543277,3.451490,0.328676,-3.091723,-15.658242,-3.422394,0.132601,-0.051705,0.000000,0.354822,-0.160069,0.000000
0.340000,-2.472917,-1.614699,-1.467788,0.070202,0.191682,0.027132,0.513958,1.320760,0.176894,1.508347,3.289037,0.294548,-4.846021,-17.867516,-3.219430,0.136066,-0.053303,0.000000,0.337650,-0.156304,-0.000000
0.350000,-2.472189,-1.612716,-1.467508,0.075416,0.205051,0.028915,0.528771,1.352723,0.179682,1.454545,3.103310,0.262725,-4.957131,-18.220435,-3.328420,0.139345,-0.054852,0.000000,0.318156,-0.150603,0.000000
0.360000,-2.471408,-1.610597,-1.467210,0.080776,0.218730,0.030724,0.543073,1.382843,0.182136,1.405808,2.920309,0.227863,-5.073719,-18.545196,-3.448206,0.142430,-0.056347,0.000000,0.298896,-0.145395,0.000000
0.370000,-2.470573,-1.608340,-1.466894,0.086276,0.232702,0.032557,0.556860,1.411105,0.184251,1.350502,2.731010,0.195561,-5.705064,-19.130202,-3.202621,0.145320,-0.057787,0.000000,0.279048,-0.139518,0.000000
0.380000,-2.469682,-1.605942,-1.466559,0.091911,0.246946,0.034408,0.570093,1.437464,0.186035,1.297635,2.541559,0.159816,-4.856019,-18.743318,-3.952429,0.148011,-0.059168,0.000000,0.259144,-0.133863,0.000000
0.390000,-2.468734,-1.603400,-1.466205,0.097676,0.261445,0.036276,0.582825,1.461940,0.187433,1.247811,2.352874,0.120355,-5.386867,-19.157226,-3.747885,0.150504,-0.060495,0.000000,0.239269,-0.128487,0.000000
0.400000,-2.467728,-1.600712,-1.465833,0.103566,0.276179,0.038156,0.595025,1.484505,0.188453,1.192354,2.160109,0.083222,-5.420357,-19.212273,-3.869793,0.152795,-0.061764,0.000000,0.219036,-0.122542,-0.000000
0.410000,-2.466662,-1.597876,-1.465442,0.109575,0.291128,0.040044,0.606678,1.505145,0.189086,1.138158,1.967899,0.043150,-5.448988,-19.218702,-3.996140,0.154884,-0.062975,0.000000,0.198829,-0.116700,0.000000
0.420000,-2.465536,-1.594889,-1.465032,0.115698,0.306275,0.041936,0.617785,1.523864,0.189324,1.083129,1.775935,0.004667,-5.521816,-19.166073,-3.844425,0.156772,-0.064126,0.000000,0.178690,-0.110777,-0.000000
0.430000,-2.464348,-1.591750,-1.464604,0.121929,0.321599,0.043829,0.628342,1.540666,0.189168,1.028456,1.584734,-0.036761,-5.408890,-19.065402,-4.445429,0.158458,-0.065218,0.000000,0.158600,-0.104866,0.000000
0.440000,-2.463097,-1.588457,-1.464156,0.128263,0.337082,0.045718,0.638356,1.555563,0.188577,0.974351,1.394819,-0.081319,-5.442282,-18.908237,-4.320282,0.159944,-0.066250,0.000000,0.138608,-0.098987,-0.000000
0.450000,-2.461783,-1.585008,-1.463689,0.134694,0.352704,0.047599,0.647827,1.568569,0.187550,0.919944,1.206717,-0.124395,-5.404915,-18.705426,-4.439037,0.161231,-0.067223,0.000000,0.118844,-0.093083,-0.000000
0.460000,-2.460403,-1.581402,-1.463204,0.141218,0.368447,0.049468,0.656757,1.579704,0.186080,0.866019,1.020696,-0.169704,-5.358169,-18.461038,-4.552178,0.162322,-0.068137,0.000000,0.099274,-0.087210,-0.000000
0.470000,-2.458958,-1.577639,-1.462700,0.147828,0.384292,0.051319,0.665151,1.588994,0.184157,0.813004,0.837915,-0.214779,-5.261758,-18.117990,-4.529651,0.163218,-0.068991,0.000000,0.080057,-0.081428,-0.000000
0.480000,-2.457446,-1.573716,-1.462178,0.154519,0.400221,0.053149,0.673018,1.596471,0.181778,0.760425,0.657847,-0.261697,-5.252806,-17.890354,-4.854897,0.163924,-0.069787,0.000000,0.061104,-0.075676,0.000000
0.490000,-2.455867,-1.569634,-1.461637,0.161286,0.416216,0.054953,0.680361,1.602161,0.178917,0.708371,0.480824,-0.310481,-5.137003,-17.478559,-4.832190,0.164441,-0.070525,0.000000,0.042450,-0.069963,0.000000
0.500000,-2.454220,-1.565392,-1.461079,0.168124,0.432258,0.056726,0.687190,1.606102,0.175571,0.657552,0.308136,-0.358895,-5.043806,-17.083838,-4.916746,0.164774,-0.071206,0.000000,0.024263,-0.064377,0.000000
0.510000,-2.452505,-1.560989,-1.460503,0.175028,0.448332,0.058463,0.693515,1.608335,0.171735,0.607489,0.139179,-0.408340,-4.942619,-16.661595,-4.984969,0.164928,-0.071831,0.000000,0.006458,-0.058862,-0.000000
0.520000,-2.450719,-1.556425,-1.459910,0.181993,0.464420,0.060159,0.699346,1.608904,0.167401,0.558957,-0.024625,-0.458691,-4.786408,-16.134818,-5.069080,0.164905,-0.072400,0.000000,-0.010818,-0.053496,-0.000000
0.530000,-2.448865,-1.551700,-1.459300,0.189014,0.480505,0.061809,0.704696,1.607856,0.162560,0.511280,-0.184272,-0.509381,-4.748573,-15.791918,-5.066408,0.164713,-0.072915,0.000000,-0.027656,-0.048217,0.000000
0.540000,-2.446939,-1.546815,-1.458673,0.196085,0.496571,0.063408,0.709574,1.605232,0.157213,0.464497,-0.339581,-0.560260,-4.582580,-15.226098,-5.121171,0.164354,-0.073378,0.000000,-0.044032,-0.043030,0.000000
0.550000,-2.444943,-1.541769,-1.458032,0.203204,0.512604,0.064952,0.713993,1.601085,0.151353,0.419441,-0.489074,-0.611633,-4.451791,-14.709282,-5.136692,0.163834,-0.073788,0.000000,-0.059803,-0.038019,0.000000
0.560000,-2.442875,-1.536563,-1.457375,0.210364,0.528588,0.066434,0.717966,1.595466,0.144982,0.375473,-0.633813,-0.662551,-4.316607,-14.179040,-5.127807,0.163159,-0.074149,0.000000,-0.075059,-0.033125,0.000000
0.570000,-2.440735,-1.531197,-1.456703,0.217562,0.544509,0.067850,0.721509,1.588431,0.138096,0.333347,-0.772084,-0.714903,-4.131353,-13.527971,-5.258394,0.162335,-0.074460,0.000000,-0.089659,-0.028413,0.000000
0.580000,-2.438523,-1.525673,-1.456018,0.224793,0.560352,0.069194,0.724637,1.580040,0.130689,0.292366,-0.905490,-0.765956,-4.064912,-13.153173,-4.946772,0.161368,-0.074725,0.000000,-0.103715,-0.023832,-0.000000
0.590000,-2.436239,-1.519991,-1.455320,0.232053,0.576105,0.070462,0.727360,1.570337,0.122783,0.252536,-1.033999,-0.815419,-3.876889,-12.491526,-5.024526,0.160263,-0.074944,0.000000,-0.117221,-0.019386,-0.000000
0.600000,-2.433882,-1.514151,-1.454609,0.239338,0.591755,0.071648,0.729694,1.559384,0.114376,0.214637,-1.155768,-0.865687,-3.726291,-11.916816,-4.944354,0.159026,-0.075119,0.000000,-0.130029,-0.015137,-0.000000
0.610000,-2.431452,-1.508156,-1.453887,0.246646,0.607289,0.072748,0.731656,1.547238,0.105477,0.177998,-1.272451,-0.913977,-3.575115,-11.341936,-4.835351,0.157664,-0.075251,0.000000,-0.142260,-0.011039,0.000000
0.620000,-2.428949,-1.502006,-1.453154,0.253970,0.622696,0.073756,0.733261,1.533960,0.096091,0.143368,-1.381888,-0.963468,-3.375060,-10.619848,-4.939058,0.156183,-0.075343,0.000000,-0.153747,-0.007143,0.000000
0.630000,-2.426373,-1.495702,-1.452412,0.261310,0.637965,0.074668,0.734527,1.519616,0.086218,0.109988,-1.486414,-1.010159,-3.301541,-10.287670,-4.391981,0.154591,-0.075396,0.000000,-0.164660,-0.003403,-0.000000
0.640000,-2.423723,-1.489247,-1.451661,0.268660,0.653085,0.075479,0.735465,1.504247,0.075899,0.077832,-1.586132,-1.053680,-3.104863,-9.580836,-4.430439,0.152892,-0.075412,0.000000,-0.175005,0.000180,0.000000
0.650000,-2.421000,-1.482641,-1.450903,0.276018,0.668046,0.076184,0.736091,1.487919,0.065140,0.047683,-1.678679,-1.097667,-2.949817,-9.004486,-4.242356,0.151093,-0.075393,0.000000,-0.184603,0.003554,-0.000000
0.660000,-2.418203,-1.475887,-1.450138,0.283381,0.682840,0.076780,0.736423,1.470689,0.053958,0.018815,-1.766369,-1.138371,-2.796674,-8.438656,-4.027231,0.149202,-0.075341,0.000000,-0.193627,0.006764,-0.000000
0.670000,-2.415332,-1.468985,-1.449368,0.290745,0.697457,0.077262,0.736475,1.452618,0.042370,-0.008003,-1.846590,-1.179364,-2.593513,-7.699790,-4.039798,0.147224,-0.075257,0.000000,-0.201873,0.009760,0.000000
0.680000,-2.412388,-1.461938,-1.448593,0.298109,0.711890,0.077626,0.736266,1.433771,0.030385,-0.033613,-1.922343,-1.216408,-2.529490,-7.455035,-3.361869,0.145166,-0.075144,0.000000,-0.209576,0.012595,-0.000000
0.690000,-2.409370,-1.454748,-1.447816,0.305470,0.726130,0.077869,0.735806,1.414184,0.018057,-0.058065,-1.993840,-1.249136,-2.334446,-6.752230,-3.310422,0.143034,-0.075003,0.000000,-0.216757,0.015271,0.000000
0.700000,-2.406278,-1.447416,-1.447036,0.312825,0.740171,0.077986,0.735112,1.393920,0.005401,-0.080540,-2.058219,-1.281454,-2.186928,-6.219012,-3.021221,0.140834,-0.074836,0.000000,-0.223189,0.017736,-0.000000
0.710000,-2.403114,-1.439945,-1.446256,0.320171,0.754007,0.077976,0.734199,1.373033,-0.007557,-0.101830,-2.118354,-1.309572,-2.042915,-5.703521,-2.711048,0.138572,-0.074645,0.000000,-0.229107,0.020041,0.000000
0.720000,-2.399875,-1.432337,-1.445477,0.327508,0.767630,0.077834,0.733083,1.351579,-0.020789,-0.121145,-2.171351,-1.336646,-1.848191,-5.001615,-2.593183,0.136254,-0.074432,0.000000,-0.234270,0.022131,-0.000000
0.730000,-2.396563,-1.424593,-1.444700,0.334832,0.781037,0.077559,0.731780,1.329618,-0.034273,-0.139383,-2.220604,-1.359117,-1.800829,-4.854444,-1.895273,0.133888,-0.074199,0.000000,-0.238970,0.024070,0.000000
0.740000,-2.393178,-1.416717,-1.443926,0.342143,0.794221,0.077148,0.730298,1.307177,-0.047954,-0.156612,-2.266397,-1.376692,-1.617551,-4.202428,-1.726692,0.131476,-0.073947,0.000000,-0.243236,0.025864,-0.000000
0.750000,-2.389721,-1.408710,-1.443157,0.349438,0.807179,0.076599,0.728654,1.284314,-0.061804,-0.171985,-2.305590,-1.392684,-1.485058,-3.742893,-1.360872,0.129025,-0.073678,0.000000,-0.246804,0.027454,-0.000000
0.760000,-2.386190,-1.400574,-1.442395,0.356716,0.819906,0.075912,0.726861,1.261076,-0.075791,-0.186330,-2.341336,-1.404060,-1.357113,-3.304593,-0.983181,0.126541,-0.073394,0.000000,-0.249952,0.028901,-0.000000
0.770000,-2.382586,-1.392312,-1.441640,0.363975,0.832399,0.075083,0.724934,1.237510,-0.089878,-0.198887,-2.370776,-1.412965,-1.181528,-2.687591,-0.727887,0.124029,-0.073096,0.000000,-0.252429,0.030145,0.000000
0.780000,-2.378910,-1.383927,-1.440894,0.371214,0.844655,0.074114,0.722886,1.213669,-0.104034,-0.210530,-2.397274,-1.417154,-1.148523,-2.618204,-0.106750,0.121494,-0.072787,0.000000,-0.254544,0.031259,0.000000
0.790000,-2.375162,-1.375420,-1.440158,0.378432,0.856672,0.073003,0.720726,1.189572,-0.118204,-0.221333,-2.421146,-1.416463,-0.985854,-2.056673,0.176843,0.118939,-0.072467,0.000000,-0.256333,0.032250,-0.000000
0.800000,-2.371342,-1.366794,-1.439434,0.385628,0.868446,0.071750,0.718466,1.165267,-0.132355,-0.230486,-2.439338,-1.413013,-0.872279,-1.686634,0.582498,0.116369,-0.072138,0.000000,-0.257523,0.033053,-0.000000
0.810000,-2.367450,-1.358052,-1.438723,0.392801,0.879976,0.070356,0.716119,1.140793,-0.146449,-0.238757,-2.454890,-1.405052,-0.763071,-1.337785,0.989050,0.113789,-0.071801,0.000000,-0.258401,0.033735,-0.000000
0.820000,-2.363486,-1.349195,-1.438027,0.399950,0.891261,0.068821,0.713696,1.116188,-0.160444,-0.245581,-2.465336,-1.393421,-0.621375,-0.840718,1.357709,0.111203,-0.071459,0.000000,-0.258737,0.034245,-0.000000
0.830000,-2.359451,-1.340227,-1.437347,0.407075,0.902300,0.067147,0.711210,1.091493,-0.174303,-0.251593,-2.473574,-1.377471,-0.582196,-0.812450,1.832733,0.108615,-0.071113,0.000000,-0.258816,0.034644,0.000000
0.840000,-2.355344,-1.331150,-1.436685,0.414174,0.913091,0.065336,0.708666,1.066722,-0.187979,-0.256857,-2.479900,-1.357185,-0.452263,-0.368768,2.203365,0.106028,-0.070763,0.000000,-0.258671,0.034939,-0.000000
0.850000,-2.351167,-1.321966,-1.436041,0.421248,0.923634,0.063388,0.706077,1.041912,-0.201435,-0.260814,-2.481747,-1.333241,-0.358819,-0.090294,2.605277,0.103444,-0.070410,0.000000,-0.258063,0.035080,-0.000000
0.860000,-2.346920,-1.312678,-1.435418,0.428296,0.933929,0.061308,0.703452,1.017093,-0.214631,-0.264045,-2.481635,-1.305359,-0.268621,0.170128,2.997186,0.100867,-0.070058,0.000000,-0.257240,0.035124,0.000000
0.870000,-2.342601,-1.303289,-1.434815,0.435317,0.943976,0.059097,0.700801,0.992292,-0.227527,-0.265985,-2.477839,-1.273077,-0.141522,0.527255,3.432117,0.098300,-0.069705,0.000000,-0.256034,0.035013,-0.000000
0.880000,-2.338213,-1.293800,-1.434236,0.442312,0.953775,0.056758,0.698134,0.967541,-0.240081,-0.267340,-2.472385,-1.237288,-0.130632,0.558900,3.723342,0.095747,-0.069354,0.000000,-0.254657,0.034824,0.000000
0.890000,-2.333755,-1.284214,-1.433681,0.449280,0.963327,0.054296,0.695456,0.942849,-0.252262,-0.268173,-2.465519,-1.198121,-0.014635,0.871324,4.134262,0.093208,-0.069006,0.000000,-0.253137,0.034564,0.000000
0.900000,-2.329228,-1.274534,-1.433151,0.456221,0.972632,0.051715,0.692775,0.918242,-0.264029,-0.267832,-2.455515,-1.154864,0.060897,1.067238,4.489258,0.090685,-0.068660,0.000000,-0.251305,0.034167,-0.000000
0.910000,-2.324631,-1.264762,-1.432647,0.463135,0.981692,0.049017,0.690101,0.893743,-0.275349,-0.266859,-2.444072,-1.108601,0.134802,1.248605,4.825621,0.088182,-0.068320,0.000000,-0.249338,0.033692,-0.000000
0.920000,-2.319965,-1.254901,-1.432171,0.470023,0.990508,0.046209,0.687441,0.869369,-0.286185,-0.265132,-2.430319,-1.057804,0.208721,1.470941,5.268479,0.085699,-0.067984,0.000000,-0.247143,0.033118,-0.000000
0.930000,-2.315231,-1.244953,-1.431723,0.476884,0.999080,0.043295,0.684801,0.845140,-0.296498,-0.262725,-2.415302,-1.004602,0.272027,1.529198,5.367265,0.083239,-0.067655,0.000000,-0.244843,0.032469,0.000000
0.940000,-2.310428,-1.234920,-1.431305,0.483719,1.007411,0.040281,0.682188,0.821066,-0.306271,-0.259669,-2.399197,-0.949246,0.340297,1.718648,5.764445,0.080803,-0.067333,0.000000,-0.242460,0.031747,-0.000000
0.950000,-2.305556,-1.224805,-1.430918,0.490528,1.015502,0.037172,0.679610,0.797163,-0.315468,-0.255940,-2.381219,-0.889909,0.403557,1.846253,6.036256,0.078391,-0.067018,0.000000,-0.239903,0.030941,-0.000000
0.960000,-2.300617,-1.214611,-1.430562,0.497311,1.023355,0.033974,0.677072,0.773445,-0.324064,-0.251550,-2.362154,-0.828742,0.465561,1.963956,6.282919,0.076005,-0.066712,0.000000,-0.237270,0.030064,-0.000000
0.970000,-2.295610,-1.204339,-1.430238,0.504069,1.030972,0.030693,0.674580,0.749924,-0.332028,-0.246716,-2.341987,-0.763499,0.509314,2.068549,6.675945,0.073646,-0.066415,0.000000,-0.234544,0.029125,0.000000
0.980000,-2.290536,-1.193992,-1.429948,0.510803,1.038354,0.027335,0.672140,0.726609,-0.339330,-0.241195,-2.320798,-0.697107,0.594662,2.167393,6.596303,0.071314,-0.066128,0.000000,-0.231756,0.028118,0.000000
0.990000,-2.285394,-1.183573,-1.429692,0.517512,1.045505,0.023908,0.669758,0.703511,-0.345968,-0.234997,-2.298691,-0.629898,0.636191,2.251477,6.928995,0.069011,-0.065852,0.000000,-0.228918,0.027047,-0.000000
1.000000,-2.280186,-1.173083,-1.429470,0.524198,1.052425,0.020418,0.667441,0.680638,-0.351916,-0.228410,-2.275794,-0.559341,0.689836,2.327560,7.091536,0.066736,-0.065586,0.000000,-0.226027,0.025922,0.000000
1.010000,-2.274910,-1.162525,-1.429284,0.530861,1.059118,0.016872,0.665192,0.657998,-0.357154,-0.221232,-2.252037,-0.488230,0.741758,2.397550,7.225743,0.064490,-0.065332,0.000000,-0.223095,0.024744,-0.000000
1.020000,-2.269569,-1.151901,-1.429133,0.537502,1.065586,0.013278,0.663018,0.635597,-0.361668,-0.213615,-2.228100,-0.413995,0.784909,2.412669,7.521501,0.062274,-0.065091,0.000000,-0.220172,0.023508,0.000000
1.030000,-2.264160,-1.141214,-1.429018,0.544122,1.071831,0.009641,0.660922,0.613439,-0.365435,-0.205462,-2.203303,-0.339892,0.845662,2.546200,7.292059,0.060087,-0.064862,0.000000,-0.217213,0.022227,-0.000000
1.040000,-2.258686,-1.130465,-1.428940,0.550721,1.077855,0.005971,0.658910,0.591534,-0.368468,-0.196782,-2.177689,-0.266292,0.886375,2.551072,7.520793,0.057930,-0.064645,0.000000,-0.214222,0.020904,0.000000
1.050000,-2.253146,-1.119658,-1.428899,0.557301,1.083662,0.002275,0.656987,0.569885,-0.370752,-0.187707,-2.152098,-0.190382,0.932036,2.590341,7.561112,0.055802,-0.064443,0.000000,-0.211265,0.019532,-0.000000
1.060000,-2.247540,-1.108793,-1.428895,0.563861,1.089254,-0.001441,0.655158,0.548495,-0.372279,-0.178070,-2.125837,-0.115170,0.977937,2.625511,7.573124,0.053705,-0.064254,0.000000,-0.208291,0.018115,-0.000000
1.070000,-2.241869,-1.097873,-1.428928,0.570404,1.094633,-0.005169,0.653426,0.527366,-0.373047,-0.168311,-2.099933,-0.038118,0.990289,2.588480,7.740364,0.051636,-0.064080,0.000000,-0.205385,0.016678,-0.000000
1.080000,-2.236132,-1.086901,-1.428998,0.576930,1.099802,-0.008900,0.651794,0.506498,-0.373047,-0.157918,-2.073367,0.037607,1.088678,2.724984,7.397825,0.049597,-0.063921,0.000000,-0.202463,0.015190,-0.000000
1.090000,-2.230330,-1.075878,-1.429106,0.583440,1.104764,-0.012627,0.650270,0.485901,-0.372302,-0.146880,-2.046146,0.111641,1.101764,2.683720,7.498863,0.047587,-0.063776,0.000000,-0.199526,0.013654,-0.000000
1.100000,-2.224463,-1.064806,-1.429251,0.589936,1.109521,-0.016343,0.648857,0.465573,-0.370809,-0.135745,-2.019417,0.186712,1.141967,2.695828,7.417855,0.045606,-0.063647,0.000000,-0.196672,0.012103,0.000000
1.110000,-2.218532,-1.053688,-1.429433,0.596418,1.114076,-0.020041,0.647557,0.445515,-0.368575,-0.124055,-1.992236,0.259962,1.181342,2.704631,7.311045,0.043654,-0.063534,0.000000,-0.193819,0.010510,-0.000000
1.120000,-2.212535,-1.042526,-1.429652,0.602887,1.118432,-0.023712,0.646376,0.425726,-0.365607,-0.112256,-1.965661,0.333618,1.192265,2.643501,7.336493,0.041730,-0.063437,0.000000,-0.191060,0.008906,0.000000
1.130000,-2.206474,-1.031320,-1.429907,0.609346,1.122592,-0.027350,0.645314,0.406203,-0.361911,-0.099921,-1.938673,0.404941,1.274906,2.754346,6.921972,0.039833,-0.063356,0.000000,-0.188304,0.007263,-0.000000
1.140000,-2.200348,-1.020074,-1.430198,0.615794,1.126557,-0.030948,0.644379,0.386954,-0.357518,-0.087046,-1.911272,0.473608,1.285759,2.690918,6.888975,0.037963,-0.063292,0.000000,-0.185552,0.005583,-0.000000
1.150000,-2.194158,-1.008790,-1.430526,0.622234,1.130332,-0.034498,0.643573,0.367975,-0.352438,-0.074099,-1.884582,0.541968,1.318248,2.680643,6.699176,0.036121,-0.063244,0.000000,-0.182900,0.003896,-0.000000
1.160000,-2.187904,-0.997468,-1.430888,0.628666,1.133918,-0.037995,0.642899,0.349263,-0.346688,-0.060707,-1.857720,0.607613,1.349477,2.666545,6.488653,0.034305,-0.063214,0.000000,-0.180271,0.002180,0.000000
1.170000,-2.181585,-0.986112,-1.431285,0.635092,1.137318,-0.041430,0.642359,0.330818,-0.340288,-0.047211,-1.831490,0.672251,1.359383,2.602350,6.375957,0.032515,-0.063201,0.000000,-0.177734,0.000458,0.000000
1.180000,-2.175202,-0.974723,-1.431717,0.641514,1.140535,-0.044798,0.641956,0.312634,-0.333254,-0.033315,-1.805190,0.733813,1.419738,2.657644,5.931866,0.030751,-0.063205,0.000000,-0.175226,-0.001288,0.000000
1.190000,-2.168755,-0.963302,-1.432181,0.647932,1.143571,-0.048093,0.641694,0.294715,-0.325623,-0.019027,-1.778832,0.792051,1.427395,2.589413,5.773966,0.029011,-0.063226,0.000000,-0.172745,-0.003057,0.000000
1.200000,-2.162243,-0.951852,-1.432678,0.654348,1.146430,-0.051309,0.641575,0.277054,-0.317417,-0.004689,-1.753214,0.848728,1.449870,2.557208,5.498561,0.027295,-0.063266,0.000000,-0.170363,-0.004825,-0.000000
1.210000,-2.155668,-0.940374,-1.433207,0.660764,1.149113,-0.054440,0.641601,0.259650,-0.308661,0.009927,-1.727783,0.902078,1.469479,2.519966,5.208059,0.025603,-0.063323,0.000000,-0.168027,-0.006605,0.000000
1.220000,-2.149028,-0.928870,-1.433767,0.667180,1.151624,-0.057480,0.641774,0.242497,-0.299382,0.024657,-1.702904,0.953182,1.479636,2.462940,4.974822,0.023935,-0.063398,0.000000,-0.165770,-0.008388,-0.000000
1.230000,-2.142324,-0.917342,-1.434356,0.673600,1.153964,-0.060426,0.642095,0.225591,-0.289609,0.039584,-1.678375,1.000783,1.505418,2.442316,4.542602,0.022288,-0.063491,0.000000,-0.163572,-0.010176,-0.000000
1.240000,-2.135556,-0.905791,-1.434975,0.680023,1.156137,-0.063271,0.642566,0.208928,-0.279379,0.054684,-1.654232,1.044726,1.510372,2.377562,4.280578,0.020663,-0.063602,0.000000,-0.161433,-0.011963,-0.000000
1.250000,-2.128723,-0.894220,-1.435621,0.686452,1.158144,-0.066012,0.643189,0.192504,-0.268722,0.069814,-1.630773,1.086058,1.518432,2.321404,3.948312,0.019059,-0.063730,0.000000,-0.159380,-0.013745,0.000000
1.260000,-2.121827,-0.882629,-1.436295,0.692887,1.159987,-0.068644,0.643963,0.176311,-0.257670,0.084997,-1.607922,1.123803,1.522284,2.258761,3.609712,0.017475,-0.063876,0.000000,-0.157404,-0.015517,-0.000000
1.270000,-2.114866,-0.871021,-1.436994,0.699331,1.161670,-0.071164,0.644889,0.160344,-0.246257,0.100292,-1.585517,1.158324,1.531578,2.211138,3.283811,0.015911,-0.064040,0.000000,-0.155487,-0.017286,0.000000
1.280000,-2.107840,-0.859396,-1.437718,0.705785,1.163195,-0.073568,0.645968,0.144597,-0.234516,0.115519,-1.563932,1.189257,1.513089,2.104630,2.901586,0.014365,-0.064222,0.000000,-0.153664,-0.019034,0.000000
1.290000,-2.100750,-0.847757,-1.438465,0.712251,1.164563,-0.075853,0.647199,0.129062,-0.222484,0.130635,-1.543232,1.216543,1.514054,2.045060,2.565093,0.012837,-0.064421,0.000000,-0.151940,-0.020756,-0.000000
1.300000,-2.093595,-0.836105,-1.439234,0.718730,1.165777,-0.078017,0.648581,0.113731,-0.210196,0.145749,-1.523134,1.240466,1.503302,1.963073,2.209447,0.011326,-0.064637,0.000000,-0.150284,-0.022463,0.000000
1.310000,-2.086375,-0.824442,-1.440025,0.725223,1.166838,-0.080057,0.650113,0.098596,-0.197686,0.160650,-1.504049,1.260868,1.487589,1.874432,1.855143,0.009831,-0.064870,0.000000,-0.148736,-0.024134,0.000000
1.320000,-2.079091,-0.812769,-1.440835,0.731733,1.167749,-0.081970,0.651795,0.083649,-0.184992,0.175590,-1.485464,1.277425,1.488729,1.821014,1.471610,0.008351,-0.065120,0.000000,-0.147242,-0.025792,0.000000
1.330000,-2.071741,-0.801088,-1.441664,0.738260,1.168512,-0.083756,0.653624,0.068882,-0.172149,0.190183,-1.468081,1.290626,1.428884,1.654279,1.169440,0.006886,-0.065386,0.000000,-0.145871,-0.027400,0.000000
1.340000,-2.064325,-0.789399,-1.442510,0.744806,1.169128,-0.085413,0.655597,0.054283,-0.159190,0.204373,-1.451974,1.300513,1.419381,1.587278,0.793109,0.005433,-0.065668,0.000000,-0.144630,-0.028954,-0.000000
1.350000,-2.056844,-0.777706,-1.443372,0.751372,1.169598,-0.086939,0.657711,0.039841,-0.146151,0.218463,-1.436528,1.306633,1.386974,1.480257,0.446890,0.003993,-0.065965,0.000000,-0.143453,-0.030479,-0.000000
1.360000,-2.049298,-0.766008,-1.444248,0.757960,1.169925,-0.088336,0.659964,0.025547,-0.133068,0.232082,-1.422432,1.309600,1.349426,1.367065,0.108964,0.002564,-0.066277,0.000000,-0.142410,-0.031942,-0.000000
1.370000,-2.041685,-0.754308,-1.445138,0.764572,1.170110,-0.089601,0.662353,0.011391,-0.119974,0.245560,-1.408937,1.308478,1.332491,1.303398,-0.294967,0.001145,-0.066604,0.000000,-0.141424,-0.033370,0.000000
1.380000,-2.034006,-0.742606,-1.446040,0.771208,1.170153,-0.090735,0.664873,-0.002637,-0.106907,0.258445,-1.396961,1.304511,1.243284,1.090250,-0.495975,-0.000265,-0.066944,0.000000,-0.140585,-0.034724,0.000000
1.390000,-2.026261,-0.730905,-1.446952,0.777870,1.170057,-0.091739,0.667519,-0.016554,-0.093892,0.270673,-1.386581,1.297828,1.214837,1.013351,-0.876863,-0.001668,-0.067298,0.000000,-0.139901,-0.035999,0.000000
1.400000,-2.018449,-0.719205,-1.447874,0.784559,1.169823,-0.092613,0.670286,-0.030370,-0.080964,0.282617,-1.376943,1.287325,1.159884,0.885480,-1.184522,-0.003063,-0.067664,0.000000,-0.139283,-0.037222,-0.000000
1.410000,-2.010570,-0.707509,-1.448804,0.791276,1.169450,-0.093359,0.673169,-0.044098,-0.068154,0.293812,-1.368900,1.274281,1.099057,0.752999,-1.478297,-0.004454,-0.068042,0.000000,-0.138818,-0.038356,-0.000000
1.420000,-2.002623,-0.695817,-1.449741,0.798022,1.168941,-0.093977,0.676162,-0.057750,-0.055493,0.304773,-1.361614,1.257282,1.072349,0.674349,-1.865505,-0.005840,-0.068431,0.000000,-0.138419,-0.039441,-0.000000
1.430000,-1.994609,-0.684131,-1.450683,0.804799,1.168295,-0.094469,0.679261,-0.071336,-0.043015,0.314827,-1.356036,1.238147,0.937133,0.440113,-1.957833,-0.007223,-0.068831,0.000000,-0.138181,-0.040422,0.000000
1.440000,-1.986527,-0.672451,-1.451630,0.811608,1.167514,-0.094838,0.682455,-0.084877,-0.030736,0.323905,-1.352225,1.217071,0.897923,0.351331,-2.309782,-0.008604,-0.069239,0.000000,-0.138111,-0.041292,-0.000000
1.450000,-1.978377,-0.660781,-1.452579,0.818449,1.166598,-0.095085,0.685738,-0.098383,-0.018686,0.332600,-1.349265,1.192459,0.820434,0.210998,-2.555866,-0.009985,-0.069656,0.000000,-0.138114,-0.042097,-0.000000
1.460000,-1.970158,-0.649120,-1.453531,0.825323,1.165547,-0.095212,0.689104,-0.111868,-0.006892,0.340290,-1.347967,1.166067,0.738472,0.069166,-2.784909,-0.011367,-0.070081,0.000000,-0.138272,-0.042788,-0.000000
1.470000,-1.961870,-0.637470,-1.454483,0.832231,1.164361,-0.095223,0.692543,-0.125346,0.004622,0.347566,-1.347697,1.136206,0.694395,-0.034899,-3.121643,-0.012751,-0.070512,0.000000,-0.138519,-0.043411,0.000000
1.480000,-1.953513,-0.625833,-1.455435,0.839174,1.163040,-0.095121,0.696051,-0.138828,0.015828,0.353710,-1.349080,1.105013,0.533206,-0.242356,-3.112334,-0.014138,-0.070949,0.000000,-0.138920,-0.043906,-0.000000
1.490000,-1.945087,-0.614210,-1.456385,0.846152,1.161584,-0.094908,0.699613,-0.152333,0.026720,0.358659,-1.352142,1.072728,0.477938,-0.349852,-3.406253,-0.015530,-0.071390,0.000000,-0.139478,-0.044270,-0.000000
1.500000,-1.936590,-0.602602,-1.457333,0.853166,1.159993,-0.094588,0.703223,-0.165874,0.037272,0.363073,-1.356244,1.037476,0.382550,-0.490103,-3.576970,-0.016928,-0.071834,0.000000,-0.140123,-0.044554,0.000000
1.510000,-1.928023,-0.591011,-1.458277,0.860217,1.158266,-0.094164,0.706871,-0.179463,0.047467,0.366391,-1.361874,1.001268,0.285267,-0.628226,-3.728525,-0.018333,-0.072280,0.000000,-0.140910,-0.044715,0.000000
1.520000,-1.919386,-0.579437,-1.459216,0.867304,1.156403,-0.093640,0.710548,-0.193115,0.057287,0.368812,-1.368732,0.962346,0.194076,-0.750199,-3.988705,-0.019746,-0.072728,0.000000,-0.141802,-0.044759,0.000000
1.530000,-1.910677,-0.567883,-1.460149,0.874428,1.154404,-0.093019,0.714244,-0.206843,0.066712,0.370172,-1.377020,0.922900,0.077293,-0.907177,-3.895790,-0.021169,-0.073175,0.000000,-0.142824,-0.044686,0.000000
1.540000,-1.901897,-0.556349,-1.461076,0.881589,1.152266,-0.092307,0.717947,-0.220660,0.075745,0.370442,-1.386718,0.883178,-0.019124,-1.024501,-4.111273,-0.022603,-0.073621,0.000000,-0.143975,-0.044494,-0.000000
1.550000,-1.893045,-0.544838,-1.461995,0.888787,1.149990,-0.091506,0.721649,-0.234581,0.084368,0.369746,-1.397559,0.841283,-0.124849,-1.150268,-4.200371,-0.024049,-0.074065,0.000000,-0.145222,-0.044180,-0.000000
1.560000,-1.884121,-0.533350,-1.462906,0.896022,1.147574,-0.090621,0.725339,-0.248616,0.092570,0.367925,-1.409637,0.799209,-0.232607,-1.270415,-4.271471,-0.025508,-0.074505,0.000000,-0.146580,-0.043743,0.000000
1.570000,-1.875125,-0.521887,-1.463807,0.903294,1.145017,-0.089656,0.729005,-0.262778,0.100345,0.365154,-1.423006,0.755357,-0.328513,-1.396787,-4.438486,-0.026981,-0.074940,0.000000,-0.148049,-0.043189,-0.000000
1.580000,-1.866055,-0.510450,-1.464699,0.910602,1.142318,-0.088615,0.732638,-0.277079,0.107679,0.361209,-1.437431,0.711703,-0.460775,-1.487008,-4.288061,-0.028469,-0.075369,0.000000,-0.149609,-0.042509,-0.000000
1.590000,-1.856912,-0.499041,-1.465579,0.917946,1.139475,-0.087504,0.736225,-0.291530,0.114581,0.356074,-1.452844,0.668476,-0.559485,-1.600454,-4.413198,-0.029974,-0.075790,0.000000,-0.151255,-0.041702,0.000000
1.600000,-1.847696,-0.487661,-1.466448,0.925326,1.136487,-0.086325,0.739756,-0.306140,0.121043,0.349954,-1.469369,0.623988,-0.670696,-1.697374,-4.424464,-0.031495,-0.076203,0.000000,-0.152993,-0.040778,0.000000
1.610000,-1.838406,-0.476312,-1.467305,0.932741,1.133352,-0.085084,0.743220,-0.320920,0.127063,0.342658,-1.486698,0.579982,-0.781960,-1.785418,-4.420348,-0.033034,-0.076605,0.000000,-0.154797,-0.039729,-0.000000
1.620000,-1.829041,-0.464995,-1.468150,0.940190,1.130068,-0.083785,0.746606,-0.335878,0.132639,0.334375,-1.505221,0.535203,-0.880878,-1.900177,-4.488479,-0.034591,-0.076997,0.000000,-0.156703,-0.038566,0.000000
1.630000,-1.819602,-0.453711,-1.468981,0.947673,1.126634,-0.082433,0.749903,-0.351026,0.137770,0.324911,-1.524300,0.491193,-1.012060,-1.913677,-4.309970,-0.036168,-0.077377,0.000000,-0.158649,-0.037281,0.000000
1.640000,-1.810088,-0.442463,-1.469798,0.955188,1.123047,-0.081031,0.753100,-0.366366,0.142467,0.314264,-1.543827,0.448144,-1.110715,-2.008189,-4.342901,-0.037764,-0.077743,0.000000,-0.160626,-0.035875,0.000000
1.650000,-1.800498,-0.431251,-1.470601,0.962734,1.119306,-0.079585,0.756186,-0.381906,0.146731,0.302642,-1.564282,0.404755,-1.219312,-2.063308,-4.287565,-0.039381,-0.078094,0.000000,-0.162678,-0.034359,0.000000
1.660000,-1.790833,-0.420077,-1.471390,0.970311,1.115408,-0.078098,0.759149,-0.397652,0.150565,0.289962,-1.585000,0.362347,-1.324827,-2.107077,-4.220312,-0.041018,-0.078430,0.000000,-0.164740,-0.032737,-0.000000
1.670000,-1.781092,-0.408943,-1.472163,0.977917,1.111352,-0.076575,0.761981,-0.413609,0.153978,0.276072,-1.606653,0.320127,-1.444588,-2.194254,-4.194687,-0.042676,-0.078749,0.000000,-0.166880,-0.030985,-0.000000
1.680000,-1.771274,-0.397850,-1.472921,0.985550,1.107135,-0.075020,0.764668,-0.429785,0.156972,0.261252,-1.628274,0.279059,-1.518740,-2.127429,-4.016313,-0.044355,-0.079050,0.000000,-0.169001,-0.029143,-0.000000
1.690000,-1.761381,-0.386801,-1.473664,0.993210,1.102756,-0.073437,0.767203,-0.446174,0.159563,0.245537,-1.649724,0.239281,-1.632388,-2.188724,-3.965259,-0.046056,-0.079332,0.000000,-0.171090,-0.027213,0.000000
1.700000,-1.751410,-0.375796,-1.474390,1.000894,1.098211,-0.071830,0.769575,-0.462782,0.161759,0.228684,-1.671777,0.200018,-1.729240,-2.192384,-3.858585,-0.047777,-0.079595,0.000000,-0.173223,-0.025167,0.000000
1.710000,-1.741363,-0.364837,-1.475100,1.008601,1.093499,-0.070203,0.771774,-0.479608,0.163568,0.210974,-1.693500,0.162033,-1.822440,-2.183349,-3.745112,-0.049520,-0.079836,0.000000,-0.175308,-0.023039,0.000000
1.720000,-1.731238,-0.353926,-1.475794,1.016329,1.088618,-0.068560,0.773790,-0.496654,0.165003,0.192155,-1.715712,0.125055,-1.931274,-2.225189,-3.640667,-0.051283,-0.080056,0.000000,-0.177429,-0.020802,-0.000000
1.730000,-1.721036,-0.343065,-1.476471,1.024076,1.083565,-0.066904,0.775614,-0.513920,0.166074,0.172563,-1.737294,0.089424,-1.986165,-2.088309,-3.484207,-0.053068,-0.080252,0.000000,-0.179471,-0.018493,-0.000000
1.740000,-1.710756,-0.332256,-1.477132,1.031840,1.078339,-0.065240,0.777239,-0.531397,0.166796,0.152248,-1.758089,0.055215,-2.086024,-2.101322,-3.365542,-0.054873,-0.080426,0.000000,-0.181420,-0.016120,-0.000000
1.750000,-1.700399,-0.321499,-1.477776,1.039620,1.072937,-0.063569,0.778656,-0.549083,0.167182,0.130936,-1.779008,0.022210,-2.165760,-2.048221,-3.226458,-0.056697,-0.080575,0.000000,-0.183369,-0.013653,0.000000
1.760000,-1.689964,-0.310798,-1.478403,1.047413,1.067357,-0.061897,0.779856,-0.566974,0.167245,0.108966,-1.799002,-0.009392,-2.240563,-1.982155,-3.084654,-0.058540,-0.080699,0.000000,-0.185212,-0.011130,-0.000000
1.770000,-1.679451,-0.300153,-1.479014,1.055216,1.061597,-0.060226,0.780832,-0.585063,0.167000,0.086017,-1.818920,-0.039391,-2.335750,-1.967191,-2.922948,-0.060401,-0.080798,0.000000,-0.187038,-0.008518,-0.000000
1.780000,-1.668860,-0.289566,-1.479608,1.063029,1.055655,-0.058558,0.781574,-0.603348,0.166462,0.062533,-1.837629,-0.068017,-2.359962,-1.771595,-2.801976,-0.062280,-0.080870,0.000000,-0.188729,-0.005863,0.000000
1.790000,-1.658190,-0.279040,-1.480185,1.070847,1.049529,-0.056897,0.782081,-0.621811,0.165644,0.038576,-1.854970,-0.095253,-2.443545,-1.727511,-2.636425,-0.064175,-0.080915,0.000000,-0.190271,-0.003171,-0.000000
1.800000,-1.647443,-0.268576,-1.480746,1.078669,1.043218,-0.055246,0.782343,-0.640446,0.164562,0.013781,-1.871865,-0.120816,-2.501230,-1.616899,-2.483924,-0.066085,-0.080933,0.000000,-0.191761,-0.000409,-0.000000
1.810000,-1.636617,-0.258176,-1.481290,1.086493,1.036720,-0.053607,0.782355,-0.659243,0.163232,-0.011423,-1.887279,-0.145009,-2.553101,-1.494051,-2.332123,-0.068010,-0.080923,0.000000,-0.193092,0.002382,-0.000000
1.820000,-1.625713,-0.247842,-1.481818,1.094316,1.030033,-0.051982,0.782112,-0.678190,0.161669,-0.037399,-1.901985,-0.167251,-2.627212,-1.416300,-2.138050,-0.069947,-0.080885,0.000000,-0.194348,0.005234,-0.000000
1.830000,-1.614731,-0.237576,-1.482330,1.102135,1.023155,-0.050374,0.781606,-0.697277,0.159891,-0.063656,-1.914960,-0.188227,-2.622934,-1.176176,-2.057725,-0.071896,-0.080818,0.000000,-0.195421,0.008102,0.000000
1.840000,-1.603670,-0.227380,-1.482826,1.109947,1.016087,-0.048785,0.780838,-0.716483,0.157908,-0.090125,-1.926060,-0.207969,-2.684287,-1.071427,-1.868900,-0.073855,-0.080723,0.000000,-0.196296,0.010978,0.000000
1.850000,-1.592532,-0.217255,-1.483306,1.117750,1.008825,-0.047217,0.779802,-0.735795,0.155738,-0.117203,-1.936107,-0.225799,-2.716446,-0.906936,-1.718882,-0.075821,-0.080598,0.000000,-0.197065,0.013898,0.000000
1.860000,-1.581315,-0.207204,-1.483770,1.125542,1.001371,-0.045671,0.778494,-0.755198,0.153396,-0.144435,-1.944177,-0.242409,-2.742902,-0.731495,-1.572535,-0.077795,-0.080444,0.000000,-0.197629,0.016820,-0.000000
1.870000,-1.570021,-0.197229,-1.484219,1.133319,0.993721,-0.044149,0.776911,-0.774675,0.150897,-0.172172,-1.950945,-0.256973,-2.790187,-0.595321,-1.370691,-0.079774,-0.080260,0.000000,-0.198065,0.019773,-0.000000
1.880000,-1.558649,-0.187330,-1.484653,1.141079,0.985877,-0.042653,0.775050,-0.794209,0.148260,-0.199939,-1.955521,-0.270461,-2.761888,-0.317419,-1.328360,-0.081756,-0.080047,0.000000,-0.198275,0.022717,0.000000
1.890000,-1.547199,-0.177512,-1.485072,1.148819,0.977837,-0.041185,0.772912,-0.813777,0.145491,-0.227665,-1.957777,-0.282944,-2.796239,-0.157956,-1.138460,-0.083738,-0.079804,0.000000,-0.198248,0.025643,0.000000
1.900000,-1.535672,-0.167774,-1.485477,1.156537,0.969601,-0.039744,0.770495,-0.833360,0.142608,-0.255728,-1.958435,-0.293500,-2.802117,0.053305,-1.003506,-0.085720,-0.079532,0.000000,-0.198066,0.028585,0.000000
1.910000,-1.524069,-0.158120,-1.485867,1.164228,0.961170,-0.038333,0.767798,-0.852938,0.139624,-0.283692,-1.956718,-0.303055,-2.802494,0.273063,-0.874165,-0.087699,-0.079231,0.000000,-0.197644,0.031503,-0.000000
1.920000,-1.512388,-0.148552,-1.486244,1.171892,0.952543,-0.036952,0.764821,-0.872488,0.136554,-0.311876,-1.953116,-0.310686,-2.821286,0.466355,-0.685663,-0.089672,-0.078900,0.000000,-0.197042,0.034425,-0.000000
1.930000,-1.500631,-0.139070,-1.486606,1.179524,0.943720,-0.035602,0.761562,-0.891991,0.133413,-0.339845,-1.946996,-0.317472,-2.771290,0.759419,-0.673313,-0.091639,-0.078540,0.000000,-0.196186,0.037313,0.000000
1.940000,-1.488798,-0.129678,-1.486956,1.187122,0.934703,-0.034284,0.758025,-0.911419,0.130207,-0.367532,-1.938263,-0.323503,-2.777620,0.970284,-0.500506,-0.093595,-0.078151,0.000000,-0.195067,0.040162,0.000000
1.950000,-1.476889,-0.120377,-1.487292,1.194683,0.925492,-0.032998,0.754211,-0.930750,0.126950,-0.395277,-1.927418,-0.327779,-2.758346,1.217699,-0.388634,-0.095540,-0.077733,0.000000,-0.193749,0.042999,-0.000000
1.960000,-1.464904,-0.111169,-1.487616,1.202205,0.916088,-0.031745,0.750120,-0.949959,0.123653,-0.422694,-1.913938,-0.331299,-2.733730,1.470737,-0.283614,-0.097469,-0.077287,0.000000,-0.192168,0.045792,0.000000
1.970000,-1.452845,-0.102056,-1.487927,1.209685,0.906493,-0.030525,0.745757,-0.969021,0.120330,-0.450024,-1.898062,-0.333179,-2.722380,1.713474,-0.124049,-0.099382,-0.076813,0.000000,-0.190361,0.048560,0.000000
1.980000,-1.440711,-0.093039,-1.488227,1.217120,0.896709,-0.029338,0.741121,-0.987911,0.116992,-0.476932,-1.879483,-0.334444,-2.658048,2.003292,-0.130800,-0.101276,-0.076311,0.000000,-0.188286,0.051276,-0.000000
1.990000,-1.428502,-0.084122,-1.488514,1.224506,0.886736,-0.028185,0.736220,-1.006601,0.113642,-0.503358,-1.858145,-0.335189,-2.635799,2.256798,0.012037,-0.103147,-0.075782,0.000000,-0.185939,0.053936,0.000000
2.000000,-1.416221,-0.075305,-1.488790,1.231843,0.876577,-0.027065,0.731055,-1.025066,0.110293,-0.529553,-1.834265,-0.334486,-2.593245,2.527913,0.096770,-0.104994,-0.075227,0.000000,-0.183352,0.056558,-0.000000
2.010000,-1.403866,-0.066591,-1.489056,1.239127,0.866235,-0.025979,0.725631,-1.043277,0.106954,-0.555238,-1.807589,-0.333250,-2.546722,2.802404,0.175373,-0.106813,-0.074645,0.000000,-0.180491,0.059120,0.000000
2.020000,-1.391438,-0.057981,-1.489310,1.246355,0.855713,-0.024926,0.719951,-1.061209,0.103633,-0.580507,-1.778258,-0.330758,-2.502864,3.069477,0.297033,-0.108603,-0.074038,0.000000,-0.177381,0.061628,-0.000000
2.030000,-1.378939,-0.049477,-1.489554,1.253525,0.845012,-0.023906,0.714022,-1.078833,0.100340,-0.605208,-1.746081,-0.327853,-2.436692,3.366386,0.282360,-0.110360,-0.073405,0.000000,-0.173992,0.064073,-0.000000
2.040000,-1.366368,-0.041082,-1.489788,1.260634,0.834137,-0.022919,0.707849,-1.096121,0.097077,-0.629299,-1.711032,-0.324621,-2.384264,3.638462,0.388517,-0.112082,-0.072748,0.000000,-0.170323,0.066451,0.000000
2.050000,-1.353726,-0.032795,-1.490013,1.267681,0.823091,-0.021965,0.701438,-1.113044,0.093852,-0.652851,-1.673263,-0.320315,-2.322027,3.920722,0.446739,-0.113765,-0.072068,0.000000,-0.166399,0.068764,-0.000000
2.060000,-1.341015,-0.024620,-1.490228,1.274662,0.811878,-0.021042,0.694795,-1.129576,0.090671,-0.675728,-1.632587,-0.315665,-2.256462,4.204422,0.499813,-0.115409,-0.071364,0.000000,-0.162193,0.071005,0.000000
2.070000,-1.328233,-0.016558,-1.490434,1.281576,0.800501,-0.020151,0.687925,-1.145688,0.087541,-0.698011,-1.589268,-0.310170,-2.195255,4.469105,0.581197,-0.117008,-0.070639,0.000000,-0.157739,0.073178,-0.000000
2.080000,-1.315383,-0.008611,-1.490631,1.288420,0.788965,-0.019291,0.680837,-1.161352,0.084469,-0.719535,-1.542999,-0.304417,-2.108990,4.784956,0.568040,-0.118562,-0.069891,0.000000,-0.153000,0.075272,-0.000000
2.090000,-1.302465,-0.000779,-1.490820,1.295192,0.777275,-0.018462,0.673537,-1.176538,0.081454,-0.740264,-1.493773,-0.298476,-2.040576,5.050027,0.636972,-0.120068,-0.069123,0.000000,-0.147973,0.077283,-0.000000
2.100000,-1.289480,0.006934,-1.491000,1.301890,0.765436,-0.017662,0.666034,-1.191218,0.078502,-0.760302,-1.441919,-0.291844,-1.962189,5.330299,0.671892,-0.121521,-0.068334,0.000000,-0.142701,0.079218,0.000000
2.110000,-1.276428,0.014529,-1.491173,1.308512,0.753453,-0.016891,0.658336,-1.205370,0.075617,-0.779008,-1.387992,-0.285010,-1.871099,5.592541,0.703062,-0.122921,-0.067527,0.000000,-0.137232,0.081017,0.000000
2.120000,-1.263310,0.022003,-1.491338,1.315056,0.741331,-0.016149,0.650449,-1.218958,0.072803,-0.798568,-1.328809,-0.277714,-1.950865,6.109946,0.746928,-0.124264,-0.066701,0.000000,-0.131251,0.082900,-0.000000
2.130000,-1.250127,0.029355,-1.491496,1.321521,0.729076,-0.015435,0.642372,-1.231944,0.070063,-0.816135,-1.268605,-0.270264,-1.559354,5.926440,0.742179,-0.125546,-0.065857,0.000000,-0.125179,0.084581,-0.000000
2.140000,-1.236880,0.036584,-1.491647,1.327903,0.716694,-0.014748,0.634134,-1.244329,0.067398,-0.831569,-1.207585,-0.262708,-1.618035,6.412033,0.776978,-0.126767,-0.064997,0.000000,-0.119036,0.086045,-0.000000
2.150000,-1.223569,0.043688,-1.491791,1.334203,0.704191,-0.014087,0.625737,-1.256076,0.064810,-0.847726,-1.141516,-0.254802,-1.522859,6.667113,0.794440,-0.127925,-0.064122,0.000000,-0.112402,0.087582,0.000000
2.160000,-1.210196,0.050667,-1.491929,1.340418,0.691575,-0.013451,0.617181,-1.267147,0.062302,-0.863507,-1.072043,-0.246793,-1.453571,6.958616,0.808941,-0.129014,-0.063231,0.000000,-0.105438,0.089082,0.000000
2.170000,-1.196761,0.057520,-1.492060,1.346546,0.678851,-0.012841,0.608484,-1.277529,0.059875,-0.875144,-1.004823,-0.238613,-1.048269,6.745335,0.824625,-0.130035,-0.062327,0.000000,-0.098711,0.090163,-0.000000
2.180000,-1.183265,0.064244,-1.492186,1.352587,0.666026,-0.012254,0.599672,-1.287222,0.057530,-0.888137,-0.931678,-0.230352,-1.555877,7.891161,0.827187,-0.130986,-0.061412,0.000000,-0.091401,0.091382,0.000000
2.190000,-1.169709,0.070840,-1.492305,1.358539,0.653109,-0.011690,0.590714,-1.296140,0.055268,-0.902730,-0.852288,-0.222036,-1.186417,7.722788,0.837723,-0.131860,-0.060483,0.000000,-0.083476,0.092766,-0.000000
2.200000,-1.156095,0.077306,-1.492419,1.364401,0.640106,-0.011148,0.581634,-1.304279,0.053090,-0.913363,-0.775009,-0.213624,-1.115337,7.993966,0.842555,-0.132657,-0.059542,0.000000,-0.075773,0.093750,0.000000
2.210000,-1.142422,0.083642,-1.492528,1.370171,0.627026,-0.010628,0.572447,-1.311627,0.050996,-0.923689,-0.694277,-0.205154,-1.023782,8.231688,0.846322,-0.133375,-0.058591,0.000000,-0.067732,0.094706,-0.000000
2.220000,-1.128692,0.089846,-1.492632,1.375849,0.613876,-0.010128,0.563157,-1.318150,0.048987,-0.934517,-0.609664,-0.196746,-1.069800,8.611100,0.839622,-0.134010,-0.057631,0.000000,-0.059311,0.095715,0.000000
2.230000,-1.114905,0.095919,-1.492731,1.381434,0.600666,-0.009648,0.553763,-1.323817,0.047061,-0.943572,-0.523728,-0.188270,-0.738705,8.572022,0.855567,-0.134560,-0.056660,0.000000,-0.050766,0.096548,0.000000
2.240000,-1.101063,0.101859,-1.492825,1.386924,0.587403,-0.009186,0.544292,-1.328622,0.045221,-0.950743,-0.436679,-0.179732,-0.768077,8.914881,0.847295,-0.135025,-0.055683,0.000000,-0.042115,0.097193,-0.000000
2.250000,-1.087167,0.107667,-1.492915,1.392320,0.574096,-0.008743,0.534746,-1.332537,0.043466,-0.958313,-0.346139,-0.171290,-0.673503,9.112547,0.845721,-0.135401,-0.054698,0.000000,-0.033121,0.097882,0.000000
2.260000,-1.073217,0.113341,-1.493000,1.397619,0.560755,-0.008317,0.525134,-1.335546,0.041796,-0.963789,-0.255343,-0.162798,-0.567000,9.277411,0.844083,-0.135688,-0.053708,0.000000,-0.024106,0.098362,-0.000000
2.270000,-1.059215,0.118882,-1.493081,1.402822,0.547388,-0.007907,0.515462,-1.337620,0.040210,-0.970992,-0.158488,-0.154489,-0.732673,9.865745,0.825931,-0.135881,-0.052712,0.000000,-0.014488,0.099022,-0.000000
2.280000,-1.045161,0.124289,-1.493158,1.407928,0.534006,-0.007512,0.505725,-1.338721,0.038706,-0.975481,-0.062813,-0.146107,-0.160887,9.260251,0.850470,-0.135978,-0.051710,0.000000,-0.004991,0.099410,0.000000
2.290000,-1.031057,0.129562,-1.493231,1.412936,0.520617,-0.007132,0.495963,-1.338883,0.037288,-0.977072,0.031251,-0.137647,-0.300141,9.778787,0.833319,-0.135982,-0.050706,0.000000,0.004342,0.099509,-0.000000
2.300000,-1.016903,0.134701,-1.493301,1.417847,0.507232,-0.006766,0.486175,-1.338074,0.035953,-0.980283,0.130789,-0.129373,-0.200448,9.899555,0.829947,-0.135889,-0.049700,0.000000,0.014224,0.099775,0.000000
2.310000,-1.002700,0.139707,-1.493367,1.422660,0.493859,-0.006413,0.476359,-1.336261,0.034701,-0.982975,0.232104,-0.121046,-0.135711,10.057798,0.827085,-0.135697,-0.048692,0.000000,0.024282,0.099993,-0.000000
2.320000,-0.988450,0.144579,-1.493429,1.427374,0.480510,-0.006072,0.466534,-1.333451,0.033531,-0.981143,0.329111,-0.112909,0.304691,9.636399,0.808620,-0.135405,-0.047684,0.000000,0.033915,0.099758,0.000000
2.330000,-0.974153,0.149317,-1.493488,1.431991,0.467193,-0.005742,0.456729,-1.329661,0.032443,-0.981025,0.430983,-0.104702,-0.287868,10.745167,0.833025,-0.135017,-0.046678,0.000000,0.044034,0.099699,0.000000
2.340000,-0.959810,0.153923,-1.493544,1.436509,0.453920,-0.005423,0.446905,-1.324812,0.031437,-0.982929,0.538003,-0.096412,0.105180,10.358620,0.816707,-0.134523,-0.045671,0.000000,0.054671,0.099849,-0.000000
2.350000,-0.945423,0.158396,-1.493597,1.440929,0.440700,-0.005113,0.437088,-1.318920,0.030514,-0.980622,0.640634,-0.088292,0.158124,10.461908,0.815190,-0.133925,-0.044665,0.000000,0.064876,0.099576,0.000000
2.360000,-0.930992,0.162737,-1.493646,1.445251,0.427545,-0.004812,0.427292,-1.311994,0.029672,-0.978314,0.744541,-0.080097,0.229259,10.508798,0.814527,-0.133225,-0.043661,0.000000,0.075214,0.099307,-0.000000
2.370000,-0.916518,0.166947,-1.493693,1.449475,0.414464,-0.004519,0.417518,-1.304013,0.028911,-0.976724,0.852522,-0.072084,0.159730,10.898255,0.797273,-0.132419,-0.042660,0.000000,0.085969,0.099115,0.000000
2.380000,-0.902003,0.171026,-1.493737,1.453601,0.401468,-0.004234,0.407763,-1.294952,0.028231,-0.973626,0.958533,-0.063962,0.461746,10.295101,0.827503,-0.131506,-0.041662,0.000000,0.096533,0.098774,0.000000
2.390000,-0.887447,0.174976,-1.493778,1.457630,0.388569,-0.003954,0.398051,-1.284852,0.027632,-0.968948,1.062139,-0.055712,0.401056,10.611590,0.813496,-0.130489,-0.040668,0.000000,0.106865,0.098275,0.000000
2.400000,-0.872851,0.178798,-1.493816,1.461562,0.375775,-0.003681,0.388381,-1.273695,0.027116,-0.965002,1.169107,-0.047613,0.459555,10.591376,0.815435,-0.129367,-0.039679,0.000000,0.117545,0.097855,-0.000000
2.410000,-0.858216,0.182492,-1.493851,1.465398,0.363098,-0.003412,0.378755,-1.261479,0.026681,-0.960038,1.273914,-0.039385,0.512496,10.545917,0.819599,-0.128139,-0.038695,0.000000,0.128019,0.097334,-0.000000
2.420000,-0.843543,0.186060,-1.493884,1.469138,0.350549,-0.003147,0.369180,-1.248204,0.026327,-0.954946,1.381614,-0.031300,0.524507,10.817791,0.806558,-0.126805,-0.037716,0.000000,0.138798,0.096804,-0.000000
2.430000,-0.828833,0.189504,-1.493914,1.472782,0.338138,-0.002885,0.359659,-1.233857,0.026055,-0.949158,1.486574,-0.023058,0.632955,10.166196,0.842378,-0.125364,-0.036744,0.000000,0.149314,0.096206,0.000000
2.440000,-0.814088,0.192824,-1.493942,1.476331,0.325875,-0.002625,0.350199,-1.218484,0.025867,-0.942690,1.588394,-0.014634,0.640556,10.370451,0.833299,-0.123820,-0.035777,0.000000,0.159526,0.095542,-0.000000
2.450000,-0.799307,0.196022,-1.493967,1.479786,0.313771,-0.002367,0.340805,-1.202078,0.025762,-0.936196,1.692447,-0.006314,0.676593,10.263106,0.840532,-0.122173,-0.034818,0.000000,0.169980,0.094878,0.000000
2.460000,-0.784492,0.199100,-1.493989,1.483147,0.301837,-0.002110,0.331476,-1.184644,0.025741,-0.929514,1.794274,0.002180,0.701774,10.147769,0.849363,-0.120422,-0.033866,0.000000,0.180224,0.094197,0.000000
2.470000,-0.769644,0.202059,-1.494009,1.486416,0.290082,-0.001852,0.322218,-1.166193,0.025805,-0.921784,1.895798,0.010593,0.801851,10.108669,0.842177,-0.118568,-0.032921,0.000000,0.190455,0.093413,-0.000000
2.480000,-0.754764,0.204902,-1.494026,1.489592,0.278516,-0.001594,0.313039,-1.146734,0.025954,-0.914363,1.995437,0.019212,0.680145,9.815762,0.882050,-0.116613,-0.031984,0.000000,0.200512,0.092663,0.000000
2.490000,-0.739853,0.207630,-1.494041,1.492677,0.267151,-0.001333,0.303929,-1.126292,0.026190,-0.907360,2.093012,0.028058,0.761515,9.744280,0.878562,-0.114559,-0.031055,0.000000,0.210377,0.091956,-0.000000
2.500000,-0.724911,0.210246,-1.494053,1.495671,0.255994,-0.001069,0.294895,-1.104876,0.026515,-0.899505,2.189892,0.036860,0.766870,9.583669,0.890975,-0.112406,-0.030133,0.000000,0.220191,0.091165,-0.000000
2.510000,-0.709940,0.212751,-1.494062,1.498575,0.245056,-0.000802,0.285934,-1.082484,0.026928,-0.892920,2.288687,0.045884,0.747937,9.491949,0.904709,-0.110154,-0.029219,0.000000,0.230215,0.090505,-0.000000
2.520000,-0.694940,0.215148,-1.494069,1.501390,0.234347,-0.000531,0.277052,-1.059161,0.027432,-0.882735,2.373423,0.054872,1.095845,8.114529,0.901987,-0.107807,-0.028313,0.000000,0.238840,0.089482,0.000000
2.530000,-0.679912,0.217438,-1.494073,1.504116,0.223876,-0.000253,0.268269,-1.034988,0.028027,-0.875058,2.464822,0.064114,0.432993,10.183707,0.946705,-0.105374,-0.027418,0.000000,0.248153,0.088715,-0.000000
2.540000,-0.664858,0.219626,-1.494074,1.506755,0.213651,0.000030,0.259540,-1.009834,0.028715,-0.870187,2.563662,0.073628,0.735316,8.913635,0.947089,-0.102841,-0.026528,0.000000,0.258236,0.088234,0.000000
2.550000,-0.649777,0.221712,-1.494072,1.509307,0.203682,0.000321,0.250880,-0.983773,0.029499,-0.862007,2.648705,0.083134,0.706712,8.757120,0.963329,-0.100215,-0.025645,0.000000,0.266945,0.087419,0.000000
2.560000,-0.634672,0.223700,-1.494067,1.511773,0.193978,0.000621,0.242299,-0.956868,0.030379,-0.854005,2.731468,0.092918,0.710335,8.462691,0.980815,-0.097503,-0.024771,0.000000,0.275441,0.086623,-0.000000
2.570000,-0.619542,0.225593,-1.494060,1.514153,0.184548,0.000929,0.233785,-0.929099,0.031357,-0.849485,2.824058,0.102635,0.371443,9.400993,0.974853,-0.094702,-0.023903,0.000000,0.284952,0.086183,-0.000000
2.580000,-0.604389,0.227392,-1.494049,1.516449,0.175399,0.001248,0.225318,-0.900428,0.032433,-0.842844,2.905751,0.112674,0.962405,6.913779,1.033465,-0.091808,-0.023040,0.000000,0.293377,0.085529,-0.000000
2.590000,-0.589213,0.229102,-1.494035,1.518660,0.166541,0.001578,0.216938,-0.871029,0.033612,-0.833833,2.975434,0.123055,0.660494,7.676671,1.030204,-0.088839,-0.022186,0.000000,0.300600,0.084634,-0.000000
2.600000,-0.574016,0.230724,-1.494017,1.520788,0.157981,0.001921,0.208627,-0.840879,0.034894,-0.828110,3.053641,0.133384,0.662956,7.306554,1.047924,-0.085792,-0.021339,0.000000,0.308707,0.084076,-0.000000
2.610000,-0.558798,0.232262,-1.493996,1.522833,0.149726,0.002276,0.200382,-0.809991,0.036281,-0.820880,3.123160,0.144020,0.666810,6.924473,1.065962,-0.082668,-0.020499,0.000000,0.315947,0.083366,-0.000000
2.620000,-0.543560,0.233720,-1.493972,1.524796,0.141784,0.002647,0.192200,-0.778402,0.037774,-0.815845,3.195117,0.154581,0.452775,7.144514,1.058898,-0.079471,-0.019665,0.000000,0.323454,0.082880,0.000000
2.630000,-0.528302,0.235099,-1.493943,1.526677,0.134161,0.003032,0.184070,-0.746117,0.039373,-0.809459,3.259285,0.165463,0.827718,5.677346,1.117886,-0.076202,-0.018837,0.000000,0.330184,0.082258,0.000000
2.640000,-0.513026,0.236404,-1.493911,1.528477,0.126863,0.003434,0.176017,-0.713247,0.041084,-0.801578,3.315109,0.176678,0.634276,5.809167,1.111913,-0.072871,-0.018016,0.000000,0.336079,0.081485,0.000000
2.650000,-0.497733,0.237638,-1.493875,1.530198,0.119898,0.003854,0.168030,-0.679803,0.042906,-0.795814,3.372700,0.187808,0.631615,5.385988,1.126880,-0.069479,-0.017202,0.000000,0.342169,0.080929,-0.000000
2.660000,-0.482423,0.238803,-1.493834,1.531838,0.113269,0.004293,0.160098,-0.645796,0.044841,-0.790677,3.428548,0.199181,0.596796,5.058717,1.139728,-0.066028,-0.016393,0.000000,0.348095,0.080437,0.000000
2.670000,-0.467097,0.239904,-1.493789,1.533400,0.106983,0.004751,0.152232,-0.611302,0.046890,-0.782032,3.467197,0.210510,0.936188,3.372955,1.134461,-0.062524,-0.015591,0.000000,0.352281,0.079589,-0.000000
2.680000,-0.451755,0.240944,-1.493739,1.534883,0.101044,0.005231,0.144447,-0.576431,0.049052,-0.776068,3.510741,0.222049,0.250342,5.356872,1.173357,-0.058980,-0.014797,0.000000,0.356976,0.079016,0.000000
2.690000,-0.436399,0.241926,-1.493684,1.536289,0.095456,0.005733,0.136699,-0.541062,0.051331,-0.773075,3.560100,0.233791,0.545356,3.804308,1.165701,-0.055382,-0.014007,0.000000,0.362275,0.078747,0.000000
2.700000,-0.421030,0.242854,-1.493624,1.537617,0.090224,0.006258,0.129000,-0.505297,0.053728,-0.766842,3.592825,0.245434,0.504313,3.446448,1.170998,-0.051741,-0.013221,0.000000,0.365888,0.078149,-0.000000
2.710000,-0.405647,0.243732,-1.493559,1.538869,0.085352,0.006808,0.121355,-0.469223,0.056241,-0.762324,3.620527,0.257204,0.467741,2.940894,1.173777,-0.048066,-0.012441,0.000000,0.368995,0.077727,-0.000000
2.720000,-0.390252,0.244562,-1.493488,1.540045,0.080841,0.007383,0.113758,-0.432834,0.058871,-0.756857,3.659424,0.268821,0.559433,4.014506,1.157437,-0.044356,-0.011666,0.000000,0.373258,0.077209,-0.000000
2.730000,-0.374846,0.245350,-1.493411,1.541144,0.076696,0.007986,0.106213,-0.396090,0.061617,-0.752527,3.683520,0.280516,0.304674,0.778609,1.181386,-0.040607,-0.010895,0.000000,0.376013,0.076809,0.000000
2.740000,-0.359430,0.246098,-1.493328,1.542169,0.072919,0.008616,0.098703,-0.359223,0.064482,-0.749413,3.691645,0.292267,0.385606,1.677389,1.159635,-0.036842,-0.010128,0.000000,0.377139,0.076535,-0.000000
2.750000,-0.344003,0.246809,-1.493238,1.543119,0.069512,0.009276,0.091229,-0.322209,0.067462,-0.745377,3.710020,0.303773,0.355482,1.170041,1.148633,-0.033059,-0.009364,0.000000,0.379320,0.076167,-0.000000
2.760000,-0.328568,0.247489,-1.493142,1.543994,0.066476,0.009966,0.083799,-0.285039,0.070557,-0.740510,3.723792,0.315147,0.361497,0.807612,1.131872,-0.029257,-0.008604,0.000000,0.381035,0.075716,0.000000
2.770000,-0.313124,0.248140,-1.493039,1.544795,0.063812,0.010687,0.076398,-0.247808,0.073765,-0.740499,3.719038,0.326454,-0.109467,-1.002493,1.122652,-0.025446,-0.007847,0.000000,0.380852,0.075764,0.000000
2.780000,-0.297672,0.248767,-1.492928,1.545522,0.061519,0.011441,0.069001,-0.210635,0.077085,-0.737456,3.719610,0.337451,0.726203,1.141484,1.075700,-0.021638,-0.007089,0.000000,0.381218,0.075502,0.000000
2.790000,-0.282213,0.249372,-1.492810,1.546175,0.059599,0.012229,0.061663,-0.173389,0.080512,-0.731009,3.726619,0.348078,0.312056,-0.500861,1.055088,-0.017819,-0.006338,0.000000,0.382248,0.074892,-0.000000
2.800000,-0.266749,0.249960,-1.492684,1.546755,0.058052,0.013052,0.054361,-0.136174,0.084046,-0.729073,3.716079,0.358486,0.326340,-0.846806,1.018718,-0.014000,-0.005589,0.000000,0.381476,0.074746,0.000000
2.810000,-0.251279,0.250534,-1.492549,1.547262,0.056875,0.013910,0.047087,-0.099063,0.087680,-0.725897,3.705523,0.368376,0.324117,-1.240496,0.975025,-0.010189,-0.004843,0.000000,0.380702,0.074474,0.000000
2.820000,-0.235804,0.251099,-1.492405,1.547697,0.056070,0.014806,0.039845,-0.062075,0.091413,-0.722449,3.691491,0.378122,0.350740,-1.588221,0.956927,-0.006387,-0.004100,0.000000,0.379569,0.074175,0.000000
2.830000,-0.220325,0.251657,-1.492253,1.548059,0.055633,0.015739,0.032637,-0.025247,0.095240,-0.719189,3.673290,0.387151,0.300899,-2.052613,0.847378,-0.002599,-0.003359,0.000000,0.378005,0.073896,0.000000
2.840000,-0.204843,0.252212,-1.492091,1.548350,0.055564,0.016711,0.025460,0.011377,0.099153,-0.716136,3.650900,0.395379,0.324381,-2.402274,0.813557,0.001172,-0.002622,0.000000,0.376007,0.073639,0.000000
