time,x,y,z,vx,vy,vz,ax,ay,az,jx,jy,jz,sx,sy,sz,roll,pitch,yaw,p,q,r
0.000000,-2.167185,-2.164953,-1.461608,-0.008510,-0.000014,-0.001550,0.071643,-0.147084,-0.017510,2.303083,-5.356494,-0.567305,-107.404654,189.242794,27.027515,-0.014965,-0.007290,0.000000,-0.544025,-0.233891,0.000000
0.010000,-2.167270,-2.164953,-1.461623,-0.007793,-0.001485,-0.001725,0.094673,-0.200649,-0.023183,1.229036,-3.464066,-0.297030,-199.973662,408.271062,51.262594,-0.020401,-0.009628,0.000000,-0.351480,-0.124660,0.000000
0.020000,-2.167341,-2.164982,-1.461642,-0.006616,-0.004027,-0.002013,0.096223,-0.216365,-0.023451,-1.696390,2.808927,0.457947,-204.789331,515.585056,55.688698,-0.021998,-0.009785,0.000000,0.284437,0.171998,-0.000000
0.030000,-2.167403,-2.165033,-1.461664,-0.005869,-0.005812,-0.002194,0.060746,-0.144470,-0.014025,-2.866750,6.847635,0.816744,3.251361,171.343786,6.530732,-0.014704,-0.006183,0.000000,0.695617,0.291253,-0.000000
0.040000,-2.167458,-2.165098,-1.461686,-0.005401,-0.006916,-0.002294,0.038888,-0.079412,-0.007116,-1.631363,6.235803,0.588561,111.662294,-54.464730,-20.598201,-0.008089,-0.003961,0.000000,0.634660,0.165930,0.000000
0.050000,-2.167511,-2.165172,-1.461709,-0.005091,-0.007400,-0.002336,0.028118,-0.019754,-0.002253,-0.633504,5.758340,0.404780,89.437644,-41.938991,-16.434357,-0.002013,-0.002866,0.000000,0.586764,0.064444,-0.000000
0.060000,-2.167560,-2.165246,-1.461733,-0.004839,-0.007311,-0.002339,0.026218,0.035754,0.000979,0.157390,5.397023,0.259874,70.170091,-31.178853,-12.805394,0.003645,-0.002673,0.000000,0.550297,-0.016116,-0.000000
0.070000,-2.167607,-2.165318,-1.461756,-0.004567,-0.006685,-0.002317,0.031266,0.088186,0.002944,0.769897,5.134763,0.148672,53.661056,-22.070656,-9.676025,0.008992,-0.003188,0.000000,0.523668,-0.078549,0.000000
0.080000,-2.167652,-2.165380,-1.461779,-0.004214,-0.005547,-0.002280,0.041616,0.138450,0.003953,1.230611,4.955610,0.066354,39.711944,-14.500752,-7.010996,0.014118,-0.004244,0.000000,0.505345,-0.125509,0.000000
0.090000,-2.167692,-2.165429,-1.461802,-0.003734,-0.003916,-0.002238,0.055878,0.187299,0.004271,1.564136,4.844748,0.008452,28.124186,-8.355486,-4.775009,0.019098,-0.005698,0.000000,0.493884,-0.159483,-0.000000
0.100000,-2.167726,-2.165459,-1.461824,-0.003096,-0.001801,-0.002195,0.072899,0.235345,0.004122,1.793095,4.788500,-0.029146,18.699221,-3.521201,-2.932755,0.023995,-0.007434,0.000000,0.487931,-0.182774,-0.000000
0.110000,-2.167754,-2.165465,-1.461846,-0.002276,0.000791,-0.002155,0.091740,0.283069,0.003688,1.938121,4.774324,-0.050203,11.238451,0.115769,-1.448984,0.028857,-0.009355,0.000000,0.486235,-0.197493,0.000000
0.120000,-2.167772,-2.165443,-1.461867,-0.001261,0.003860,-0.002121,0.111661,0.330831,0.003118,2.017864,4.790816,-0.058126,5.543278,2.669039,-0.288400,0.033720,-0.011386,0.000000,0.487650,-0.205549,-0.000000
0.130000,-2.167779,-2.165388,-1.461888,-0.000043,0.007407,-0.002093,0.132098,0.378885,0.002526,2.048986,4.827705,-0.055971,1.415139,4.252276,0.584296,0.038610,-0.013468,0.000000,0.491141,-0.208651,-0.000000
0.140000,-2.167773,-2.165295,-1.461909,0.001381,0.011438,-0.002070,0.152641,0.427385,0.001999,2.046166,4.875861,-0.046440,-1.344498,4.979261,1.204318,0.043542,-0.015562,0.000000,0.495782,-0.208300,0.000000
0.150000,-2.167751,-2.165159,-1.461930,0.003010,0.015955,-0.002053,0.173021,0.476402,0.001597,2.022096,4.927290,-0.031885,-2.934258,4.963541,1.606996,0.048525,-0.017638,0.000000,0.500760,-0.205796,0.000000
0.160000,-2.167712,-2.164975,-1.461950,0.004841,0.020966,-0.002038,0.193083,0.525931,0.001361,1.987481,4.975132,-0.014300,-3.552773,4.318627,1.827697,0.053558,-0.019682,0.000000,0.505377,-0.202228,-0.000000
0.170000,-2.167654,-2.164739,-1.461970,0.006871,0.026474,-0.002026,0.212770,0.575905,0.001311,1.951041,5.013663,0.004669,-3.429610,3.172147,1.907282,0.058633,-0.021689,0.000000,0.509046,-0.198485,0.000000
0.180000,-2.167575,-2.164446,-1.461990,0.009097,0.032484,-0.002012,0.232104,0.626204,0.001454,1.918889,5.038575,0.023845,-3.306054,1.878546,1.980230,0.063738,-0.023659,0.000000,0.511325,-0.195185,0.000000
0.190000,-2.167472,-2.164090,-1.462011,0.011514,0.038998,-0.001997,0.251148,0.676676,0.001788,1.884920,5.051234,0.044274,-3.193064,0.468094,2.047585,0.068859,-0.025600,0.000000,0.512367,-0.191712,0.000000
0.200000,-2.167345,-2.163666,-1.462030,0.014120,0.046017,-0.001977,0.269802,0.727229,0.002340,1.855028,5.047937,0.064797,0.715536,-2.721975,1.412442,0.073986,-0.027502,0.000000,0.511791,-0.188662,-0.000000
0.210000,-2.167190,-2.163169,-1.462050,0.016910,0.053542,-0.001950,0.288249,0.777635,0.003084,1.899231,4.996794,0.072523,7.792094,-7.387653,0.188519,0.079095,-0.029384,0.000000,0.506252,-0.193107,0.000000
0.220000,-2.167006,-2.162595,-1.462069,0.019885,0.061570,-0.001915,0.307787,0.827165,0.003790,2.010870,4.900184,0.068568,6.354663,-8.318393,0.510400,0.084111,-0.031377,0.000000,0.495978,-0.204353,-0.000000
0.230000,-2.166792,-2.161938,-1.462088,0.023065,0.070086,-0.001874,0.328466,0.875639,0.004455,2.026324,4.830426,0.082731,-4.009763,-5.252579,2.449421,0.089014,-0.033485,0.000000,0.488589,-0.205883,-0.000000
0.240000,-2.166545,-2.161193,-1.462107,0.026454,0.079083,-0.001826,0.348313,0.923773,0.005445,1.930674,4.795132,0.117556,-7.555579,-5.167489,3.126933,0.093883,-0.035511,0.000000,0.484934,-0.196225,-0.000000
0.250000,-2.166263,-2.160356,-1.462125,0.030032,0.088561,-0.001765,0.367080,0.971541,0.006806,1.875212,4.727077,0.145269,-2.759329,-9.103072,2.286492,0.098713,-0.037427,0.000000,0.477930,-0.190640,0.000000
0.260000,-2.165945,-2.159422,-1.462142,0.033796,0.098514,-0.001690,0.385818,1.018315,0.008350,1.875488,4.613071,0.163286,-0.408852,-12.206616,1.896891,0.103441,-0.039342,0.000000,0.466200,-0.190678,-0.000000
0.270000,-2.165587,-2.158386,-1.462159,0.037748,0.108928,-0.001598,0.404589,1.063803,0.010072,1.867035,4.482944,0.183207,-1.656139,-12.822950,2.101525,0.108037,-0.041262,0.000000,0.452902,-0.189848,-0.000000
0.280000,-2.165190,-2.157244,-1.462174,0.041887,0.119790,-0.001488,0.423158,1.107974,0.012014,1.842365,4.356612,0.205316,-2.768924,-12.541423,2.216339,0.112499,-0.043161,0.000000,0.440060,-0.187396,-0.000000
0.290000,-2.164750,-2.155990,-1.462188,0.046211,0.131087,-0.001358,0.441437,1.150935,0.014178,1.811657,4.232116,0.227534,-3.188080,-13.142862,2.229870,0.116839,-0.045033,0.000000,0.427451,-0.184346,-0.000000
0.300000,-2.164265,-2.154622,-1.462201,0.050716,0.142808,-0.001205,0.459391,1.192616,0.016565,1.778603,4.093754,0.249914,-3.492199,-14.658899,2.252765,0.121049,-0.046874,0.000000,0.413496,-0.181073,-0.000000
0.310000,-2.163735,-2.153134,-1.462213,0.055399,0.154939,-0.001026,0.477009,1.232810,0.019177,1.741813,3.938938,0.272589,-3.912836,-15.915161,2.265659,0.125109,-0.048681,0.000000,0.397944,-0.177437,0.000000
0.320000,-2.163157,-2.151523,-1.462222,0.060256,0.167464,-0.000821,0.494228,1.271395,0.022017,1.700347,3.775451,0.295227,-4.156165,-16.503927,2.219746,0.129008,-0.050450,0.000000,0.381578,-0.173343,0.000000
0.330000,-2.162530,-2.149785,-1.462229,0.065283,0.180367,-0.000586,0.511016,1.308319,0.025081,1.658689,3.608859,0.316984,-4.130337,-16.810378,2.118449,0.132741,-0.052177,0.000000,0.364945,-0.169239,0.000000
0.340000,-2.161852,-2.147916,-1.462234,0.070477,0.193631,-0.000319,0.527401,1.343572,0.028356,1.617740,3.439244,0.337596,-4.250934,-17.282299,2.025704,0.136307,-0.053865,0.000000,0.348045,-0.165215,0.000000
0.350000,-2.161121,-2.145912,-1.462235,0.075832,0.207239,-0.000019,0.543371,1.377104,0.031833,1.573671,3.263213,0.357498,-4.599634,-17.918204,1.963798,0.139702,-0.055513,0.000000,0.330546,-0.160884,-0.000000
0.360000,-2.160335,-2.143771,-1.462234,0.081344,0.221173,0.000317,0.558875,1.408836,0.035506,1.525747,3.080880,0.376872,-4.885223,-18.428060,1.887541,0.142918,-0.057115,0.000000,0.312462,-0.156175,0.000000
0.370000,-2.159494,-2.141489,-1.462229,0.087009,0.235415,0.000691,0.573886,1.438721,0.039371,1.475966,2.894652,0.395249,-4.985465,-18.754948,1.742041,0.145951,-0.058668,0.000000,0.294024,-0.151284,0.000000
0.380000,-2.158595,-2.139063,-1.462220,0.092822,0.249947,0.001105,0.588394,1.466729,0.043411,1.426038,2.705781,0.411713,-4.996209,-19.000232,1.539114,0.148798,-0.060173,0.000000,0.275338,-0.146379,0.000000
0.390000,-2.157637,-2.136490,-1.462207,0.098777,0.264750,0.001559,0.602406,1.492837,0.047605,1.376042,2.514647,0.426031,-5.057725,-19.219831,1.350875,0.151458,-0.061629,0.000000,0.256435,-0.141463,0.000000
0.400000,-2.156619,-2.133768,-1.462189,0.104870,0.279804,0.002057,0.615915,1.517022,0.051932,1.324884,2.321384,0.438730,-5.175346,-19.401877,1.196727,0.153927,-0.063035,0.000000,0.237332,-0.136429,-0.000000
0.410000,-2.155540,-2.130894,-1.462166,0.111095,0.295090,0.002598,0.628904,1.539265,0.056379,1.272535,2.126610,0.449966,-5.257608,-19.516435,1.027913,0.156205,-0.064390,0.000000,0.218088,-0.131272,-0.000000
0.420000,-2.154397,-2.127866,-1.462137,0.117448,0.310589,0.003184,0.641366,1.559554,0.060931,1.219731,1.931055,0.459288,-5.281027,-19.578647,0.799872,0.158289,-0.065693,0.000000,0.198764,-0.126063,-0.000000
0.430000,-2.153191,-2.124682,-1.462102,0.123922,0.326282,0.003817,0.653299,1.577886,0.065565,1.166915,1.735037,0.465963,-5.277786,-19.603337,0.528035,0.160180,-0.066943,0.000000,0.179373,-0.120841,-0.000000
0.440000,-2.151919,-2.121340,-1.462061,0.130514,0.342147,0.004496,0.664704,1.594255,0.070251,1.114176,1.538989,0.469849,-5.273789,-19.572444,0.271597,0.161877,-0.068141,0.000000,0.159951,-0.115610,-0.000000
0.450000,-2.150581,-2.117839,-1.462012,0.137217,0.358167,0.005222,0.675582,1.608666,0.074962,1.061439,1.343588,0.471395,-5.266612,-19.479367,0.042538,0.163379,-0.069286,0.000000,0.140567,-0.110365,-0.000000
0.460000,-2.149175,-2.114177,-1.461956,0.144025,0.374320,0.005995,0.685933,1.621127,0.079679,1.008843,1.149401,0.470700,-5.241738,-19.341279,-0.197277,0.164688,-0.070378,0.000000,0.121275,-0.105119,0.000000
0.470000,-2.147700,-2.110353,-1.461892,0.150935,0.390589,0.006815,0.695759,1.631654,0.084376,0.956604,0.956763,0.467450,-5.203118,-19.177677,-0.471667,0.165805,-0.071417,0.000000,0.102096,-0.099890,-0.000000
0.480000,-2.146156,-2.106365,-1.461820,0.157941,0.406954,0.007682,0.705065,1.640262,0.089028,0.904781,0.765848,0.461266,-5.157894,-18.986732,-0.766269,0.166730,-0.072403,0.000000,0.083038,-0.094680,-0.000000
0.490000,-2.144541,-2.102214,-1.461739,0.165037,0.423394,0.008596,0.713855,1.646971,0.093601,0.853446,0.577028,0.452124,-5.101777,-18.748297,-1.048355,0.167465,-0.073337,0.000000,0.064134,-0.089495,-0.000000
0.500000,-2.142855,-2.097897,-1.461648,0.172218,0.439893,0.009554,0.722134,1.651803,0.098070,0.802745,0.390882,0.440299,-5.031037,-18.459769,-1.315307,0.168013,-0.074219,0.000000,0.045440,-0.084349,-0.000000
0.510000,-2.141097,-2.093416,-1.461548,0.179479,0.456430,0.010557,0.729909,1.654788,0.102407,0.752825,0.207833,0.425818,-4.950972,-18.138543,-1.586024,0.168374,-0.075048,0.000000,0.026998,-0.079257,0.000000
0.520000,-2.139266,-2.088769,-1.461437,0.186816,0.472989,0.011603,0.737190,1.655959,0.106586,0.703726,0.028111,0.408579,-4.873358,-17.797698,-1.860025,0.168552,-0.075827,0.000000,0.008825,-0.074221,-0.000000
0.530000,-2.137361,-2.083956,-1.461315,0.194223,0.489550,0.012689,0.743984,1.655350,0.110579,0.655358,-0.148121,0.388618,-4.798792,-17.434639,-2.127431,0.168551,-0.076554,0.000000,-0.009063,-0.069232,0.000000
0.540000,-2.135381,-2.078978,-1.461183,0.201696,0.506096,0.013814,0.750297,1.652997,0.114359,0.607750,-0.320582,0.366030,-4.713813,-17.037566,-2.386844,0.168371,-0.077231,0.000000,-0.026637,-0.064292,0.000000
0.550000,-2.133327,-2.073834,-1.461039,0.209229,0.522610,0.014976,0.756139,1.648939,0.117900,0.561082,-0.488873,0.340881,-4.613533,-16.605794,-2.644609,0.168018,-0.077858,0.000000,-0.043858,-0.059419,0.000000
0.560000,-2.131197,-2.068525,-1.460884,0.216818,0.539074,0.016172,0.761519,1.643220,0.121176,0.515480,-0.652698,0.313138,-4.509040,-16.150609,-2.897887,0.167494,-0.078436,0.000000,-0.060696,-0.054626,-0.000000
0.570000,-2.128990,-2.063053,-1.460716,0.224459,0.555474,0.017400,0.766449,1.635885,0.124162,0.470901,-0.811885,0.282923,-4.415738,-15.680752,-3.124260,0.166804,-0.078966,0.000000,-0.077130,-0.049910,0.000000
0.580000,-2.126707,-2.057416,-1.460536,0.232147,0.571792,0.018655,0.770937,1.626982,0.126835,0.427165,-0.966313,0.250653,-4.332229,-15.195407,-3.320042,0.165951,-0.079449,0.000000,-0.093142,-0.045254,0.000000
0.590000,-2.124347,-2.051617,-1.460343,0.239878,0.588014,0.019936,0.774992,1.616559,0.129175,0.384257,-1.115793,0.216522,-4.240068,-14.687803,-3.512497,0.164941,-0.079884,0.000000,-0.108705,-0.040659,-0.000000
0.600000,-2.121910,-2.045656,-1.460137,0.247647,0.604123,0.021239,0.778622,1.604666,0.131165,0.342363,-1.260069,0.180403,-4.133278,-14.157249,-3.714777,0.163777,-0.080273,0.000000,-0.123795,-0.036144,-0.000000
0.610000,-2.119394,-2.039534,-1.459918,0.255451,0.620107,0.022560,0.781839,1.591357,0.132784,0.301591,-1.398938,0.142227,-4.025981,-13.611523,-3.904860,0.162465,-0.080617,0.000000,-0.138389,-0.031719,0.000000
0.620000,-2.116801,-2.033254,-1.459686,0.263284,0.635950,0.023895,0.784654,1.576687,0.134010,0.261844,-1.532299,0.102306,-3.935588,-13.059253,-4.045019,0.161009,-0.080916,0.000000,-0.152469,-0.027377,0.000000
0.630000,-2.114129,-2.026815,-1.459440,0.271144,0.651641,0.025240,0.787076,1.560711,0.134830,0.222879,-1.660123,0.061326,-3.859444,-12.500858,-4.137928,0.159416,-0.081171,0.000000,-0.166016,-0.023100,-0.000000
0.640000,-2.111378,-2.020221,-1.459181,0.279026,0.667165,0.026591,0.789112,1.543485,0.135236,0.184655,-1.782316,0.019547,-3.776021,-11.929083,-4.231222,0.157689,-0.081384,0.000000,-0.179014,-0.018887,-0.000000
0.650000,-2.108548,-2.013472,-1.458908,0.286926,0.682510,0.027945,0.790769,1.525065,0.135221,0.147359,-1.898705,-0.023298,-3.678696,-11.341643,-4.341727,0.155835,-0.081554,0.000000,-0.191445,-0.014754,-0.000000
0.660000,-2.105639,-2.006571,-1.458622,0.294841,0.697666,0.029296,0.792059,1.505511,0.134770,0.111081,-2.009149,-0.067287,-3.583245,-10.746575,-4.434566,0.153860,-0.081682,0.000000,-0.203293,-0.010711,0.000000
0.670000,-2.102651,-1.999519,-1.458322,0.302767,0.712621,0.030640,0.792991,1.484882,0.133875,0.075694,-2.113636,-0.111989,-3.507628,-10.156079,-4.465231,0.151769,-0.081771,0.000000,-0.214545,-0.006750,0.000000
0.680000,-2.099584,-1.992318,-1.458009,0.310701,0.727364,0.031973,0.793573,1.463238,0.132531,0.040928,-2.212271,-0.156592,-3.448157,-9.570700,-4.441519,0.149569,-0.081819,0.000000,-0.225195,-0.002851,-0.000000
0.690000,-2.096437,-1.984971,-1.457683,0.318638,0.741885,0.033291,0.793809,1.440637,0.130743,0.006731,-2.305050,-0.200820,-3.382193,-8.977952,-4.420578,0.147266,-0.081828,0.000000,-0.235236,0.000989,0.000000
0.700000,-2.093211,-1.977480,-1.457343,0.326577,0.756176,0.034588,0.793707,1.417137,0.128514,-0.026715,-2.391830,-0.245004,-3.303306,-8.373222,-4.419488,0.144865,-0.081799,0.000000,-0.244653,0.004752,0.000000
0.710000,-2.089906,-1.969848,-1.456991,0.334513,0.770228,0.035861,0.793275,1.392800,0.125843,-0.059335,-2.472515,-0.289209,-3.227434,-7.767964,-4.398274,0.142373,-0.081732,0.000000,-0.253437,0.008430,-0.000000
0.720000,-2.086521,-1.962076,-1.456626,0.342442,0.784032,0.037105,0.792521,1.367687,0.122730,-0.091264,-2.547189,-0.332969,-3.171145,-7.179368,-4.314443,0.139796,-0.081629,0.000000,-0.261584,0.012033,0.000000
0.730000,-2.083057,-1.954167,-1.456249,0.350363,0.797582,0.038315,0.791450,1.341856,0.119184,-0.122758,-2.616102,-0.375498,-3.130212,-6.606880,-4.178946,0.137141,-0.081489,0.000000,-0.269106,0.015579,-0.000000
0.740000,-2.079514,-1.946124,-1.455860,0.358271,0.810870,0.039488,0.790065,1.315365,0.115220,-0.153868,-2.679327,-0.416548,-3.083270,-6.030974,-4.047168,0.134414,-0.081314,0.000000,-0.276006,0.019071,-0.000000
0.750000,-2.075892,-1.937950,-1.455459,0.366164,0.823889,0.040620,0.788372,1.288270,0.110853,-0.184424,-2.736722,-0.456442,-3.024712,-5.444949,-3.933478,0.131621,-0.081104,0.000000,-0.282272,0.022493,-0.000000
0.760000,-2.072191,-1.929646,-1.455047,0.374039,0.836635,0.041706,0.786377,1.260630,0.106091,-0.214363,-2.788226,-0.495218,-2.969118,-4.864701,-3.800544,0.128769,-0.080860,0.000000,-0.287899,0.025839,-0.000000
0.770000,-2.068411,-1.921217,-1.454625,0.381892,0.849102,0.042742,0.784085,1.232505,0.100948,-0.243806,-2.834016,-0.532453,-2.929902,-4.311559,-3.615018,0.125863,-0.080583,0.000000,-0.292897,0.029116,0.000000
0.780000,-2.064553,-1.912664,-1.454193,0.389721,0.861285,0.043724,0.781501,1.203950,0.095442,-0.272961,-2.874457,-0.567518,-2.902573,-3.783299,-3.388709,0.122911,-0.080273,0.000000,-0.297295,0.032341,-0.000000
0.790000,-2.060616,-1.903991,-1.453751,0.397522,0.873181,0.044650,0.778626,1.175016,0.089598,-0.301857,-2.909682,-0.600227,-2.869525,-3.254438,-3.165925,0.119917,-0.079932,0.000000,-0.301105,0.035514,0.000000
0.800000,-2.056602,-1.895201,-1.453300,0.405293,0.884785,0.045516,0.775464,1.145756,0.083438,-0.330351,-2.939546,-0.630836,-2.827129,-2.717089,-2.956271,0.116889,-0.079558,0.000000,-0.304318,0.038622,-0.000000
0.810000,-2.052511,-1.886296,-1.452840,0.413031,0.896096,0.046319,0.772019,1.116225,0.076981,-0.358400,-2.964023,-0.659352,-2.786866,-2.190655,-2.731234,0.113831,-0.079154,0.000000,-0.306932,0.041661,0.000000
0.820000,-2.048342,-1.877279,-1.452373,0.420733,0.907110,0.047056,0.768296,1.086476,0.070251,-0.386088,-2.983359,-0.685461,-2.756428,-1.698092,-2.471085,0.110750,-0.078719,0.000000,-0.308970,0.044637,0.000000
0.830000,-2.044096,-1.868153,-1.451899,0.428397,0.917825,0.047724,0.764297,1.056558,0.063272,-0.413529,-2.997985,-0.708774,-2.731865,-1.235498,-2.186308,0.107652,-0.078256,0.000000,-0.310475,0.047559,-0.000000
0.840000,-2.039774,-1.858922,-1.451419,0.436019,0.928241,0.048322,0.760025,1.026516,0.056075,-0.440726,-3.008069,-0.729187,-2.702680,-0.774708,-1.904186,0.104541,-0.077763,0.000000,-0.311464,0.050425,0.000000
0.850000,-2.035376,-1.849589,-1.450933,0.443598,0.938356,0.048846,0.755483,0.996396,0.048688,-0.467582,-3.013479,-0.746858,-2.666399,-0.308082,-1.628741,0.101423,-0.077242,0.000000,-0.311931,0.053228,0.000000
0.860000,-2.030902,-1.840155,-1.450442,0.451129,0.948169,0.049295,0.750673,0.966246,0.041138,-0.494054,-3.014230,-0.761762,-2.629489,0.143813,-1.343908,0.098302,-0.076693,0.000000,-0.311879,0.055963,0.000000
0.870000,-2.026353,-1.830625,-1.449947,0.458611,0.957681,0.049669,0.745602,0.936112,0.033453,-0.520172,-3.010603,-0.773736,-2.596953,0.560062,-1.044933,0.095185,-0.076117,0.000000,-0.311339,0.058633,0.000000
0.880000,-2.021730,-1.821002,-1.449448,0.466041,0.966891,0.049964,0.740270,0.906034,0.025663,-0.545993,-3.003029,-0.782661,-2.565919,0.945679,-0.739470,0.092076,-0.075515,0.000000,-0.310358,0.061242,0.000000
0.890000,-2.017032,-1.811287,-1.448947,0.473416,0.975801,0.050182,0.734682,0.876051,0.017800,-0.571490,-2.991689,-0.788525,-2.528932,1.326663,-0.435720,0.088978,-0.074887,0.000000,-0.308958,0.063790,0.000000
0.900000,-2.012261,-1.801486,-1.448445,0.480735,0.984412,0.050320,0.728840,0.846201,0.009893,-0.596571,-2.976496,-0.791375,-2.486432,1.709392,-0.132217,0.085896,-0.074234,0.000000,-0.307134,0.066266,0.000000
0.910000,-2.007417,-1.791599,-1.447941,0.487993,0.992725,0.050380,0.722750,0.816521,0.001972,-0.621219,-2.957502,-0.791169,-2.442461,2.075446,0.173699,0.082835,-0.073557,0.000000,-0.304897,0.068672,-0.000000
0.920000,-2.002501,-1.781631,-1.447437,0.495190,1.000743,0.050360,0.716416,0.787051,-0.005931,-0.645421,-2.934987,-0.787901,-2.393096,2.408159,0.473013,0.079798,-0.072856,0.000000,-0.302279,0.071005,-0.000000
0.930000,-1.997514,-1.771584,-1.446934,0.502322,1.008466,0.050261,0.709842,0.757822,-0.013786,-0.669081,-2.909338,-0.781709,-2.335679,2.712631,0.761755,0.076790,-0.072132,0.000000,-0.299324,0.073258,0.000000
0.940000,-1.992455,-1.761462,-1.446432,0.509387,1.015899,0.050084,0.703034,0.728864,-0.021565,-0.692134,-2.880734,-0.772666,-2.274928,3.009786,1.049489,0.073812,-0.071386,0.000000,-0.296055,0.075426,-0.000000
0.950000,-1.987326,-1.751266,-1.445932,0.516382,1.023044,0.049830,0.695999,0.700207,-0.029239,-0.714579,-2.849143,-0.760719,-2.214162,3.303941,1.342116,0.070868,-0.070619,0.000000,-0.292472,0.077511,0.000000
0.960000,-1.982127,-1.741001,-1.445435,0.523307,1.029903,0.049499,0.688743,0.671881,-0.036779,-0.736417,-2.814656,-0.745824,-2.149058,3.580742,1.630280,0.067962,-0.069832,0.000000,-0.288588,0.079512,0.000000
0.970000,-1.976860,-1.730668,-1.444942,0.530157,1.036481,0.049094,0.681271,0.643914,-0.044156,-0.757561,-2.777528,-0.728114,-2.069873,3.829551,1.894495,0.065097,-0.069026,0.000000,-0.284433,0.081423,0.000000
0.980000,-1.971524,-1.720271,-1.444453,0.536932,1.042781,0.048616,0.673591,0.616330,-0.051342,-0.777815,-2.738065,-0.707934,-1.976740,4.054830,2.134537,0.062274,-0.068200,0.000000,-0.280043,0.083228,-0.000000
0.990000,-1.966121,-1.709813,-1.443970,0.543629,1.048808,0.048067,0.665715,0.589153,-0.058314,-0.797095,-2.696431,-0.685423,-1.881826,4.270049,2.373779,0.059496,-0.067358,0.000000,-0.275440,0.084921,-0.000000
1.000000,-1.960652,-1.699295,-1.443492,0.550246,1.054565,0.047450,0.657650,0.562402,-0.065050,-0.815451,-2.652664,-0.660458,-1.788941,4.477259,2.621081,0.056765,-0.066499,0.000000,-0.270628,0.086507,-0.000000
1.010000,-1.955116,-1.688721,-1.443021,0.556782,1.060056,0.046766,0.649405,0.536099,-0.071523,-0.832874,-2.606886,-0.633001,-1.689005,4.667581,2.858145,0.054083,-0.065625,0.000000,-0.265622,0.087987,-0.000000
1.020000,-1.949516,-1.678094,-1.442557,0.563234,1.065286,0.046019,0.640992,0.510264,-0.077710,-0.849232,-2.559312,-0.603295,-1.571860,4.836520,3.059265,0.051452,-0.064737,0.000000,-0.260448,0.089349,-0.000000
1.030000,-1.943852,-1.667416,-1.442101,0.569602,1.070261,0.045212,0.632421,0.484913,-0.083589,-0.864311,-2.510156,-0.571816,-1.439237,4.987218,3.227411,0.048874,-0.063835,0.000000,-0.255132,0.090576,-0.000000
1.040000,-1.938124,-1.656689,-1.441653,0.575883,1.074985,0.044348,0.623706,0.460061,-0.089146,-0.878016,-2.459568,-0.538747,-1.303833,5.125451,3.394494,0.046350,-0.062923,0.000000,-0.249690,0.091662,-0.000000
1.050000,-1.932334,-1.645916,-1.441214,0.582076,1.079462,0.043429,0.614861,0.435722,-0.094364,-0.890388,-2.407647,-0.503926,-1.171255,5.251654,3.570756,0.043880,-0.062000,0.000000,-0.244133,0.092611,0.000000
1.060000,-1.926482,-1.635100,-1.440784,0.588180,1.083699,0.042460,0.605898,0.411908,-0.099225,-0.901441,-2.354535,-0.467332,-1.032239,5.362376,3.732775,0.041467,-0.061069,0.000000,-0.238476,0.093424,0.000000
1.070000,-1.920570,-1.624242,-1.440364,0.594194,1.087701,0.041445,0.596832,0.388631,-0.103711,-0.911033,-2.300399,-0.429271,-0.871469,5.457127,3.852916,0.039111,-0.060130,0.000000,-0.232739,0.094090,0.000000
1.080000,-1.914599,-1.613346,-1.439955,0.600117,1.091472,0.040386,0.587677,0.365900,-0.107810,-0.918871,-2.245392,-0.390274,-0.690815,5.537434,3.936489,0.036812,-0.059186,0.000000,-0.226938,0.094584,-0.000000
1.090000,-1.908568,-1.602413,-1.439557,0.605947,1.095019,0.039288,0.578454,0.343723,-0.111516,-0.924849,-2.189651,-0.350541,-0.510486,5.604174,4.018485,0.034572,-0.058237,0.000000,-0.221089,0.094897,-0.000000
1.100000,-1.902480,-1.591445,-1.439169,0.611686,1.098346,0.038156,0.569180,0.322107,-0.114821,-0.929080,-2.133309,-0.309904,-0.336884,5.657092,4.109002,0.032390,-0.057286,0.000000,-0.215203,0.095040,0.000000
1.110000,-1.896334,-1.580446,-1.438794,0.617331,1.101461,0.036992,0.559873,0.301057,-0.117714,-0.931587,-2.076509,-0.268361,-0.156048,5.696062,4.183354,0.030268,-0.056335,0.000000,-0.209295,0.095016,0.000000
1.120000,-1.890133,-1.569416,-1.438429,0.622883,1.104367,0.035801,0.550549,0.280577,-0.120188,-0.932201,-2.019387,-0.226237,0.047236,5.722383,4.215787,0.028204,-0.055385,0.000000,-0.203379,0.094809,0.000000
1.130000,-1.883877,-1.558358,-1.438077,0.628342,1.107072,0.034588,0.541229,0.260669,-0.122239,-0.930642,-1.962061,-0.184045,0.269073,5.736480,4.212884,0.026200,-0.054438,0.000000,-0.197467,0.094396,-0.000000
1.140000,-1.877566,-1.547275,-1.437738,0.633708,1.109581,0.033357,0.531936,0.241336,-0.123869,-0.926820,-1.904658,-0.141979,0.489283,5.737071,4.207846,0.024255,-0.053497,0.000000,-0.191572,0.093768,0.000000
1.150000,-1.871202,-1.536167,-1.437410,0.638981,1.111899,0.032111,0.522692,0.222576,-0.125079,-0.920856,-1.847320,-0.099888,0.701956,5.724080,4.209431,0.022368,-0.052562,0.000000,-0.185705,0.092936,0.000000
1.160000,-1.864786,-1.525037,-1.437095,0.644162,1.114032,0.030855,0.513519,0.204389,-0.125867,-0.912781,-1.790176,-0.057791,0.920509,5.698789,4.195008,0.020541,-0.051637,0.000000,-0.179879,0.091903,-0.000000
1.170000,-1.858319,-1.513886,-1.436793,0.649251,1.115987,0.029594,0.504437,0.186773,-0.126235,-0.902446,-1.733344,-0.015988,1.158553,5.661856,4.143572,0.018771,-0.050724,0.000000,-0.174105,0.090656,-0.000000
1.180000,-1.851801,-1.502717,-1.436504,0.654250,1.117768,0.028330,0.495470,0.169722,-0.126187,-0.889610,-1.676939,0.025081,1.411876,5.613040,4.061942,0.017058,-0.049824,0.000000,-0.168393,0.089172,0.000000
1.190000,-1.845234,-1.491531,-1.436227,0.659160,1.119381,0.027070,0.486644,0.153234,-0.125733,-0.874209,-1.621083,0.065251,1.661899,5.552095,3.977740,0.015403,-0.048940,0.000000,-0.162756,0.087445,0.000000
1.200000,-1.838618,-1.480329,-1.435962,0.663983,1.120832,0.025816,0.477986,0.137301,-0.124882,-0.856372,-1.565897,0.104636,1.903746,5.479969,3.897640,0.013803,-0.048075,0.000000,-0.157202,0.085486,0.000000
1.210000,-1.831955,-1.469114,-1.435710,0.668720,1.122127,0.024572,0.469517,0.121916,-0.123640,-0.836134,-1.511484,0.143204,2.149333,5.397121,3.803570,0.012259,-0.047230,0.000000,-0.151741,0.083298,-0.000000
1.220000,-1.825244,-1.457887,-1.435471,0.673374,1.123271,0.023343,0.461263,0.107071,-0.122018,-0.813385,-1.457955,0.180707,2.408772,5.301695,3.680903,0.010768,-0.046409,0.000000,-0.146382,0.080871,-0.000000
1.230000,-1.818487,-1.446649,-1.435243,0.677945,1.124269,0.022132,0.453249,0.092757,-0.120026,-0.787958,-1.405450,0.216822,2.677762,5.193505,3.535833,0.009331,-0.045613,0.000000,-0.141139,0.078188,-0.000000
1.240000,-1.811685,-1.435401,-1.435028,0.682438,1.125126,0.020942,0.445504,0.078962,-0.117681,-0.759830,-1.354085,0.251424,2.941963,5.075740,3.388201,0.007946,-0.044845,0.000000,-0.136021,0.075246,0.000000
1.250000,-1.804838,-1.424146,-1.434825,0.686856,1.125848,0.019778,0.438053,0.065675,-0.114998,-0.729119,-1.303935,0.284586,3.198168,4.950867,3.242024,0.006611,-0.044108,0.000000,-0.131035,0.072055,-0.000000
1.260000,-1.797948,-1.412884,-1.434633,0.691200,1.126439,0.018643,0.430921,0.052883,-0.111989,-0.695867,-1.255067,0.316264,3.455002,4.816985,3.085089,0.005325,-0.043404,0.000000,-0.126185,0.068619,-0.000000
1.270000,-1.791014,-1.401617,-1.434452,0.695474,1.126905,0.017538,0.424135,0.040574,-0.108672,-0.660019,-1.207595,0.346287,3.717712,4.668562,2.910115,0.004087,-0.042735,0.000000,-0.121482,0.064931,0.000000
1.280000,-1.784038,-1.390346,-1.434282,0.699682,1.127251,0.016469,0.417721,0.028731,-0.105064,-0.621512,-1.161696,0.374467,3.982522,4.506081,2.722073,0.002895,-0.042105,0.000000,-0.116943,0.060984,-0.000000
1.290000,-1.777021,-1.379072,-1.434122,0.703828,1.127480,0.015437,0.411705,0.017340,-0.101183,-0.580369,-1.117474,0.400729,4.241308,4.337724,2.531708,0.001748,-0.041516,0.000000,-0.112576,0.056779,-0.000000
1.300000,-1.769962,-1.367797,-1.433973,0.707916,1.127598,0.014445,0.406114,0.006382,-0.097049,-0.536686,-1.074941,0.425101,4.492936,4.166971,2.340422,0.000644,-0.040969,0.000000,-0.108383,0.052325,-0.000000
1.310000,-1.762862,-1.356520,-1.433833,0.711951,1.127608,0.013496,0.400971,-0.004159,-0.092681,-0.490510,-1.034134,0.447537,4.741492,3.988643,2.142488,-0.000420,-0.040469,0.000000,-0.104364,0.047625,0.000000
1.320000,-1.755723,-1.345244,-1.433703,0.715936,1.127514,0.012592,0.396303,-0.014301,-0.088098,-0.441856,-0.995169,0.467950,4.986834,3.795381,1.937597,-0.001444,-0.040017,0.000000,-0.100531,0.042679,0.000000
1.330000,-1.748544,-1.333970,-1.433582,0.719877,1.127322,0.011734,0.392134,-0.024062,-0.083322,-0.390773,-0.958227,0.486289,5.226297,3.588842,1.729126,-0.002430,-0.039616,0.000000,-0.096902,0.037491,0.000000
1.340000,-1.741325,-1.322698,-1.433468,0.723778,1.127033,0.010925,0.388488,-0.033465,-0.078373,-0.337330,-0.923392,0.502533,5.458636,3.379660,1.518931,-0.003382,-0.039267,0.000000,-0.093485,0.032068,-0.000000
1.350000,-1.734068,-1.311429,-1.433363,0.727646,1.126652,0.010167,0.385388,-0.042530,-0.073271,-0.281601,-0.890633,0.516668,5.684615,3.171851,1.305979,-0.004300,-0.038974,0.000000,-0.090274,0.026414,-0.000000
1.360000,-1.726772,-1.300165,-1.433265,0.731486,1.126183,0.009460,0.382856,-0.051278,-0.068039,-0.223638,-0.859955,0.528653,5.903553,2.958799,1.090735,-0.005187,-0.038739,0.000000,-0.087271,0.020535,-0.000000
1.370000,-1.719438,-1.288906,-1.433174,0.735304,1.125627,0.008806,0.380915,-0.059729,-0.062698,-0.163529,-0.831457,0.538483,6.110590,2.732060,0.878943,-0.006045,-0.038564,0.000000,-0.084485,0.014438,-0.000000
1.380000,-1.712066,-1.277652,-1.433089,0.739105,1.124988,0.008206,0.379585,-0.067907,-0.057270,-0.101426,-0.805314,0.546231,6.304249,2.493911,0.672207,-0.006877,-0.038450,0.000000,-0.081933,0.008137,0.000000
1.390000,-1.704656,-1.266406,-1.433010,0.742895,1.124269,0.007661,0.378886,-0.075836,-0.051774,-0.037444,-0.781579,0.551927,6.489484,2.256668,0.464552,-0.007684,-0.038401,0.000000,-0.079621,0.001644,-0.000000
1.400000,-1.697208,-1.255167,-1.432936,0.746682,1.123471,0.007170,0.378836,-0.083539,-0.046231,0.028363,-0.760180,0.555522,6.669602,2.024470,0.253019,-0.008469,-0.038417,0.000000,-0.077540,-0.005036,-0.000000
1.410000,-1.689723,-1.243937,-1.432866,0.750472,1.122598,0.006736,0.379454,-0.091039,-0.040663,0.095948,-0.741090,0.556987,6.839678,1.789808,0.043310,-0.009235,-0.038502,0.000000,-0.075688,-0.011900,0.000000
1.420000,-1.682199,-1.232715,-1.432801,0.754271,1.121651,0.006357,0.380755,-0.098360,-0.035091,0.165157,-0.724384,0.556389,6.988471,1.544614,-0.154301,-0.009983,-0.038655,0.000000,-0.074073,-0.018932,-0.000000
1.430000,-1.674637,-1.221504,-1.432739,0.758087,1.120631,0.006034,0.382757,-0.105527,-0.029535,0.235717,-0.710198,0.553901,7.115680,1.291859,-0.339864,-0.010716,-0.038880,0.000000,-0.072707,-0.026105,0.000000
1.440000,-1.667037,-1.210302,-1.432680,0.761926,1.119540,0.005766,0.385470,-0.112564,-0.024013,0.307471,-0.698547,0.549591,7.234907,1.043532,-0.525433,-0.011437,-0.039178,0.000000,-0.071594,-0.033403,-0.000000
1.450000,-1.659399,-1.199113,-1.432624,0.765797,1.118379,0.005554,0.388906,-0.119498,-0.018544,0.380415,-0.689327,0.543392,7.351705,0.802532,-0.715226,-0.012148,-0.039548,0.000000,-0.070722,-0.040826,-0.000000
1.460000,-1.651721,-1.187935,-1.432569,0.769705,1.117150,0.005396,0.393078,-0.126351,-0.013145,0.454505,-0.682496,0.535287,7.455486,0.561908,-0.899604,-0.012852,-0.039994,0.000000,-0.070087,-0.048368,-0.000000
1.470000,-1.644005,-1.176770,-1.432516,0.773658,1.115852,0.005291,0.397996,-0.133148,-0.007838,0.529525,-0.678089,0.525400,7.530437,0.317467,-1.065770,-0.013550,-0.040516,0.000000,-0.069692,-0.056007,-0.000000
1.480000,-1.636248,-1.165618,-1.432463,0.777665,1.114487,0.005239,0.403669,-0.139913,-0.002637,0.605113,-0.676147,0.513971,7.578461,0.072521,-1.215248,-0.014245,-0.041114,0.000000,-0.069542,-0.063707,0.000000
1.490000,-1.628451,-1.154480,-1.432411,0.781731,1.113054,0.005238,0.410099,-0.146671,0.002442,0.681094,-0.676638,0.501095,7.619315,-0.166018,-1.363604,-0.014941,-0.041790,0.000000,-0.069635,-0.071449,0.000000
1.500000,-1.620613,-1.143357,-1.432359,0.785866,1.111554,0.005288,0.417290,-0.153445,0.007384,0.757500,-0.679467,0.486699,7.658047,-0.397299,-1.515646,-0.015638,-0.042544,0.000000,-0.069959,-0.079236,-0.000000
1.510000,-1.612734,-1.132249,-1.432305,0.790077,1.109985,0.005386,0.425249,-0.160260,0.012176,0.834255,-0.684584,0.470782,7.680435,-0.624542,-1.659715,-0.016340,-0.043375,0.000000,-0.070510,-0.087057,-0.000000
1.520000,-1.604812,-1.121157,-1.432251,0.794371,1.108348,0.005531,0.433976,-0.167137,0.016800,0.911108,-0.691958,0.453505,7.673371,-0.846757,-1.782260,-0.017048,-0.044285,0.000000,-0.071285,-0.094887,0.000000
1.530000,-1.596846,-1.110082,-1.432195,0.798757,1.106643,0.005722,0.443471,-0.174099,0.021246,0.987722,-0.701519,0.435137,7.640291,-1.061423,-1.885764,-0.017766,-0.045273,0.000000,-0.072277,-0.102691,0.000000
1.540000,-1.588837,-1.099024,-1.432137,0.803241,1.104867,0.005956,0.453730,-0.181168,0.025503,1.063914,-0.713187,0.415790,7.597522,-1.268382,-1.987054,-0.018494,-0.046339,0.000000,-0.073477,-0.110449,-0.000000
1.550000,-1.580782,-1.087985,-1.432076,0.807831,1.103019,0.006232,0.464749,-0.188363,0.029561,1.139673,-0.726887,0.395396,7.550586,-1.469053,-2.090876,-0.019235,-0.047483,0.000000,-0.074879,-0.118158,-0.000000
1.560000,-1.572680,-1.076964,-1.432012,0.812536,1.101099,0.006547,0.476523,-0.195705,0.033411,1.214926,-0.742568,0.373972,7.487899,-1.661930,-2.185116,-0.019991,-0.048703,0.000000,-0.076475,-0.125809,-0.000000
1.570000,-1.564531,-1.065963,-1.431945,0.817362,1.099105,0.006900,0.489048,-0.203214,0.037041,1.289431,-0.760126,0.351694,7.394590,-1.840439,-2.257155,-0.020765,-0.049999,0.000000,-0.078256,-0.133377,-0.000000
1.580000,-1.556333,-1.054982,-1.431874,0.822317,1.097035,0.007288,0.502312,-0.210908,0.040445,1.362818,-0.779376,0.328829,7.273430,-2.003319,-2.310055,-0.021556,-0.051371,0.000000,-0.080203,-0.140822,-0.000000
1.590000,-1.548085,-1.044022,-1.431799,0.827408,1.094887,0.007709,0.516304,-0.218802,0.043617,1.434899,-0.800192,0.305493,7.143882,-2.157796,-2.359745,-0.022369,-0.052816,0.000000,-0.082302,-0.148125,0.000000
1.600000,-1.539785,-1.033084,-1.431720,0.832643,1.092659,0.008161,0.531010,-0.226912,0.046554,1.505695,-0.822532,0.281634,7.012000,-2.307575,-2.410362,-0.023202,-0.054334,0.000000,-0.084550,-0.155285,0.000000
1.610000,-1.531432,-1.022169,-1.431636,0.838028,1.090349,0.008640,0.546418,-0.235252,0.049250,1.575139,-0.846344,0.257285,6.864438,-2.446209,-2.450825,-0.024060,-0.055923,0.000000,-0.086939,-0.162295,-0.000000
1.620000,-1.523024,-1.011277,-1.431547,0.843571,1.087954,0.009146,0.562513,-0.243839,0.051700,1.642984,-0.871456,0.232618,6.686645,-2.561703,-2.470643,-0.024941,-0.057581,0.000000,-0.089452,-0.169127,0.000000
1.630000,-1.514560,-1.000410,-1.431453,0.849279,1.085472,0.009674,0.579277,-0.252682,0.053903,1.708872,-0.897578,0.207873,6.482624,-2.654234,-2.472923,-0.025849,-0.059306,0.000000,-0.092059,-0.175746,0.000000
1.640000,-1.506039,-0.989568,-1.431353,0.855157,1.082900,0.010224,0.596690,-0.261790,0.055858,1.772637,-0.924541,0.183159,6.271700,-2.738404,-2.471194,-0.026782,-0.061097,0.000000,-0.094744,-0.182133,-0.000000
1.650000,-1.497457,-0.978752,-1.431248,0.861212,1.080236,0.010791,0.614730,-0.271172,0.057566,1.834306,-0.952346,0.158449,6.057907,-2.820113,-2.468761,-0.027743,-0.062950,0.000000,-0.097505,-0.188290,0.000000
1.660000,-1.488814,-0.967963,-1.431138,0.867451,1.077477,0.011375,0.633376,-0.280837,0.059027,1.893795,-0.980943,0.133784,5.828592,-2.888106,-2.456509,-0.028732,-0.064864,0.000000,-0.100337,-0.194207,0.000000
1.670000,-1.480108,-0.957202,-1.431021,0.873880,1.074619,0.011972,0.652606,-0.290791,0.060241,1.950878,-1.010108,0.109319,5.575545,-2.925642,-2.426623,-0.029750,-0.066836,0.000000,-0.103216,-0.199861,-0.000000
1.680000,-1.471337,-0.946470,-1.430898,0.880504,1.071661,0.012580,0.672394,-0.301039,0.061213,2.005306,-1.039456,0.085252,5.303151,-2.934563,-2.381951,-0.030797,-0.068863,0.000000,-0.106104,-0.205227,-0.000000
1.690000,-1.462498,-0.935769,-1.430769,0.887328,1.068599,0.013196,0.692712,-0.311580,0.061946,2.056941,-1.068799,0.061680,5.022520,-2.936060,-2.332846,-0.031872,-0.070942,0.000000,-0.108981,-0.210291,-0.000000
1.700000,-1.453590,-0.925098,-1.430634,0.894358,1.065429,0.013819,0.713533,-0.322415,0.062447,2.105756,-1.098177,0.038595,4.736053,-2.937546,-2.281709,-0.032976,-0.073071,0.000000,-0.111851,-0.215049,-0.000000
1.710000,-1.444611,-0.914460,-1.430493,0.901598,1.062150,0.014445,0.734827,-0.333544,0.062718,2.151662,-1.127550,0.016045,4.436988,-2.923691,-2.221819,-0.034109,-0.075246,0.000000,-0.114709,-0.219493,0.000000
1.720000,-1.435558,-0.903855,-1.430345,0.909054,1.058758,0.015073,0.756566,-0.344966,0.062767,2.194496,-1.156651,-0.005842,4.120677,-2.875023,-2.147984,-0.035270,-0.077463,0.000000,-0.117528,-0.223607,-0.000000
1.730000,-1.426430,-0.893285,-1.430192,0.916730,1.055251,0.015700,0.778717,-0.356677,0.062601,2.234076,-1.185050,-0.026914,3.789929,-2.795012,-2.062534,-0.036460,-0.079720,0.000000,-0.120266,-0.227373,0.000000
1.740000,-1.417224,-0.882750,-1.430031,0.924629,1.051625,0.016325,0.801248,-0.368667,0.062229,2.270294,-1.212552,-0.047092,3.451720,-2.708897,-1.972697,-0.037676,-0.082014,0.000000,-0.122902,-0.230783,0.000000
1.750000,-1.407937,-0.872253,-1.429865,0.932755,1.047878,0.016945,0.824123,-0.380928,0.061660,2.303110,-1.239228,-0.066368,3.107110,-2.624854,-1.880263,-0.038918,-0.084339,0.000000,-0.125445,-0.233831,0.000000
1.760000,-1.398569,-0.861793,-1.429692,0.941111,1.044006,0.017558,0.847310,-0.393452,0.060902,2.332437,-1.265049,-0.084698,2.752340,-2.525335,-1.780807,-0.040185,-0.086694,0.000000,-0.127890,-0.236512,0.000000
1.770000,-1.389115,-0.851373,-1.429514,0.949701,1.040009,0.018163,0.870772,-0.406229,0.059966,2.358157,-1.289735,-0.101984,2.386898,-2.390095,-1.670965,-0.041475,-0.089073,0.000000,-0.130211,-0.238815,0.000000
1.780000,-1.379575,-0.840993,-1.429329,0.958527,1.035882,0.018758,0.894473,-0.419246,0.058862,2.380175,-1.312851,-0.118117,2.012928,-2.223819,-1.552488,-0.042789,-0.091474,0.000000,-0.132365,-0.240733,0.000000
1.790000,-1.369945,-0.830655,-1.429139,0.967590,1.031624,0.019340,0.918375,-0.432486,0.057603,2.398416,-1.334211,-0.133034,1.632054,-2.053297,-1.430411,-0.044123,-0.093892,0.000000,-0.134334,-0.242260,-0.000000
1.800000,-1.360223,-0.820360,-1.428942,0.976894,1.027232,0.019910,0.942441,-0.445931,0.056201,2.412816,-1.353916,-0.146725,1.243932,-1.886629,-1.306191,-0.045475,-0.096324,0.000000,-0.136128,-0.243392,-0.000000
1.810000,-1.350407,-0.810110,-1.428740,0.986439,1.022705,0.020464,0.966632,-0.459564,0.054669,2.423294,-1.371944,-0.159158,0.848545,-1.705832,-1.177026,-0.046845,-0.098765,0.000000,-0.137747,-0.244123,-0.000000
1.820000,-1.340494,-0.799906,-1.428533,0.996227,1.018041,0.021003,0.990907,-0.473370,0.053018,2.429787,-1.388033,-0.170266,0.448754,-1.492025,-1.040517,-0.048230,-0.101212,0.000000,-0.139166,-0.244449,0.000000
1.830000,-1.330482,-0.789749,-1.428320,1.006257,1.013238,0.021525,1.015227,-0.487325,0.051264,2.432269,-1.401785,-0.179968,0.045601,-1.250613,-0.897940,-0.049628,-0.103660,0.000000,-0.140346,-0.244372,-0.000000
1.840000,-1.320369,-0.779641,-1.428103,1.016531,1.008294,0.022028,1.039552,-0.501405,0.049419,2.430699,-1.413045,-0.188224,-0.363614,-1.007177,-0.753292,-0.051037,-0.106105,0.000000,-0.141274,-0.243890,-0.000000
1.850000,-1.310151,-0.769584,-1.427880,1.027048,1.003210,0.022513,1.063841,-0.515586,0.047499,2.424997,-1.421928,-0.195034,-0.780041,-0.769196,-0.608081,-0.052454,-0.108544,0.000000,-0.141962,-0.242998,-0.000000
1.860000,-1.299828,-0.759577,-1.427652,1.037808,0.997983,0.022978,1.088052,-0.529844,0.045518,2.415098,-1.428429,-0.200386,-1.200805,-0.520091,-0.460254,-0.053876,-0.110972,0.000000,-0.142413,-0.241692,-0.000000
1.870000,-1.289395,-0.749624,-1.427420,1.048809,0.992613,0.023423,1.112143,-0.544154,0.043491,2.400981,-1.432330,-0.204239,-1.621261,-0.243587,-0.307466,-0.055302,-0.113385,0.000000,-0.142606,-0.239973,0.000000
1.880000,-1.278852,-0.739725,-1.427184,1.060051,0.987099,0.023848,1.136072,-0.558490,0.041433,2.382673,-1.433301,-0.206535,-2.041369,0.054680,-0.150792,-0.056729,-0.115779,0.000000,-0.142510,-0.237848,-0.000000
1.890000,-1.268194,-0.729882,-1.426943,1.071531,0.981443,0.024252,1.159797,-0.572820,0.039361,2.360154,-1.431236,-0.207255,-2.466124,0.351984,0.005685,-0.058152,-0.118149,0.000000,-0.142117,-0.235318,-0.000000
1.900000,-1.257421,-0.720096,-1.426699,1.083247,0.975643,0.024635,1.183275,-0.587115,0.037288,2.333350,-1.426261,-0.206422,-2.896809,0.642413,0.160225,-0.059571,-0.120493,0.000000,-0.141441,-0.232379,0.000000
1.910000,-1.246529,-0.710369,-1.426451,1.095196,0.969701,0.024998,1.206464,-0.601346,0.035232,2.302217,-1.418388,-0.204051,-3.329119,0.940018,0.314863,-0.060981,-0.122805,0.000000,-0.140487,-0.229028,0.000000
1.920000,-1.235517,-0.700702,-1.426199,1.107376,0.963616,0.025340,1.229319,-0.615483,0.033207,2.266768,-1.407461,-0.200124,-3.758389,1.256018,0.472406,-0.062381,-0.125082,0.000000,-0.139240,-0.225271,-0.000000
1.930000,-1.224382,-0.691097,-1.425944,1.119783,0.957391,0.025662,1.251799,-0.629495,0.031230,2.227050,-1.393268,-0.194602,-4.185247,1.584876,0.631769,-0.063766,-0.127319,0.000000,-0.137682,-0.221115,-0.000000
1.940000,-1.213121,-0.681554,-1.425686,1.132412,0.951026,0.025965,1.273860,-0.643348,0.029315,2.183063,-1.375763,-0.187489,-4.614642,1.910119,0.788072,-0.065134,-0.129513,0.000000,-0.135811,-0.216563,0.000000
1.950000,-1.201734,-0.672076,-1.425425,1.145260,0.944524,0.026248,1.295460,-0.657010,0.027480,2.134757,-1.355065,-0.178841,-5.047237,2.228252,0.939366,-0.066482,-0.131660,0.000000,-0.133641,-0.211613,-0.000000
1.960000,-1.190216,-0.662664,-1.425161,1.158321,0.937886,0.026514,1.316556,-0.670450,0.025738,2.082118,-1.331198,-0.168702,-5.479018,2.548559,1.088191,-0.067807,-0.133755,0.000000,-0.131175,-0.206264,-0.000000
1.970000,-1.178567,-0.653318,-1.424894,1.171591,0.931115,0.026763,1.337103,-0.683634,0.024106,2.025176,-1.304094,-0.157077,-5.907233,2.875504,1.237598,-0.069106,-0.135795,0.000000,-0.128409,-0.200523,-0.000000
1.980000,-1.166784,-0.644042,-1.424625,1.185063,0.924213,0.026996,1.357059,-0.696531,0.022597,1.963973,-1.273688,-0.143950,-6.332772,3.204487,1.386231,-0.070375,-0.137775,0.000000,-0.125338,-0.194395,-0.000000
1.990000,-1.154866,-0.634834,-1.424354,1.198732,0.917184,0.027215,1.376382,-0.709108,0.021227,1.898521,-1.240004,-0.129353,-6.757990,3.527642,1.528788,-0.071613,-0.139692,0.000000,-0.121967,-0.187884,0.000000
2.000000,-1.142810,-0.625698,-1.424081,1.212591,0.910031,0.027421,1.395030,-0.721331,0.020010,1.828814,-1.203136,-0.113374,-7.181694,3.843834,1.663387,-0.072815,-0.141543,0.000000,-0.118305,-0.180989,0.000000
2.010000,-1.130614,-0.616634,-1.423806,1.226633,0.902758,0.027615,1.412959,-0.733171,0.018959,1.754887,-1.163128,-0.096085,-7.601805,4.156230,1.792719,-0.073979,-0.143322,0.000000,-0.114359,-0.173714,0.000000
2.020000,-1.118277,-0.607643,-1.423529,1.240850,0.895368,0.027800,1.430127,-0.744594,0.018088,1.676777,-1.120011,-0.077520,-8.020330,4.463470,1.919372,-0.075102,-0.145027,0.000000,-0.110131,-0.166063,-0.000000
2.030000,-1.105797,-0.598726,-1.423250,1.255235,0.887866,0.027977,1.446494,-0.755571,0.017409,1.594480,-1.073858,-0.057697,-8.437808,4.762635,2.041745,-0.076181,-0.146653,0.000000,-0.105631,-0.158037,-0.000000
2.040000,-1.093172,-0.589885,-1.422969,1.269780,0.880256,0.028148,1.462017,-0.766071,0.016934,1.508021,-1.024758,-0.036685,-8.850324,5.053155,2.155103,-0.077215,-0.148197,0.000000,-0.100867,-0.149637,0.000000
2.050000,-1.080401,-0.581121,-1.422687,1.284476,0.872544,0.028316,1.476654,-0.776066,0.016675,1.417474,-0.972795,-0.014595,-9.255168,5.335471,2.258400,-0.078199,-0.149654,0.000000,-0.095847,-0.140870,0.000000
2.060000,-1.067483,-0.572434,-1.422403,1.299313,0.864735,0.028482,1.490366,-0.785527,0.016642,1.322918,-0.918049,0.008483,-9.654506,5.607780,2.353808,-0.079132,-0.151023,0.000000,-0.090579,-0.131741,-0.000000
2.070000,-1.054415,-0.563826,-1.422117,1.314283,0.856834,0.028648,1.503113,-0.794427,0.016845,1.224384,-0.860640,0.032481,-10.053545,5.864728,2.441516,-0.080011,-0.152298,0.000000,-0.085074,-0.122252,-0.000000
2.080000,-1.041197,-0.555298,-1.421830,1.329375,0.848847,0.028819,1.514854,-0.802740,0.017292,1.121847,-0.800754,0.057314,-10.450349,6.102605,2.519809,-0.080833,-0.153476,0.000000,-0.079350,-0.112398,-0.000000
2.090000,-1.027828,-0.546849,-1.421541,1.344580,0.840779,0.028994,1.525550,-0.810442,0.017991,1.015377,-0.738588,0.082877,-10.837112,6.326582,2.587125,-0.081598,-0.154553,0.000000,-0.073423,-0.102183,0.000000
2.100000,-1.014306,-0.538482,-1.421250,1.359886,0.832638,0.029178,1.535162,-0.817512,0.018949,0.905105,-0.674223,0.109056,-11.218550,6.555104,2.643892,-0.082302,-0.155526,0.000000,-0.067302,-0.091617,0.000000
2.110000,-1.000630,-0.530197,-1.420957,1.375283,0.824429,0.029373,1.543652,-0.823927,0.020172,0.791006,-0.607485,0.135755,-11.598675,6.781283,2.690020,-0.082944,-0.156392,0.000000,-0.060965,-0.080694,-0.000000
2.120000,-0.986800,-0.521994,-1.420663,1.390759,0.816159,0.029582,1.550982,-0.829661,0.021665,0.673131,-0.538597,0.162856,-11.960992,6.949012,2.721823,-0.083521,-0.157146,0.000000,-0.054434,-0.069413,0.000000
2.130000,-0.972815,-0.513874,-1.420366,1.406303,0.807836,0.029807,1.557114,-0.834698,0.023429,0.551786,-0.468505,0.190191,-12.306074,7.060483,2.737851,-0.084032,-0.157785,0.000000,-0.047798,-0.057801,-0.000000
2.140000,-0.958674,-0.505837,-1.420067,1.421902,0.799465,0.030050,1.562017,-0.839031,0.025468,0.427010,-0.397387,0.217614,-12.655249,7.189696,2.741892,-0.084477,-0.158306,0.000000,-0.041073,-0.045855,-0.000000
2.150000,-0.944377,-0.497884,-1.419765,1.437543,0.791055,0.030316,1.565655,-0.842646,0.027782,0.298681,-0.324711,0.245029,-12.987458,7.320811,2.737356,-0.084854,-0.158705,0.000000,-0.034202,-0.033558,0.000000
2.160000,-0.929923,-0.490016,-1.419460,1.453215,0.782612,0.030606,1.567991,-0.845526,0.030369,0.167261,-0.250971,0.272361,-13.289404,7.404560,2.720362,-0.085161,-0.158979,0.000000,-0.027230,-0.020951,0.000000
2.170000,-0.915312,-0.482232,-1.419153,1.468903,0.774144,0.030923,1.569000,-0.847666,0.033229,0.032893,-0.176620,0.299436,-13.625876,7.500322,2.679760,-0.085398,-0.159126,0.000000,-0.020200,-0.008042,0.000000
2.180000,-0.900545,-0.474533,-1.418842,1.484595,0.765659,0.031271,1.568649,-0.849058,0.036358,-0.105257,-0.100965,0.325956,-14.002690,7.624603,2.614960,-0.085565,-0.159141,0.000000,-0.013037,0.005261,-0.000000
2.190000,-0.885621,-0.466919,-1.418527,1.500276,0.757163,0.031650,1.566895,-0.849685,0.039748,-0.247161,-0.024128,0.351736,-14.328019,7.690154,2.539945,-0.085659,-0.159020,0.000000,-0.005749,0.018964,-0.000000
2.200000,-0.870539,-0.459390,-1.418209,1.515933,0.748665,0.032066,1.563706,-0.849541,0.043392,-0.391817,0.052838,0.376755,-14.595089,7.701457,2.461445,-0.085680,-0.158760,0.000000,0.001562,0.032972,0.000000
2.210000,-0.855302,-0.451945,-1.417886,1.531550,0.740172,0.032518,1.559058,-0.848628,0.047283,-0.539063,0.129901,0.400965,-14.864374,7.715498,2.368760,-0.085628,-0.158358,0.000000,0.008898,0.047274,-0.000000
2.220000,-0.839908,-0.444586,-1.417558,1.547114,0.731693,0.033011,1.552924,-0.846943,0.051412,-0.689105,0.207148,0.424130,-15.129272,7.689273,2.243393,-0.085502,-0.157811,0.000000,0.016271,0.061899,-0.000000
2.230000,-0.824360,-0.437312,-1.417226,1.562609,0.723234,0.033547,1.545276,-0.844485,0.055766,-0.841648,0.283687,0.445832,-15.365003,7.595373,2.086789,-0.085302,-0.157115,0.000000,0.023600,0.076829,-0.000000
2.240000,-0.808656,-0.430122,-1.416887,1.578019,0.714803,0.034127,1.536091,-0.841269,0.060328,-0.996405,0.359056,0.465866,-15.583901,7.497397,1.923004,-0.085030,-0.156269,0.000000,0.030841,0.092044,-0.000000
2.250000,-0.792799,-0.423016,-1.416543,1.593331,0.706408,0.034753,1.525348,-0.837304,0.065083,-1.153326,0.433635,0.484292,-15.801777,7.436886,1.762126,-0.084685,-0.155268,0.000000,0.038036,0.107541,0.000000
2.260000,-0.776790,-0.415993,-1.416192,1.608526,0.698057,0.035428,1.513025,-0.832596,0.070014,-1.312440,0.507794,0.501108,-16.006438,7.366210,1.586952,-0.084269,-0.154110,0.000000,0.045225,0.123330,-0.000000
2.270000,-0.760629,-0.409054,-1.415835,1.623591,0.689756,0.036153,1.499099,-0.827148,0.075105,-1.473455,0.580959,0.516031,-16.159370,7.185668,1.371539,-0.083781,-0.152792,0.000000,0.052353,0.139388,0.000000
2.280000,-0.744318,-0.402198,-1.415469,1.638508,0.681514,0.036930,1.483556,-0.820977,0.080335,-1.635628,0.651507,0.528539,-16.264760,6.911413,1.119427,-0.083222,-0.151312,0.000000,0.059266,0.155652,-0.000000
2.290000,-0.727859,-0.395424,-1.415096,1.653262,0.673337,0.037760,1.466387,-0.814118,0.085676,-1.798750,0.719187,0.538420,-16.371558,6.675593,0.865178,-0.082595,-0.149668,0.000000,0.065939,0.172109,0.000000
2.300000,-0.711253,-0.388732,-1.414714,1.667836,0.665232,0.038644,1.447581,-0.806593,0.091103,-1.963059,0.785019,0.545843,-16.463734,6.465355,0.622366,-0.081903,-0.147858,0.000000,0.072477,0.188781,0.000000
2.310000,-0.694502,-0.382120,-1.414323,1.682214,0.657205,0.039582,1.427126,-0.798418,0.096593,-2.128025,0.848494,0.550867,-16.508405,6.194510,0.367212,-0.081146,-0.145880,0.000000,0.078827,0.205617,-0.000000
2.320000,-0.677608,-0.375587,-1.413922,1.696379,0.649263,0.040576,1.405020,-0.789623,0.102121,-2.293227,0.908909,0.553187,-16.558198,5.925096,0.066517,-0.080326,-0.143732,0.000000,0.084921,0.222579,0.000000
2.330000,-0.660574,-0.369134,-1.413512,1.710314,0.641412,0.041625,1.381261,-0.780240,0.107657,-2.459189,0.966996,0.552198,-16.623503,5.686780,-0.273617,-0.079447,-0.141413,0.000000,0.090839,0.239728,0.000000
2.340000,-0.643402,-0.362759,-1.413090,1.724004,0.633658,0.042729,1.355837,-0.770283,0.113165,-2.625697,1.022645,0.547714,-16.627127,5.388577,-0.608168,-0.078510,-0.138922,0.000000,0.096568,0.257046,0.000000
2.350000,-0.626094,-0.356461,-1.412657,1.737431,0.626007,0.043888,1.328747,-0.759787,0.118611,-2.791731,1.074768,0.540034,-16.572905,5.045136,-0.922079,-0.077516,-0.136256,0.000000,0.101997,0.274422,0.000000
2.360000,-0.608653,-0.350239,-1.412212,1.750579,0.618463,0.045101,1.300002,-0.748788,0.123965,-2.957155,1.123547,0.529273,-16.510471,4.717796,-1.245323,-0.076470,-0.133417,0.000000,0.107140,0.291839,0.000000
2.370000,-0.591083,-0.344092,-1.411755,1.763431,0.611031,0.046367,1.269604,-0.737316,0.129196,-3.121941,1.169123,0.515128,-16.402474,4.332953,-1.612086,-0.075373,-0.130402,0.000000,0.112013,0.309294,0.000000
2.380000,-0.573385,-0.338018,-1.411285,1.775971,0.603716,0.047685,1.237563,-0.725406,0.134268,-3.285205,1.210206,0.497031,-16.226668,3.863671,-2.013227,-0.074229,-0.127213,0.000000,0.116485,0.326699,-0.000000
2.390000,-0.555563,-0.332018,-1.410801,1.788182,0.596523,0.049053,1.203900,-0.713112,0.139137,-3.446474,1.246397,0.474863,-16.036752,3.419198,-2.401808,-0.073043,-0.123850,0.000000,0.120514,0.343999,-0.000000
2.400000,-0.537621,-0.326088,-1.410304,1.800049,0.589454,0.050468,1.168634,-0.700478,0.143765,-3.605940,1.278590,0.448995,-15.852641,3.037734,-2.763771,-0.071819,-0.120315,0.000000,0.124183,0.361203,-0.000000
2.410000,-0.519562,-0.320228,-1.409792,1.811555,0.582513,0.051928,1.131781,-0.687540,0.148117,-3.763527,1.307152,0.419588,-15.634527,2.644139,-3.129200,-0.070559,-0.116607,0.000000,0.127525,0.378289,-0.000000
2.420000,-0.501390,-0.314438,-1.409265,1.822685,0.575703,0.053430,1.093363,-0.674335,0.152157,-3.918630,1.331473,0.386411,-15.340384,2.164823,-3.527771,-0.069268,-0.112730,0.000000,0.130474,0.395189,-0.000000
2.430000,-0.483109,-0.308714,-1.408723,1.833422,0.569027,0.054971,1.053409,-0.660910,0.155845,-4.070334,1.350448,0.349032,-14.980152,1.624660,-3.948866,-0.067950,-0.108685,0.000000,0.132916,0.411803,0.000000
2.440000,-0.464722,-0.303057,-1.408166,1.843753,0.562485,0.056547,1.011956,-0.647326,0.159137,-4.218233,1.363966,0.307434,-14.606883,1.122145,-4.350728,-0.066610,-0.104475,0.000000,0.134834,0.428075,-0.000000
2.450000,-0.446233,-0.297465,-1.407592,1.853661,0.556080,0.058154,0.969044,-0.633631,0.161994,-4.362472,1.372891,0.262018,-14.234817,0.671183,-4.723484,-0.065253,-0.100104,0.000000,0.136308,0.444000,-0.000000
2.460000,-0.427648,-0.291936,-1.407003,1.863134,0.549813,0.059787,0.924707,-0.619868,0.164378,-4.502930,1.377390,0.212964,-13.826943,0.209060,-5.092503,-0.063884,-0.095576,0.000000,0.137349,0.459548,0.000000
2.470000,-0.408971,-0.286468,-1.406397,1.872155,0.543683,0.061441,0.878985,-0.606083,0.166253,-4.639011,1.377072,0.160168,-13.347202,-0.284438,-5.474963,-0.062506,-0.090894,0.000000,0.137912,0.474645,0.000000
2.480000,-0.390205,-0.281062,-1.405774,1.880713,0.537691,0.063112,0.831927,-0.592326,0.167581,-4.769874,1.371701,0.103465,-12.806990,-0.774369,-5.860011,-0.061126,-0.086065,0.000000,0.137969,0.489187,0.000000
2.490000,-0.371357,-0.275715,-1.405134,1.888794,0.531836,0.064793,0.783588,-0.578649,0.168322,-4.895151,1.361585,0.042968,-12.252543,-1.235575,-6.221773,-0.059747,-0.081093,0.000000,0.137546,0.503117,0.000000
2.500000,-0.352429,-0.270425,-1.404478,1.896385,0.526118,0.066478,0.734024,-0.565095,0.168441,-5.014925,1.346990,-0.020971,-11.687318,-1.743286,-6.557815,-0.058375,-0.075985,0.000000,0.136662,0.516422,-0.000000
2.510000,-0.333429,-0.265192,-1.403805,1.903474,0.520534,0.068162,0.683289,-0.551709,0.167903,-5.128897,1.326719,-0.088189,-11.080691,-2.303298,-6.881753,-0.057014,-0.070747,0.000000,0.135191,0.529054,-0.000000
2.520000,-0.314360,-0.260014,-1.403115,1.910051,0.515084,0.069836,0.631446,-0.538560,0.166677,-5.236538,1.300924,-0.158606,-10.428427,-2.692997,-7.190800,-0.055671,-0.065387,0.000000,0.133142,0.540937,0.000000
2.530000,-0.295228,-0.254891,-1.402408,1.916103,0.509763,0.071495,0.578559,-0.525691,0.164731,-5.337466,1.272859,-0.232005,-9.736601,-2.908332,-7.476067,-0.054351,-0.059912,0.000000,0.130848,0.552014,-0.000000
2.540000,-0.276038,-0.249819,-1.401685,1.921622,0.504570,0.073131,0.524697,-0.513103,0.162037,-5.431270,1.242757,-0.308127,-9.010373,-3.250829,-7.737976,-0.053054,-0.054331,0.000000,0.128328,0.562224,-0.000000
2.550000,-0.256795,-0.244799,-1.400946,1.926597,0.499501,0.074736,0.469933,-0.500836,0.158568,-5.517673,1.207843,-0.386764,-8.285355,-3.687106,-7.984079,-0.051785,-0.048652,0.000000,0.125295,0.571522,-0.000000
2.560000,-0.237506,-0.239829,-1.400190,1.931021,0.494553,0.076302,0.414343,-0.488946,0.154301,-5.596978,1.169015,-0.467809,-7.556372,-4.016831,-8.209557,-0.050548,-0.042885,0.000000,0.121837,0.579923,0.000000
2.570000,-0.218175,-0.234908,-1.399419,1.934884,0.489722,0.077822,0.357994,-0.477455,0.149212,-5.668801,1.127506,-0.550955,-6.719102,-4.403970,-8.386851,-0.049348,-0.037039,0.000000,0.118082,0.587374,-0.000000
2.580000,-0.198808,-0.230035,-1.398634,1.938181,0.485004,0.079287,0.300967,-0.466396,0.143282,-5.731360,1.080936,-0.635546,-5.769405,-4.927680,-8.511787,-0.048187,-0.031124,0.000000,0.113780,0.593677,0.000000
2.590000,-0.179411,-0.225208,-1.397834,1.940903,0.480394,0.080688,0.243366,-0.455837,0.136501,-5.784189,1.028952,-0.721191,-4.853837,-5.341803,-8.617816,-0.047073,-0.025153,0.000000,0.108894,0.598774,-0.000000
2.600000,-0.159990,-0.220427,-1.397020,1.943048,0.475887,0.082017,0.185283,-0.445817,0.128858,-5.828436,0.974100,-0.807902,-4.011777,-5.588528,-8.722166,-0.046009,-0.019136,0.000000,0.103691,0.602778,-0.000000
2.610000,-0.140550,-0.215690,-1.396193,1.944609,0.471478,0.083265,0.126798,-0.436355,0.120343,-5.864424,0.917182,-0.895634,-3.144827,-5.837145,-8.797826,-0.044999,-0.013085,0.000000,0.098253,0.605717,-0.000000
2.620000,-0.121098,-0.210997,-1.395355,1.945584,0.467160,0.084424,0.067995,-0.427474,0.110946,-5.891333,0.857357,-0.983859,-2.177883,-6.165873,-8.795248,-0.044044,-0.007010,0.000000,0.092497,0.607505,0.000000
2.630000,-0.101639,-0.206347,-1.394505,1.945969,0.462928,0.085484,0.008971,-0.419208,0.100666,-5.907982,0.793864,-1.071539,-1.147731,-6.502697,-8.717106,-0.043149,-0.000924,0.000000,0.086343,0.608020,-0.000000
2.640000,-0.082179,-0.201739,-1.393645,1.945763,0.458776,0.086437,-0.050165,-0.411596,0.089515,-5.914287,0.727303,-1.158201,-0.153991,-6.753596,-8.626503,-0.042317,0.005161,0.000000,0.079855,0.607260,-0.000000
2.650000,-0.062723,-0.197172,-1.392776,1.944966,0.454697,0.087274,-0.109315,-0.404662,0.077502,-5.911062,0.658792,-1.244069,0.809996,-7.007506,-8.548499,-0.041552,0.011231,0.000000,0.073157,0.605318,-0.000000
2.660000,-0.043279,-0.192645,-1.391900,1.943577,0.450683,0.087987,-0.168386,-0.398420,0.064634,-5.898088,0.587153,-1.329171,1.804346,-7.314203,-8.436983,-0.040854,0.017277,0.000000,0.066131,0.602180,0.000000
2.670000,-0.023852,-0.188158,-1.391016,1.941598,0.446728,0.088567,-0.227276,-0.392918,0.050919,-5.874975,0.512508,-1.412809,2.790387,-7.410712,-8.225869,-0.040229,0.023285,0.000000,0.058794,0.597821,0.000000
2.680000,-0.004447,-0.183710,-1.390128,1.939031,0.442824,0.089005,-0.285886,-0.388170,0.036377,-5.842280,0.438938,-1.493688,3.740011,-7.277519,-7.924602,-0.039678,0.029242,0.000000,0.051566,0.592316,-0.000000
2.690000,0.014929,-0.179301,-1.389236,1.935880,0.438965,0.089294,-0.344122,-0.384140,0.021045,-5.800175,0.366958,-1.571301,4.705368,-7.275109,-7.619364,-0.039198,0.035140,0.000000,0.044499,0.585705,0.000000
2.700000,0.034270,-0.174931,-1.388342,1.932149,0.435142,0.089426,-0.401889,-0.380831,0.004951,-5.748172,0.293436,-1.646075,5.703463,-7.366587,-7.340319,-0.038788,0.040965,0.000000,0.037281,0.577958,-0.000000
2.710000,0.053572,-0.170599,-1.387448,1.927843,0.431348,0.089393,-0.459085,-0.378271,-0.011877,-5.686105,0.219626,-1.718107,6.692265,-7.312085,-7.027366,-0.038452,0.046707,0.000000,0.030046,0.569081,-0.000000
2.720000,0.072827,-0.166304,-1.386554,1.922967,0.427576,0.089189,-0.515611,-0.376439,-0.029411,-5.614327,0.147195,-1.786623,7.632634,-7.304382,-6.605625,-0.038187,0.052355,0.000000,0.022963,0.559136,-0.000000
2.730000,0.092031,-0.162047,-1.385664,1.917530,0.423819,0.088805,-0.571372,-0.375327,-0.047609,-5.533453,0.073539,-1.850220,8.536508,-7.421609,-6.090956,-0.037993,0.057898,0.000000,0.015768,0.548220,-0.000000
2.740000,0.111178,-0.157828,-1.384778,1.911540,0.420070,0.088236,-0.626280,-0.374968,-0.066415,-5.443597,-0.001238,-1.908442,9.447414,-7.378697,-5.582826,-0.037872,0.063327,0.000000,0.008474,0.536375,0.000000
2.750000,0.130262,-0.153646,-1.383899,1.905005,0.416320,0.087477,-0.680244,-0.375352,-0.085778,-5.344504,-0.074035,-1.961877,10.350212,-7.230700,-5.109756,-0.037823,0.068633,0.000000,0.001399,0.523600,-0.000000
2.760000,0.149278,-0.149501,-1.383029,1.897935,0.412563,0.086521,-0.733170,-0.376449,-0.105653,-5.236593,-0.145852,-2.010637,11.213070,-7.164700,-4.605016,-0.037844,0.073806,0.000000,-0.005555,0.509965,0.000000
2.770000,0.168221,-0.145394,-1.382169,1.890341,0.408791,0.085364,-0.784976,-0.378269,-0.125991,-5.120243,-0.217329,-2.053977,12.074986,-6.920208,-4.003686,-0.037934,0.078840,0.000000,-0.012455,0.495539,0.000000
2.780000,0.187085,-0.141325,-1.381322,1.882235,0.404997,0.084001,-0.835575,-0.380795,-0.146732,-4.995093,-0.284256,-2.090711,12.942701,-6.419776,-3.326686,-0.038093,0.083724,0.000000,-0.018882,0.480324,-0.000000
2.790000,0.205865,-0.137294,-1.380489,1.873630,0.401175,0.082429,-0.884878,-0.383954,-0.167805,-4.861389,-0.345725,-2.120511,13.754598,-6.038894,-2.661553,-0.038312,0.088453,0.000000,-0.024752,0.464377,-0.000000
2.800000,0.224557,-0.133302,-1.379673,1.864538,0.397318,0.080645,-0.932803,-0.387710,-0.189142,-4.720001,-0.405034,-2.143942,14.520263,-5.831295,-2.030000,-0.038587,0.093019,0.000000,-0.030395,0.447805,-0.000000
2.810000,0.243156,-0.129348,-1.378876,1.854974,0.393421,0.078646,-0.979278,-0.392055,-0.210684,-4.570984,-0.462351,-2.161111,15.275892,-5.540795,-1.375822,-0.038919,0.097416,0.000000,-0.035829,0.430637,-0.000000
2.820000,0.261657,-0.125433,-1.378100,1.844952,0.389477,0.076431,-1.024223,-0.396957,-0.232365,-4.414483,-0.515850,-2.171458,15.965794,-5.127026,-0.654065,-0.039304,0.101639,0.000000,-0.040879,0.412915,0.000000
2.830000,0.280055,-0.121559,-1.377347,1.834489,0.385482,0.073999,-1.067567,-0.402372,-0.254113,-4.251668,-0.564891,-2.174192,16.565935,-4.690045,0.114864,-0.039737,0.105681,0.000000,-0.045489,0.394784,-0.000000
2.840000,0.298347,-0.117724,-1.376620,1.823601,0.381430,0.071349,-1.109256,-0.408254,-0.275848,-4.083165,-0.609650,-2.169161,17.152167,-4.264305,0.868079,-0.040214,0.109541,0.000000,-0.049683,0.376327,0.000000
