time,x,y,z,vx,vy,vz,ax,ay,az,jx,jy,jz,sx,sy,sz,roll,pitch,yaw,p,q,r
0.000000,-2.167185,-2.164953,-1.461608,-0.009444,0.001748,-0.001325,0.212136,-0.383316,-0.050624,-8.144050,9.579533,1.793294,231.470075,-122.940940,-42.833959,-0.038845,-0.021510,0.000000,0.962061,0.821004,-0.000000
0.010000,-2.167270,-2.164953,-1.461623,-0.007693,-0.001626,-0.001748,0.141654,-0.293315,-0.034719,-6.012091,8.455266,1.398696,195.563648,-102.291994,-36.201244,-0.029782,-0.014388,0.000000,0.853523,0.608252,-0.000000
0.020000,-2.167341,-2.164982,-1.461642,-0.006546,-0.004152,-0.002031,0.090761,-0.213560,-0.022440,-4.220273,7.526292,1.067016,163.408632,-83.863271,-30.244544,-0.021716,-0.009230,0.000000,0.762620,0.428080,-0.000000
0.030000,-2.167403,-2.165033,-1.461664,-0.005823,-0.005925,-0.002207,0.056237,-0.142210,-0.013191,-2.732075,6.770978,0.791669,134.806449,-67.541124,-24.928564,-0.014476,-0.005725,0.000000,0.687940,0.277625,-0.000000
0.040000,-2.167458,-2.165098,-1.461686,-0.005376,-0.007019,-0.002303,0.035222,-0.077630,-0.006440,-1.512963,6.168826,0.566426,109.558514,-53.211948,-20.217999,-0.007908,-0.003588,0.000000,0.627914,0.153912,-0.000000
0.050000,-2.167511,-2.165172,-1.461709,-0.005082,-0.007495,-0.002343,0.025190,-0.018388,-0.001715,-0.530386,5.700476,0.385407,87.466250,-40.761922,-16.077763,-0.001874,-0.002567,0.000000,0.580909,0.053955,0.000000
0.060000,-2.167560,-2.165246,-1.461733,-0.004843,-0.007400,-0.002343,0.023928,0.036764,0.001397,0.246219,5.347703,0.243087,68.331081,-30.077550,-12.472322,0.003748,-0.002440,0.000000,0.545289,-0.025162,-0.000000
0.070000,-2.167607,-2.165318,-1.461756,-0.004581,-0.006770,-0.002319,0.029523,0.088895,0.003258,0.845430,5.093419,0.134295,51.954419,-21.045125,-9.366497,0.009064,-0.003010,0.000000,0.519456,-0.086246,0.000000
0.080000,-2.167652,-2.165380,-1.461779,-0.004235,-0.005630,-0.002281,0.040334,0.138908,0.004179,1.293840,4.921672,0.054210,38.137667,-13.551006,-6.725015,0.014165,-0.004113,0.000000,0.501879,-0.131953,0.000000
0.090000,-2.167692,-2.165429,-1.461802,-0.003761,-0.003996,-0.002238,0.054979,0.187554,0.004423,1.616055,4.817649,-0.001636,26.682197,-7.481581,-4.512593,0.019125,-0.005607,0.000000,0.491109,-0.164774,-0.000000
0.100000,-2.167726,-2.165459,-1.461824,-0.003126,-0.001881,-0.002194,0.072311,0.235441,0.004213,1.834697,4.767673,-0.037353,17.389755,-2.722986,-2.693774,0.024005,-0.007374,0.000000,0.485792,-0.187011,0.000000
0.110000,-2.167754,-2.165465,-1.461846,-0.002309,0.000712,-0.002154,0.091397,0.283045,0.003731,1.970398,4.759199,-0.056705,10.061364,0.838205,-1.233526,0.028854,-0.009320,0.000000,0.484676,-0.200778,-0.000000
0.120000,-2.167772,-2.165443,-1.461867,-0.001295,0.003780,-0.002120,0.111504,0.330725,0.003122,2.041809,4.780824,-0.063100,4.498596,3.315740,-0.096473,0.033709,-0.011370,0.000000,0.486615,-0.207984,-0.000000
0.130000,-2.167779,-2.165388,-1.461888,-0.000077,0.007327,-0.002092,0.132075,0.378728,0.002502,2.065594,4.822281,-0.059594,0.502880,4.823299,0.752647,0.038593,-0.013466,0.000000,0.490573,-0.210337,0.000000
0.140000,-2.167773,-2.165295,-1.461909,0.001347,0.011356,-0.002070,0.152707,0.427206,0.001954,2.056429,4.874436,-0.048890,-2.124383,5.474581,1.349070,0.043524,-0.015568,0.000000,0.495624,-0.209341,-0.000000
0.150000,-2.167751,-2.165159,-1.461930,0.002976,0.015873,-0.002052,0.173136,0.476225,0.001540,2.027005,4.929297,-0.033338,-3.581883,5.383315,1.727995,0.048507,-0.017650,0.000000,0.500955,-0.206292,-0.000000
0.160000,-2.167712,-2.164975,-1.461950,0.004808,0.020883,-0.002038,0.193215,0.525778,0.001297,1.988029,4.979994,-0.014927,-4.067917,4.662230,1.925543,0.053542,-0.019696,0.000000,0.505865,-0.202281,0.000000
0.170000,-2.167654,-2.164739,-1.461970,0.006839,0.026390,-0.002026,0.212894,0.575792,0.001246,1.948222,5.020819,0.004687,-3.781296,3.426236,1.975906,0.058621,-0.021701,0.000000,0.509770,-0.198197,0.000000
0.180000,-2.167575,-2.164446,-1.461990,0.009065,0.032400,-0.002013,0.232199,0.626146,0.001391,1.914317,5.047180,0.024219,-2.920555,1.788479,1.914768,0.063732,-0.023669,0.000000,0.512199,-0.194720,-0.000000
0.190000,-2.167472,-2.164090,-1.462011,0.011482,0.038914,-0.001997,0.251216,0.676676,0.001727,1.891063,5.055628,0.042729,-1.684320,-0.137439,1.777341,0.068859,-0.025607,0.000000,0.512797,-0.192331,-0.000000
0.200000,-2.167345,-2.163666,-1.462030,0.014088,0.045933,-0.001978,0.270066,0.727191,0.002240,1.881223,5.043853,0.059631,-0.270885,-2.237514,1.599181,0.073981,-0.027529,0.000000,0.511327,-0.191307,0.000000
0.210000,-2.167190,-2.163169,-1.462050,0.016881,0.053458,-0.001951,0.287969,0.777890,0.003081,1.675275,5.103962,0.113142,-3.036248,-2.554476,2.175308,0.079121,-0.029355,0.000000,0.517484,-0.170482,-0.000000
0.220000,-2.167006,-2.162595,-1.462069,0.019849,0.061489,-0.001916,0.306557,0.827893,0.003959,2.168903,4.838066,0.039404,64.991478,-34.319196,-10.202082,0.084186,-0.031252,0.000000,0.489406,-0.220307,-0.000000
0.230000,-2.166792,-2.161938,-1.462088,0.023029,0.070006,-0.001875,0.329543,0.875397,0.004201,2.203026,4.759999,0.050218,-59.328337,19.220019,12.575204,0.088987,-0.033594,0.000000,0.481107,-0.223695,0.000000
0.240000,-2.166545,-2.161193,-1.462107,0.026424,0.079002,-0.001828,0.348623,0.923925,0.005329,1.725788,4.892701,0.154943,0.982337,-9.134281,1.584251,0.093897,-0.035542,0.000000,0.495208,-0.175579,-0.000000
0.250000,-2.166263,-2.160356,-1.462125,0.030000,0.088482,-0.001767,0.366902,0.971937,0.006781,1.907318,4.717305,0.139518,-1.679828,-9.522863,2.093159,0.098753,-0.037409,0.000000,0.476870,-0.193871,-0.000000
0.260000,-2.165945,-2.159422,-1.462142,0.033764,0.098436,-0.001692,0.385868,1.018709,0.008280,1.884630,4.637535,0.160363,-2.088336,-10.448982,2.151142,0.103480,-0.039347,0.000000,0.468626,-0.191591,-0.000000
0.270000,-2.165587,-2.158386,-1.462159,0.037717,0.108853,-0.001601,0.404644,1.064331,0.009996,1.872625,4.471489,0.183208,-1.061087,-18.839324,2.340335,0.108090,-0.041267,0.000000,0.451737,-0.190412,-0.000000
0.280000,-2.165190,-2.157244,-1.462174,0.041857,0.119717,-0.001492,0.423271,1.108293,0.011942,1.847702,4.343074,0.205542,-3.946407,-6.708585,2.121562,0.112531,-0.043173,0.000000,0.438691,-0.187935,0.000000
0.290000,-2.164750,-2.155990,-1.462188,0.046181,0.131016,-0.001362,0.441546,1.151369,0.014104,1.808850,4.258497,0.227108,-3.067354,-14.140154,2.264863,0.116881,-0.045044,0.000000,0.430093,-0.184058,-0.000000
0.300000,-2.164265,-2.154622,-1.462201,0.050686,0.142740,-0.001209,0.459495,1.193128,0.016490,1.779983,4.094053,0.250139,-3.456082,-14.800911,2.262879,0.121099,-0.046884,0.000000,0.413520,-0.181211,-0.000000
0.310000,-2.163735,-2.153134,-1.462213,0.055370,0.154874,-0.001031,0.477141,1.233338,0.019101,1.749398,3.947426,0.271866,-3.667055,-15.521816,2.231222,0.125161,-0.048695,0.000000,0.398775,-0.178198,0.000000
0.320000,-2.163157,-2.151523,-1.462222,0.060228,0.167402,-0.000826,0.494394,1.271971,0.021938,1.697419,3.774576,0.296095,-5.745346,-18.054588,2.464762,0.129064,-0.050467,0.000000,0.381496,-0.173049,0.000000
0.330000,-2.162530,-2.149785,-1.462229,0.065256,0.180307,-0.000591,0.511129,1.308855,0.025014,1.655142,3.607180,0.318018,-2.675556,-15.381391,1.912306,0.132793,-0.052189,0.000000,0.364786,-0.168884,0.000000
0.340000,-2.161852,-2.147916,-1.462234,0.070449,0.193573,-0.000325,0.527542,1.344148,0.028289,1.624160,3.447356,0.337249,-4.506222,-17.561167,2.079076,0.136363,-0.053879,0.000000,0.348841,-0.165859,-0.000000
0.350000,-2.161121,-2.145912,-1.462235,0.075805,0.207184,-0.000025,0.543529,1.377709,0.031768,1.573499,3.264605,0.358279,-4.635902,-17.990302,1.976067,0.139761,-0.055528,0.000000,0.330690,-0.160869,-0.000000
0.360000,-2.160335,-2.143771,-1.462234,0.081318,0.221122,0.000311,0.559037,1.409451,0.035443,1.528049,3.083161,0.376562,-4.769793,-18.400748,1.845508,0.142978,-0.057131,0.000000,0.312677,-0.156403,0.000000
0.370000,-2.159494,-2.141489,-1.462229,0.086984,0.235367,0.000685,0.574060,1.439350,0.039308,1.475239,2.895767,0.396675,-5.478440,-18.957141,2.011118,0.146013,-0.058686,0.000000,0.294151,-0.151217,-0.000000
0.380000,-2.158595,-2.139063,-1.462220,0.092798,0.249902,0.001098,0.588553,1.467361,0.043364,1.425063,2.706545,0.413304,-4.543322,-18.873351,1.306830,0.148861,-0.060189,0.000000,0.275434,-0.146288,0.000000
0.390000,-2.157637,-2.136490,-1.462207,0.098754,0.264708,0.001552,0.602575,1.493479,0.047560,1.378171,2.516275,0.426053,-5.144756,-19.281974,1.404866,0.151521,-0.061646,0.000000,0.256592,-0.141676,0.000000
0.400000,-2.156619,-2.133768,-1.462189,0.104848,0.279765,0.002049,0.616090,1.517671,0.051892,1.324890,2.322043,0.439951,-5.195704,-19.443650,1.207991,0.153991,-0.063052,0.000000,0.237413,-0.136436,-0.000000
0.410000,-2.155540,-2.130894,-1.462166,0.111074,0.295055,0.002591,0.629079,1.539916,0.056345,1.272963,2.126718,0.450283,-5.241382,-19.562019,0.991664,0.156269,-0.064408,0.000000,0.218100,-0.131316,0.000000
0.420000,-2.154397,-2.127866,-1.462137,0.117428,0.310557,0.003177,0.641543,1.560207,0.060901,1.219617,1.931443,0.460986,-5.371840,-19.533048,1.015316,0.158354,-0.065711,0.000000,0.198827,-0.126062,0.000000
0.430000,-2.153191,-2.124682,-1.462102,0.123903,0.326253,0.003809,0.653473,1.578541,0.065551,1.166699,1.735202,0.467784,-5.207407,-19.708225,0.338110,0.160245,-0.066961,0.000000,0.179417,-0.120830,-0.000000
0.440000,-2.151919,-2.121340,-1.462061,0.130495,0.342121,0.004488,0.664880,1.594908,0.070242,1.114444,1.538427,0.470375,-5.294748,-19.589773,0.311330,0.161941,-0.068159,0.000000,0.159902,-0.115640,0.000000
0.450000,-2.150581,-2.117839,-1.462012,0.137199,0.358144,0.005214,0.675758,1.609316,0.074960,1.061304,1.343143,0.472851,-5.277178,-19.508579,0.049806,0.163444,-0.069304,0.000000,0.140546,-0.110361,-0.000000
0.460000,-2.149175,-2.114177,-1.461956,0.144009,0.374301,0.005987,0.686108,1.621772,0.079685,1.008583,1.148372,0.471648,-5.251349,-19.386093,-0.219164,0.164752,-0.070396,0.000000,0.121188,-0.105099,-0.000000
0.470000,-2.147700,-2.110353,-1.461892,0.150919,0.390573,0.006807,0.695932,1.632292,0.084390,0.956439,0.956042,0.469113,-5.188614,-19.123844,-0.358938,0.165868,-0.071435,0.000000,0.102052,-0.099885,-0.000000
0.480000,-2.146156,-2.106365,-1.461820,0.157926,0.406941,0.007675,0.705237,1.640897,0.089055,0.904573,0.764960,0.462980,-5.183305,-19.087844,-0.870517,0.166794,-0.072421,0.000000,0.082979,-0.094672,-0.000000
0.490000,-2.144541,-2.102214,-1.461739,0.165022,0.423385,0.008588,0.714025,1.647596,0.093637,0.853069,0.575439,0.453115,-5.103015,-18.758735,-1.031864,0.167528,-0.073355,0.000000,0.063993,-0.089464,0.000000
0.500000,-2.142855,-2.097897,-1.461648,0.172204,0.439886,0.009547,0.722302,1.652419,0.098113,0.802431,0.389464,0.441741,-5.036454,-18.481410,-1.313930,0.168075,-0.074236,0.000000,0.045325,-0.084328,0.000000
0.510000,-2.141097,-2.093416,-1.461548,0.179467,0.456427,0.010550,0.730075,1.655393,0.102460,0.752246,0.206016,0.427224,-4.965488,-18.170745,-1.590402,0.168435,-0.075066,0.000000,0.026843,-0.079209,-0.000000
0.520000,-2.139266,-2.088769,-1.461437,0.186804,0.472988,0.011596,0.737352,1.656552,0.106649,0.703455,0.026449,0.409931,-4.824638,-17.768718,-1.866355,0.168613,-0.075844,0.000000,0.008684,-0.074204,-0.000000
0.530000,-2.137361,-2.083956,-1.461315,0.194212,0.489552,0.012682,0.744145,1.655933,0.110650,0.655080,-0.149911,0.389938,-4.850613,-17.499563,-2.131169,0.168610,-0.076571,0.000000,-0.009217,-0.069214,-0.000000
0.540000,-2.135381,-2.078978,-1.461183,0.201685,0.506101,0.013808,0.750455,1.653565,0.114439,0.607124,-0.322822,0.367303,-4.706484,-17.046747,-2.395828,0.168429,-0.077248,0.000000,-0.026836,-0.064239,-0.000000
0.550000,-2.133327,-2.073834,-1.461039,0.209220,0.522618,0.014970,0.756293,1.649493,0.117987,0.560675,-0.491026,0.342066,-4.615518,-16.621296,-2.649595,0.168074,-0.077875,0.000000,-0.044050,-0.059388,0.000000
0.560000,-2.131197,-2.068525,-1.460884,0.216810,0.539085,0.016167,0.761669,1.643758,0.121273,0.514749,-0.655112,0.314716,-4.524494,-16.172209,-2.886189,0.167549,-0.078453,0.000000,-0.060907,-0.054565,0.000000
0.570000,-2.128990,-2.063053,-1.460716,0.224451,0.555488,0.017395,0.766595,1.636407,0.124269,0.470604,-0.814215,0.283759,-4.347668,-15.664017,-3.237626,0.166858,-0.078982,0.000000,-0.077347,-0.049887,-0.000000
0.580000,-2.126707,-2.057416,-1.460536,0.232140,0.571808,0.018651,0.771083,1.627489,0.126944,0.426886,-0.968729,0.251384,-4.397245,-15.236280,-3.232834,0.166004,-0.079464,0.000000,-0.093369,-0.045232,-0.000000
0.590000,-2.124347,-2.051617,-1.460343,0.239872,0.588032,0.019933,0.775133,1.617049,0.129293,0.383542,-1.118490,0.217823,-4.227603,-14.693504,-3.543139,0.164992,-0.079899,0.000000,-0.108951,-0.040598,0.000000
0.600000,-2.121910,-2.045656,-1.460137,0.247641,0.604144,0.021236,0.778760,1.605138,0.131289,0.341961,-1.262709,0.181138,-4.132481,-14.167161,-3.725101,0.163826,-0.080288,0.000000,-0.124046,-0.036110,0.000000
0.610000,-2.119394,-2.039534,-1.459918,0.255446,0.620130,0.022557,0.781973,1.591811,0.132914,0.300828,-1.401797,0.143659,-4.041637,-13.627009,-3.881679,0.162512,-0.080632,0.000000,-0.138650,-0.031654,0.000000
0.620000,-2.116801,-2.033254,-1.459686,0.263280,0.635976,0.023893,0.784784,1.577122,0.134148,0.261595,-1.535013,0.102515,-3.855287,-13.034527,-4.233360,0.161055,-0.080930,0.000000,-0.152737,-0.027354,0.000000
0.630000,-2.114129,-2.026815,-1.459440,0.271140,0.651668,0.025239,0.787206,1.561129,0.134965,0.222666,-1.662878,0.061381,-3.932593,-12.537433,-3.986610,0.159459,-0.081186,0.000000,-0.166291,-0.023079,0.000000
0.640000,-2.111378,-2.020221,-1.459181,0.279022,0.667194,0.026591,0.789237,1.543883,0.135378,0.183949,-1.785316,0.020608,-3.760562,-11.928090,-4.276414,0.157731,-0.081398,0.000000,-0.179298,-0.018824,0.000000
0.650000,-2.108548,-2.013472,-1.458908,0.286923,0.682542,0.027945,0.790892,1.525443,0.135366,0.147019,-1.901592,-0.023127,-3.676646,-11.346062,-4.355778,0.155875,-0.081568,0.000000,-0.191733,-0.014721,0.000000
0.660000,-2.105639,-2.006571,-1.458622,0.294839,0.697700,0.029297,0.792178,1.505869,0.134919,0.110378,-2.012291,-0.066281,-3.598483,-10.759910,-4.406045,0.153898,-0.081696,0.000000,-0.203594,-0.010648,-0.000000
0.670000,-2.102651,-1.999519,-1.458322,0.302766,0.712656,0.030642,0.793106,1.485220,0.134028,0.075531,-2.116473,-0.112414,-3.423383,-10.107724,-4.686264,0.151806,-0.081784,0.000000,-0.214838,-0.006730,0.000000
0.680000,-2.099584,-1.992318,-1.458009,0.310700,0.727401,0.031976,0.793689,1.463558,0.132676,0.040809,-2.215104,-0.157192,-3.523189,-9.618989,-4.261523,0.149604,-0.081832,0.000000,-0.225491,-0.002834,0.000000
0.690000,-2.096437,-1.984971,-1.457683,0.318638,0.741924,0.033294,0.793922,1.440936,0.130891,0.006107,-2.308204,-0.200212,-3.365370,-8.968847,-4.470763,0.147298,-0.081841,0.000000,-0.235545,0.001047,-0.000000
0.700000,-2.093211,-1.977480,-1.457343,0.326577,0.756216,0.034592,0.793817,1.417416,0.128662,-0.026963,-2.394747,-0.245417,-3.300618,-8.372621,-4.434689,0.144895,-0.081812,0.000000,-0.244955,0.004780,-0.000000
0.710000,-2.089906,-1.969848,-1.456991,0.334514,0.770269,0.035866,0.793383,1.393059,0.125990,-0.059919,-2.475760,-0.288818,-3.241369,-7.781416,-4.370591,0.142401,-0.081745,0.000000,-0.253760,0.008486,-0.000000
0.720000,-2.086521,-1.962076,-1.456626,0.342444,0.784075,0.037110,0.792625,1.367925,0.122878,-0.091344,-2.549935,-0.333941,-3.092573,-7.101619,-4.525557,0.139822,-0.081641,0.000000,-0.261877,0.012050,0.000000
0.730000,-2.083057,-1.954167,-1.456249,0.350365,0.797625,0.038322,0.791555,1.342077,0.119320,-0.122797,-2.618801,-0.376636,-3.200176,-6.673733,-4.006101,0.137165,-0.081501,0.000000,-0.269397,0.015593,0.000000
0.740000,-2.079514,-1.946124,-1.455860,0.358274,0.810914,0.039495,0.790168,1.315566,0.115355,-0.154381,-2.682469,-0.416521,-3.068360,-6.013119,-4.093524,0.134436,-0.081326,0.000000,-0.276325,0.019124,-0.000000
0.750000,-2.075892,-1.937950,-1.455459,0.366167,0.823935,0.040627,0.788473,1.288451,0.110984,-0.184586,-2.739489,-0.457371,-3.022291,-5.439993,-3.947364,0.131641,-0.081116,0.000000,-0.282567,0.022518,-0.000000
0.760000,-2.072191,-1.929646,-1.455047,0.374042,0.836681,0.041714,0.786476,1.260792,0.106218,-0.214802,-2.791385,-0.495510,-2.980820,-4.878530,-3.778690,0.128787,-0.080872,0.000000,-0.288224,0.025887,-0.000000
0.770000,-2.068411,-1.921217,-1.454625,0.381896,0.849149,0.042751,0.784182,1.232647,0.101072,-0.243838,-2.836518,-0.533817,-2.866250,-4.209773,-3.781319,0.125879,-0.080594,0.000000,-0.293170,0.029132,-0.000000
0.780000,-2.064553,-1.912664,-1.454193,0.389725,0.861333,0.043734,0.781599,1.204077,0.095553,-0.272962,-2.876878,-0.569014,-2.960056,-3.865787,-3.252283,0.122925,-0.080284,0.000000,-0.297561,0.032354,0.000000
0.790000,-2.060616,-1.903991,-1.453751,0.397527,0.873229,0.044661,0.778722,1.175124,0.089704,-0.302250,-2.912651,-0.600799,-2.858099,-3.229835,-3.201510,0.119929,-0.079942,0.000000,-0.301415,0.035559,0.000000
0.800000,-2.056602,-1.895201,-1.453300,0.405299,0.884834,0.045527,0.775558,1.145847,0.083537,-0.330471,-2.942031,-0.632144,-2.825628,-2.708747,-2.966794,0.116899,-0.079569,0.000000,-0.304587,0.038646,0.000000
0.810000,-2.052511,-1.886296,-1.452840,0.413037,0.896145,0.046330,0.772112,1.116298,0.077072,-0.358686,-2.966920,-0.660277,-2.794406,-2.203628,-2.718248,0.113839,-0.079164,0.000000,-0.307238,0.041699,-0.000000
0.820000,-2.048342,-1.877279,-1.452373,0.420740,0.907160,0.047068,0.768387,1.086530,0.070335,-0.386150,-2.985527,-0.687025,-2.720967,-1.585522,-2.570548,0.110757,-0.078729,0.000000,-0.309210,0.044657,-0.000000
0.830000,-2.044096,-1.868153,-1.451899,0.428404,0.917875,0.047736,0.764389,1.056600,0.063343,-0.413577,-3.000050,-0.710417,-2.765221,-1.323502,-2.104345,0.107657,-0.078266,0.000000,-0.310704,0.047578,-0.000000
0.840000,-2.039774,-1.858922,-1.451419,0.436027,0.928291,0.048334,0.760115,1.026542,0.056139,-0.441001,-3.010721,-0.730269,-2.696911,-0.746960,-1.923821,0.104544,-0.077772,0.000000,-0.311745,0.050462,-0.000000
0.850000,-2.035376,-1.849589,-1.450933,0.443605,0.938406,0.048858,0.755572,0.996406,0.048743,-0.467706,-3.015600,-0.748362,-2.666457,-0.297256,-1.634447,0.101424,-0.077251,0.000000,-0.312162,0.053253,-0.000000
0.860000,-2.030902,-1.840155,-1.450442,0.451137,0.948219,0.049308,0.750761,0.966241,0.041183,-0.494310,-3.016715,-0.763166,-2.636110,0.134025,-1.340609,0.098302,-0.076702,0.000000,-0.312145,0.056001,-0.000000
0.870000,-2.026353,-1.830625,-1.449947,0.458620,0.957731,0.049681,0.745688,0.936091,0.033488,-0.520274,-3.012407,-0.775300,-2.572658,0.665143,-1.070423,0.095183,-0.076126,0.000000,-0.311537,0.058656,-0.000000
0.880000,-2.021730,-1.821002,-1.449448,0.466050,0.966941,0.049977,0.740356,0.906004,0.025688,-0.546097,-3.004722,-0.784247,-2.592263,0.867130,-0.717840,0.092073,-0.075524,0.000000,-0.310544,0.061266,0.000000
0.890000,-2.017032,-1.811287,-1.448947,0.473426,0.975851,0.050195,0.734766,0.876007,0.017814,-0.571782,-2.993908,-0.789954,-2.527719,1.353500,-0.438597,0.088973,-0.074896,0.000000,-0.309194,0.063831,0.000000
0.900000,-2.012261,-1.801486,-1.448445,0.480745,0.984462,0.050334,0.728923,0.846143,0.009897,-0.596782,-2.978219,-0.792886,-2.488022,1.721032,-0.132824,0.085891,-0.074242,0.000000,-0.307321,0.066300,0.000000
0.910000,-2.007417,-1.791599,-1.447941,0.488004,0.992775,0.050393,0.722832,0.816452,0.001966,-0.621375,-2.959494,-0.792837,-2.442268,2.070180,0.168326,0.082828,-0.073565,0.000000,-0.305112,0.068700,-0.000000
0.920000,-2.002501,-1.781631,-1.447437,0.495200,1.000792,0.050373,0.716496,0.786969,-0.005947,-0.645728,-2.936420,-0.789289,-2.415660,2.494328,0.515665,0.079790,-0.072864,0.000000,-0.302434,0.071046,-0.000000
0.930000,-1.997514,-1.771584,-1.446934,0.502333,1.008515,0.050274,0.709919,0.757732,-0.013811,-0.669420,-2.910664,-0.783062,-2.321464,2.652599,0.728226,0.076780,-0.072140,0.000000,-0.299467,0.073302,-0.000000
0.940000,-1.992455,-1.761462,-1.446432,0.509398,1.015947,0.050097,0.703110,0.728763,-0.021600,-0.692385,-2.882460,-0.774233,-2.282950,3.033379,1.061986,0.073801,-0.071394,0.000000,-0.296239,0.075463,0.000000
0.950000,-1.987326,-1.751266,-1.445932,0.516394,1.023091,0.049842,0.696073,0.700096,-0.029284,-0.714951,-2.850462,-0.762060,-2.217745,3.315693,1.346408,0.070857,-0.070627,0.000000,-0.292613,0.077558,-0.000000
0.960000,-1.982127,-1.741001,-1.445435,0.523319,1.029950,0.049512,0.688814,0.671761,-0.036834,-0.736619,-2.816121,-0.747516,-2.144357,3.580991,1.618596,0.067950,-0.069839,0.000000,-0.288745,0.079544,0.000000
0.970000,-1.976860,-1.730668,-1.444942,0.530170,1.036528,0.049106,0.681341,0.643785,-0.044220,-0.758088,-2.778611,-0.729188,-2.119777,3.887931,1.989642,0.065083,-0.069032,0.000000,-0.284546,0.081483,0.000000
0.980000,-1.971524,-1.720271,-1.444453,0.536945,1.042827,0.048628,0.673657,0.616196,-0.051411,-0.778391,-2.739051,-0.708927,-1.938763,4.020355,2.058995,0.062260,-0.068206,0.000000,-0.280146,0.083293,0.000000
0.990000,-1.966121,-1.709813,-1.443970,0.543642,1.048853,0.048079,0.665777,0.589010,-0.058394,-0.797419,-2.697647,-0.686915,-1.894532,4.288355,2.398001,0.059481,-0.067364,0.000000,-0.275568,0.084964,-0.000000
1.000000,-1.960652,-1.699295,-1.443492,0.550260,1.054609,0.047461,0.657709,0.562252,-0.065137,-0.816013,-2.653598,-0.661489,-1.794085,4.488427,2.629313,0.056749,-0.066504,0.000000,-0.270725,0.086570,0.000000
1.010000,-1.955116,-1.688721,-1.443021,0.556796,1.060099,0.046777,0.649462,0.535943,-0.071619,-0.833263,-2.607842,-0.634498,-1.684489,4.673153,2.843064,0.054067,-0.065630,0.000000,-0.265723,0.088035,-0.000000
1.020000,-1.949516,-1.678094,-1.442557,0.563248,1.065329,0.046029,0.641045,0.510102,-0.077814,-0.849953,-2.560069,-0.603969,-1.623039,4.866280,3.186246,0.051435,-0.064741,0.000000,-0.260524,0.089425,-0.000000
1.030000,-1.943852,-1.667416,-1.442101,0.569616,1.070303,0.045222,0.632468,0.484747,-0.083695,-0.865087,-2.510830,-0.572380,-1.401671,4.978580,3.126848,0.048857,-0.063840,0.000000,-0.255199,0.090657,0.000000
1.040000,-1.938124,-1.656689,-1.441653,0.575897,1.075026,0.044357,0.623749,0.459890,-0.089260,-0.878546,-2.460295,-0.539981,-1.318027,5.138547,3.425317,0.046332,-0.062927,0.000000,-0.249765,0.091723,0.000000
1.050000,-1.932334,-1.645916,-1.441214,0.582091,1.079503,0.043438,0.614900,0.435546,-0.094484,-0.891173,-2.408220,-0.504557,-1.176499,5.261825,3.581549,0.043862,-0.062003,0.000000,-0.244190,0.092693,0.000000
1.060000,-1.926482,-1.635100,-1.440784,0.588195,1.083738,0.042468,0.605933,0.411729,-0.099350,-0.901941,-2.355050,-0.468463,-1.023081,5.371165,3.717078,0.041448,-0.061072,0.000000,-0.238529,0.093480,0.000000
1.070000,-1.920570,-1.624242,-1.440364,0.594209,1.087739,0.041452,0.596862,0.388449,-0.103842,-0.912043,-2.300832,-0.429510,-0.949965,5.468580,3.990698,0.039092,-0.060132,0.000000,-0.232780,0.094192,0.000000
1.080000,-1.914599,-1.613346,-1.439955,0.600132,1.091509,0.040393,0.587699,0.365715,-0.107940,-0.919946,-2.245754,-0.390389,-0.627764,5.544662,3.828155,0.036793,-0.059187,0.000000,-0.226972,0.094691,-0.000000
1.090000,-1.908568,-1.602413,-1.439557,0.605963,1.095055,0.039294,0.578471,0.343536,-0.111651,-0.925502,-2.189959,-0.351381,-0.528612,5.613328,4.051502,0.034552,-0.058238,0.000000,-0.221120,0.094966,0.000000
1.100000,-1.902480,-1.591445,-1.439169,0.611701,1.098382,0.038161,0.569192,0.321918,-0.114958,-0.930095,-2.133541,-0.310099,-0.342370,5.666260,4.120826,0.032371,-0.057287,0.000000,-0.215224,0.095142,-0.000000
1.110000,-1.896334,-1.580446,-1.438794,0.617347,1.101495,0.036997,0.559878,0.300867,-0.117854,-0.932310,-2.076651,-0.269021,-0.146021,5.705929,4.169357,0.030248,-0.056335,0.000000,-0.209308,0.095091,0.000000
1.120000,-1.890133,-1.569416,-1.438429,0.622899,1.104401,0.035805,0.550548,0.280386,-0.120331,-0.933418,-2.019500,-0.226057,-0.029029,5.725550,4.345579,0.028185,-0.055384,0.000000,-0.203387,0.094929,-0.000000
1.130000,-1.883877,-1.558358,-1.438077,0.628358,1.107105,0.034591,0.541219,0.260478,-0.122378,-0.931917,-1.962110,-0.183744,0.331714,5.750340,4.111870,0.026180,-0.054437,0.000000,-0.197468,0.094521,0.000000
1.140000,-1.877566,-1.547275,-1.437738,0.633723,1.109613,0.033359,0.531920,0.241144,-0.124010,-0.927674,-1.904606,-0.142355,0.472463,5.744752,4.238901,0.024235,-0.053494,0.000000,-0.191565,0.093854,0.000000
1.150000,-1.871202,-1.536167,-1.437410,0.638996,1.111930,0.032113,0.522669,0.222385,-0.125219,-0.922056,-1.847230,-0.099665,0.697486,5.732305,4.220819,0.022349,-0.052559,0.000000,-0.185693,0.093054,-0.000000
1.160000,-1.864786,-1.525037,-1.437095,0.644177,1.114062,0.030856,0.513488,0.204199,-0.126007,-0.913710,-1.790015,-0.057944,0.930494,5.707419,4.184285,0.020521,-0.051634,0.000000,-0.179861,0.091996,0.000000
1.170000,-1.858319,-1.513886,-1.436793,0.649266,1.116016,0.029594,0.504399,0.186584,-0.126375,-0.903814,-1.733133,-0.015446,1.090558,5.668146,4.251038,0.018751,-0.050719,0.000000,-0.174080,0.090789,0.000000
1.180000,-1.851801,-1.502717,-1.436504,0.654265,1.117796,0.028330,0.495422,0.169535,-0.126321,-0.891023,-1.676669,0.025728,1.469717,5.622708,3.979319,0.017039,-0.049818,0.000000,-0.168363,0.089309,-0.000000
1.190000,-1.845234,-1.491531,-1.436227,0.659175,1.119408,0.027069,0.486589,0.153049,-0.125866,-0.875231,-1.620741,0.065341,1.648146,5.559833,4.003196,0.015384,-0.048934,0.000000,-0.162719,0.087546,0.000000
1.200000,-1.838618,-1.480329,-1.435962,0.663997,1.120859,0.025814,0.477922,0.137118,-0.125012,-0.857697,-1.565501,0.105215,1.900461,5.487265,3.906945,0.013785,-0.048068,0.000000,-0.157160,0.085615,-0.000000
1.210000,-1.831955,-1.469114,-1.435710,0.668734,1.122152,0.024570,0.469445,0.121736,-0.123767,-0.837238,-1.511076,0.143529,2.158238,5.402605,3.796924,0.012240,-0.047222,0.000000,-0.151698,0.083407,0.000000
1.220000,-1.825244,-1.457887,-1.435471,0.673387,1.123295,0.023340,0.461184,0.106894,-0.122142,-0.814813,-1.457422,0.181524,2.358302,5.319679,3.756816,0.010750,-0.046400,0.000000,-0.146326,0.081010,0.000000
1.230000,-1.818487,-1.446649,-1.435243,0.677959,1.124292,0.022128,0.453159,0.092584,-0.120143,-0.789411,-1.404859,0.217718,2.723480,5.190831,3.478727,0.009314,-0.045603,0.000000,-0.141077,0.078329,0.000000
1.240000,-1.811685,-1.435401,-1.435028,0.682451,1.125148,0.020938,0.445406,0.078793,-0.117794,-0.760969,-1.353505,0.251935,2.933638,5.085027,3.406378,0.007928,-0.044834,0.000000,-0.135961,0.075358,-0.000000
1.250000,-1.804838,-1.424146,-1.434825,0.686868,1.125870,0.019773,0.437946,0.065510,-0.115106,-0.730470,-1.303252,0.285436,3.197722,4.957320,3.249204,0.006594,-0.044096,0.000000,-0.130965,0.072187,0.000000
1.260000,-1.797948,-1.412884,-1.434633,0.691211,1.126460,0.018637,0.430806,0.052723,-0.112092,-0.697087,-1.254460,0.316988,3.461708,4.817947,3.082700,0.005309,-0.043392,0.000000,-0.126123,0.068738,0.000000
1.270000,-1.791014,-1.401617,-1.434452,0.695485,1.126926,0.017533,0.424012,0.040417,-0.108770,-0.661396,-1.206756,0.347272,3.692900,4.703358,2.950348,0.004071,-0.042722,0.000000,-0.121397,0.065065,-0.000000
1.280000,-1.784038,-1.390346,-1.434282,0.699693,1.127270,0.016463,0.417588,0.028582,-0.105154,-0.622886,-1.160801,0.375500,4.009149,4.485517,2.693163,0.002880,-0.042091,0.000000,-0.116852,0.061118,-0.000000
1.290000,-1.777021,-1.379072,-1.434122,0.703838,1.127499,0.015430,0.411564,0.017195,-0.101267,-0.581557,-1.116713,0.401563,4.239590,4.348619,2.540999,0.001733,-0.041501,0.000000,-0.112499,0.056896,0.000000
1.300000,-1.769962,-1.367797,-1.433973,0.707925,1.127616,0.014438,0.405964,0.006243,-0.097127,-0.537962,-1.074010,0.426109,4.495215,4.172449,2.344566,0.000630,-0.040954,0.000000,-0.108288,0.052450,-0.000000
1.310000,-1.762862,-1.356520,-1.433833,0.711959,1.127625,0.013489,0.400813,-0.004292,-0.092752,-0.491750,-1.033328,0.448545,4.745706,3.986362,2.143920,-0.000433,-0.040453,0.000000,-0.104283,0.047746,-0.000000
1.320000,-1.755723,-1.345244,-1.433703,0.715943,1.127531,0.012584,0.396137,-0.014428,-0.088163,-0.443073,-0.994089,0.468993,4.989606,3.837035,1.942906,-0.001456,-0.040000,0.000000,-0.100423,0.042798,0.000000
1.330000,-1.748544,-1.333970,-1.433582,0.719883,1.127338,0.011726,0.391960,-0.024182,-0.083380,-0.391959,-0.957099,0.487348,5.232285,3.559081,1.727466,-0.002442,-0.039598,0.000000,-0.096789,0.037608,0.000000
1.340000,-1.741325,-1.322698,-1.433468,0.723784,1.127049,0.010917,0.388306,-0.033578,-0.078423,-0.338466,-0.922462,0.503576,5.464202,3.390659,1.520055,-0.003393,-0.039249,0.000000,-0.093391,0.032179,0.000000
1.350000,-1.734068,-1.311429,-1.433363,0.727651,1.126667,0.010158,0.385198,-0.042636,-0.073315,-0.282698,-0.889510,0.517721,5.689722,3.175804,1.307001,-0.004311,-0.038955,0.000000,-0.090161,0.026521,0.000000
1.360000,-1.726772,-1.300165,-1.433265,0.731490,1.126197,0.009451,0.382659,-0.051377,-0.068076,-0.224780,-0.858995,0.529813,5.905762,2.953600,1.095238,-0.005197,-0.038719,0.000000,-0.087175,0.020646,-0.000000
1.370000,-1.719438,-1.288906,-1.433174,0.735306,1.125641,0.008797,0.380711,-0.059821,-0.062727,-0.164489,-0.830203,0.539478,6.137772,2.777399,0.853489,-0.006055,-0.038543,0.000000,-0.084359,0.014532,-0.000000
1.380000,-1.712066,-1.277652,-1.433089,0.739106,1.125001,0.008197,0.379375,-0.067990,-0.057292,-0.102329,-0.804023,0.547212,6.292301,2.456937,0.694012,-0.006885,-0.038429,0.000000,-0.081804,0.008226,0.000000
1.390000,-1.704656,-1.266406,-1.433010,0.742896,1.124282,0.007651,0.378670,-0.075911,-0.051789,-0.038416,-0.780539,0.553049,6.501411,2.266289,0.457892,-0.007692,-0.038379,0.000000,-0.079517,0.001740,-0.000000
1.400000,-1.697208,-1.255167,-1.432936,0.746682,1.123484,0.007161,0.378614,-0.083606,-0.046240,0.027551,-0.758938,0.556515,6.677088,2.026484,0.251157,-0.008476,-0.038395,0.000000,-0.077415,-0.004957,-0.000000
1.410000,-1.689723,-1.243937,-1.432866,0.750470,1.122610,0.006727,0.379225,-0.091099,-0.040665,0.094969,-0.740022,0.558166,6.837959,1.782601,0.049827,-0.009241,-0.038478,0.000000,-0.075581,-0.011804,-0.000000
1.420000,-1.682199,-1.232715,-1.432801,0.754269,1.121663,0.006348,0.380521,-0.098413,-0.035085,0.164576,-0.723050,0.557251,7.048838,1.585987,-0.203225,-0.009988,-0.038632,0.000000,-0.073939,-0.018875,0.000000
1.430000,-1.674637,-1.221504,-1.432739,0.758083,1.120643,0.006025,0.382520,-0.105569,-0.029525,0.235220,-0.708846,0.554723,7.076645,1.253876,-0.300543,-0.010721,-0.038856,0.000000,-0.072571,-0.026056,0.000000
1.440000,-1.667037,-1.210302,-1.432680,0.761921,1.119552,0.005757,0.385228,-0.112599,-0.023996,0.306720,-0.697456,0.550673,7.253769,1.049928,-0.537819,-0.011441,-0.039153,0.000000,-0.071485,-0.033330,-0.000000
1.450000,-1.659399,-1.199113,-1.432624,0.765790,1.118391,0.005545,0.388661,-0.119525,-0.018520,0.379968,-0.688067,0.544234,7.360699,0.802203,-0.719912,-0.012151,-0.039524,0.000000,-0.070595,-0.040783,0.000000
1.460000,-1.651721,-1.187935,-1.432569,0.769697,1.117161,0.005387,0.392829,-0.126370,-0.013115,0.453810,-0.681349,0.536362,7.450776,0.555627,-0.892328,-0.012854,-0.039969,0.000000,-0.069972,-0.048300,0.000000
1.470000,-1.644005,-1.176770,-1.432516,0.773649,1.115864,0.005282,0.397744,-0.133159,-0.007801,0.529373,-0.676816,0.526067,7.613420,0.337431,-1.128850,-0.013551,-0.040490,0.000000,-0.069564,-0.055993,0.000000
1.480000,-1.636248,-1.165618,-1.432463,0.777654,1.114498,0.005230,0.403417,-0.139915,-0.002598,0.605063,-0.674883,0.514580,7.520602,0.049335,-1.166008,-0.014246,-0.041089,0.000000,-0.069415,-0.063704,0.000000
1.490000,-1.628451,-1.154480,-1.432411,0.781720,1.113065,0.005230,0.409844,-0.146665,0.002487,0.680660,-0.675538,0.502031,7.642462,-0.165667,-1.379484,-0.014940,-0.041765,0.000000,-0.069524,-0.071408,0.000000
1.500000,-1.620613,-1.143357,-1.432359,0.785854,1.111565,0.005280,0.417035,-0.153432,0.007435,0.757462,-0.678302,0.487335,7.669367,-0.400257,-1.521587,-0.015637,-0.042518,0.000000,-0.069842,-0.079234,-0.000000
1.510000,-1.612734,-1.132249,-1.432305,0.790063,1.109997,0.005378,0.424992,-0.160239,0.012231,0.834024,-0.683443,0.471656,7.678702,-0.628596,-1.652868,-0.016338,-0.043349,0.000000,-0.070396,-0.087037,0.000000
1.520000,-1.604812,-1.121157,-1.432251,0.794356,1.108360,0.005524,0.433718,-0.167109,0.016861,0.911333,-0.690869,0.453940,7.743078,-0.853933,-1.849927,-0.017045,-0.044259,0.000000,-0.071175,-0.094911,-0.000000
1.530000,-1.596846,-1.110082,-1.432195,0.798740,1.106654,0.005715,0.443217,-0.174064,0.021308,0.988049,-0.700467,0.435505,7.596193,-1.064485,-1.834208,-0.017762,-0.045248,0.000000,-0.072170,-0.102725,0.000000
1.540000,-1.588837,-1.099024,-1.432137,0.803223,1.104878,0.005949,0.453476,-0.181125,0.025569,1.063952,-0.712164,0.416501,7.619077,-1.275095,-2.004094,-0.018490,-0.046314,0.000000,-0.073375,-0.110456,-0.000000
1.550000,-1.580782,-1.087985,-1.432076,0.807812,1.103031,0.006225,0.464497,-0.188314,0.029631,1.140061,-0.725930,0.395787,7.561857,-1.474774,-2.097767,-0.019230,-0.047457,0.000000,-0.074782,-0.118200,-0.000000
1.560000,-1.572680,-1.076964,-1.432012,0.812516,1.101112,0.006541,0.476274,-0.195650,0.033484,1.215081,-0.741534,0.374579,7.484697,-1.663166,-2.179595,-0.019986,-0.048678,0.000000,-0.076371,-0.125828,-0.000000
1.570000,-1.564531,-1.065963,-1.431945,0.817340,1.099118,0.006894,0.488800,-0.203152,0.037117,1.290117,-0.759332,0.351883,7.475571,-1.876543,-2.321409,-0.020758,-0.049974,0.000000,-0.078176,-0.133448,0.000000
1.580000,-1.556333,-1.054982,-1.431874,0.822294,1.097048,0.007283,0.502070,-0.210841,0.040521,1.363610,-0.778648,0.328949,7.218871,-1.984246,-2.262650,-0.021550,-0.051347,0.000000,-0.080129,-0.140904,0.000000
1.590000,-1.548085,-1.044022,-1.431799,0.827384,1.094900,0.007704,0.516065,-0.218730,0.043696,1.435330,-0.799346,0.305928,7.166989,-2.171730,-2.376618,-0.022361,-0.052792,0.000000,-0.082218,-0.148172,-0.000000
1.600000,-1.539785,-1.033084,-1.431720,0.832618,1.092673,0.008156,0.530776,-0.226835,0.046635,1.506517,-0.821884,0.281769,7.023091,-2.315781,-2.417500,-0.023195,-0.054311,0.000000,-0.084484,-0.155371,0.000000
1.610000,-1.531432,-1.022169,-1.431636,0.838002,1.090363,0.008636,0.546189,-0.235171,0.049332,1.575726,-0.845518,0.257594,6.860620,-2.444282,-2.447201,-0.024051,-0.055900,0.000000,-0.086856,-0.162358,-0.000000
1.620000,-1.523024,-1.011277,-1.431547,0.843544,1.087968,0.009142,0.562288,-0.243752,0.051784,1.644087,-0.871052,0.232570,6.765620,-2.625754,-2.525425,-0.024933,-0.057558,0.000000,-0.089411,-0.169241,-0.000000
1.630000,-1.514560,-1.000410,-1.431453,0.849250,1.085487,0.009671,0.579062,-0.252594,0.053984,1.710075,-0.897262,0.207759,6.427981,-2.612818,-2.434025,-0.025840,-0.059285,0.000000,-0.092028,-0.175870,0.000000
1.640000,-1.506039,-0.989568,-1.431353,0.855127,1.082916,0.010221,0.596481,-0.261699,0.055940,1.773473,-0.923957,0.183306,6.292824,-2.758508,-2.485743,-0.026773,-0.061076,0.000000,-0.094686,-0.182221,0.000000
1.650000,-1.497457,-0.978752,-1.431248,0.861182,1.080252,0.010789,0.614528,-0.271078,0.057648,1.835508,-0.952088,0.158337,6.068313,-2.830215,-2.475534,-0.027734,-0.062930,0.000000,-0.097479,-0.188414,-0.000000
1.660000,-1.488814,-0.967963,-1.431138,0.867420,1.077493,0.011373,0.633182,-0.280740,0.059109,1.894885,-0.980415,0.133795,5.829264,-2.882896,-2.454876,-0.028723,-0.064845,0.000000,-0.100284,-0.194320,0.000000
1.670000,-1.480108,-0.957202,-1.431021,0.873847,1.074636,0.011970,0.652419,-0.290692,0.060323,1.952273,-1.010156,0.109055,5.622113,-3.013897,-2.468779,-0.029740,-0.066817,0.000000,-0.103221,-0.200004,0.000000
1.680000,-1.471337,-0.946470,-1.430898,0.880470,1.071678,0.012578,0.672218,-0.300942,0.061292,2.006779,-1.039612,0.084931,5.276180,-2.872880,-2.353816,-0.030787,-0.068846,0.000000,-0.106120,-0.205377,0.000000
1.690000,-1.462498,-0.935769,-1.430769,0.887293,1.068616,0.013195,0.692545,-0.311482,0.062024,2.058236,-1.068549,0.061546,5.037144,-2.961109,-2.344752,-0.031862,-0.070926,0.000000,-0.108956,-0.210424,0.000000
1.700000,-1.453590,-0.925098,-1.430634,0.894323,1.065448,0.013818,0.713375,-0.322317,0.062523,2.107274,-1.098359,0.038261,4.744383,-2.948947,-2.287872,-0.032967,-0.073055,0.000000,-0.111869,-0.215204,-0.000000
1.710000,-1.444611,-0.914460,-1.430493,0.901563,1.062169,0.014445,0.734679,-0.333446,0.062792,2.153129,-1.127400,0.015790,4.439479,-2.916108,-2.221726,-0.034099,-0.075231,0.000000,-0.114693,-0.219643,-0.000000
1.720000,-1.435558,-0.903855,-1.430345,0.909018,1.058778,0.015073,0.756428,-0.344868,0.062840,2.196165,-1.157167,-0.006294,4.151078,-2.977117,-2.177975,-0.035261,-0.077450,0.000000,-0.117580,-0.223775,-0.000000
1.730000,-1.426430,-0.893285,-1.430192,0.916692,1.055271,0.015701,0.778591,-0.356585,0.062670,2.235806,-1.185680,-0.027412,3.774886,-2.720814,-2.044008,-0.036451,-0.079708,0.000000,-0.120329,-0.227548,-0.000000
1.740000,-1.417224,-0.882750,-1.430031,0.924591,1.051645,0.016326,0.801132,-0.368577,0.062295,2.271924,-1.212689,-0.047467,3.461864,-2.736015,-1.981599,-0.037667,-0.082002,0.000000,-0.122916,-0.230947,-0.000000
1.750000,-1.407937,-0.872253,-1.429865,0.932716,1.047898,0.016946,0.824019,-0.380840,0.061722,2.304883,-1.239853,-0.066885,3.113728,-2.636116,-1.885021,-0.038909,-0.084329,0.000000,-0.125507,-0.234009,-0.000000
1.760000,-1.398569,-0.861793,-1.429692,0.941072,1.044027,0.017560,0.847218,-0.393367,0.060961,2.334232,-1.265318,-0.085169,2.756939,-2.516254,-1.781395,-0.040176,-0.086685,0.000000,-0.127916,-0.236693,0.000000
1.770000,-1.389115,-0.851373,-1.429514,0.949662,1.040030,0.018165,0.870692,-0.406147,0.060022,2.360015,-1.290693,-0.102592,2.395805,-2.495863,-1.691566,-0.041467,-0.089066,0.000000,-0.130307,-0.239000,0.000000
1.780000,-1.379575,-0.840993,-1.429329,0.958487,1.035904,0.018760,0.894406,-0.419174,0.058914,2.382073,-1.313919,-0.118759,2.014391,-2.144662,-1.540569,-0.042782,-0.091468,0.000000,-0.132472,-0.240921,-0.000000
1.790000,-1.369945,-0.830655,-1.429139,0.967550,1.031646,0.019342,0.918321,-0.432417,0.057651,2.400323,-1.334751,-0.133597,1.636891,-2.080045,-1.436709,-0.044116,-0.093887,0.000000,-0.134386,-0.242450,-0.000000
1.800000,-1.360223,-0.820360,-1.428942,0.976854,1.027255,0.019912,0.942400,-0.445867,0.056245,2.414768,-1.354950,-0.147386,1.248511,-1.896845,-1.309573,-0.045469,-0.096320,0.000000,-0.136230,-0.243585,0.000000
1.810000,-1.350407,-0.810110,-1.428740,0.986399,1.022728,0.020467,0.966603,-0.459507,0.054708,2.425327,-1.372636,-0.159782,0.854600,-1.696247,-1.177231,-0.046840,-0.098763,0.000000,-0.137815,-0.244324,0.000000
1.820000,-1.340494,-0.799906,-1.428533,0.996186,1.018064,0.021006,0.990892,-0.473318,0.053053,2.431770,-1.389364,-0.170992,0.440430,-1.590502,-1.055900,-0.048225,-0.101211,0.000000,-0.139298,-0.244644,0.000000
1.830000,-1.330482,-0.789749,-1.428320,1.006217,1.013261,0.021528,1.015226,-0.487284,0.051293,2.434274,-1.403210,-0.180717,0.059802,-1.174746,-0.888358,-0.049624,-0.103660,0.000000,-0.140487,-0.244568,0.000000
1.840000,-1.320369,-0.779641,-1.428103,1.016491,1.008318,0.022031,1.039565,-0.501371,0.049444,2.432799,-1.413962,-0.188910,-0.363085,-1.030647,-0.757678,-0.051034,-0.106107,0.000000,-0.141363,-0.244096,0.000000
1.850000,-1.310151,-0.769584,-1.427880,1.027008,1.003233,0.022516,1.063867,-0.515560,0.047519,2.427063,-1.423297,-0.195791,-0.777415,-0.777243,-0.609945,-0.052451,-0.108547,0.000000,-0.142097,-0.243199,0.000000
1.860000,-1.299828,-0.759577,-1.427652,1.037768,0.998006,0.022982,1.088092,-0.529826,0.045534,2.417270,-1.429488,-0.201096,-1.194626,-0.510286,-0.459044,-0.053875,-0.110976,0.000000,-0.142516,-0.241903,-0.000000
1.870000,-1.289395,-0.749624,-1.427420,1.048769,0.992637,0.023427,1.112198,-0.544145,0.043502,2.403041,-1.433937,-0.205042,-1.639204,-0.328274,-0.321651,-0.055301,-0.113390,0.000000,-0.142763,-0.240171,-0.000000
1.880000,-1.278852,-0.739725,-1.427184,1.060011,0.987123,0.023852,1.136140,-0.558493,0.041438,2.384739,-1.434979,-0.207350,-2.021199,0.122937,-0.139527,-0.056729,-0.115786,0.000000,-0.142674,-0.238046,-0.000000
1.890000,-1.268194,-0.729882,-1.426943,1.071491,0.981467,0.024256,1.159879,-0.572832,0.039360,2.362357,-1.432453,-0.207994,-2.468333,0.333583,0.002690,-0.058153,-0.118158,0.000000,-0.142234,-0.235530,0.000000
1.900000,-1.257421,-0.720096,-1.426699,1.083208,0.975667,0.024639,1.183372,-0.587136,0.037283,2.335474,-1.427852,-0.207221,-2.895910,0.637333,0.159984,-0.059573,-0.120503,0.000000,-0.141595,-0.232582,0.000000
1.910000,-1.246529,-0.710369,-1.426451,1.095158,0.969724,0.025001,1.206575,-0.601377,0.035222,2.304438,-1.419748,-0.204780,-3.324275,0.948508,0.318166,-0.060984,-0.122816,0.000000,-0.140617,-0.229241,0.000000
1.920000,-1.235517,-0.700702,-1.426199,1.107338,0.963640,0.025343,1.229445,-0.615524,0.033192,2.268866,-1.409195,-0.200951,-3.777729,1.197962,0.457365,-0.062385,-0.125095,0.000000,-0.139408,-0.225470,-0.000000
1.930000,-1.224382,-0.691097,-1.425944,1.119746,0.957414,0.025665,1.251938,-0.629549,0.031208,2.229145,-1.395038,-0.195430,-4.166271,1.635116,0.647058,-0.063771,-0.127333,0.000000,-0.137853,-0.221313,-0.000000
1.940000,-1.213121,-0.681554,-1.425686,1.132376,0.951049,0.025968,1.274014,-0.643412,0.029289,2.185287,-1.377189,-0.188212,-4.617806,1.899912,0.786365,-0.065140,-0.129529,0.000000,-0.135947,-0.216775,0.000000
1.950000,-1.201734,-0.672076,-1.425425,1.145224,0.944547,0.026251,1.295629,-0.657084,0.027448,2.136897,-1.356732,-0.179625,-5.047610,2.227017,0.940579,-0.066489,-0.131676,0.000000,-0.133800,-0.211815,0.000000
1.960000,-1.190216,-0.662664,-1.425161,1.158287,0.937908,0.026517,1.316738,-0.670534,0.025702,2.084296,-1.332751,-0.169391,-5.477417,2.554392,1.093684,-0.067815,-0.133773,0.000000,-0.131323,-0.206471,0.000000
1.970000,-1.178567,-0.653318,-1.424894,1.171557,0.931137,0.026766,1.337300,-0.683730,0.024065,2.027292,-1.305787,-0.157861,-5.917352,2.853241,1.222624,-0.069115,-0.135814,0.000000,-0.128570,-0.200722,-0.000000
1.980000,-1.166784,-0.644042,-1.424625,1.185031,0.924235,0.026999,1.357270,-0.696639,0.022550,1.966079,-1.275378,-0.144721,-6.324836,3.228588,1.405135,-0.070386,-0.137796,0.000000,-0.125499,-0.194593,-0.000000
1.990000,-1.154866,-0.634834,-1.424354,1.198701,0.917205,0.027217,1.376608,-0.709226,0.021176,1.900681,-1.241524,-0.129992,-6.760451,3.526684,1.528836,-0.071624,-0.139714,0.000000,-0.122111,-0.188088,-0.000000
2.000000,-1.142810,-0.625698,-1.424081,1.212561,0.910051,0.027423,1.395269,-0.721460,0.019954,1.830928,-1.204728,-0.114064,-7.183741,3.846649,1.666779,-0.072827,-0.141566,0.000000,-0.118456,-0.181187,-0.000000
2.010000,-1.130614,-0.616634,-1.423806,1.226604,0.902777,0.027617,1.413212,-0.733309,0.018900,1.756937,-1.164696,-0.096679,-7.605852,4.160459,1.799766,-0.073992,-0.143346,0.000000,-0.114508,-0.173907,0.000000
2.020000,-1.118277,-0.607643,-1.423529,1.240822,0.895387,0.027801,1.430394,-0.744743,0.018024,1.678896,-1.121524,-0.078175,-8.009677,4.471193,1.909135,-0.075116,-0.145052,0.000000,-0.110274,-0.166262,-0.000000
2.030000,-1.105797,-0.598726,-1.423250,1.255209,0.887884,0.027978,1.446776,-0.755730,0.017341,1.596586,-1.075331,-0.058324,-8.451990,4.766157,2.060289,-0.076197,-0.146680,0.000000,-0.105770,-0.158235,0.000000
2.040000,-1.093172,-0.589885,-1.422969,1.269755,0.880273,0.028149,1.462312,-0.766240,0.016862,1.510031,-1.026197,-0.037180,-8.850442,5.060579,2.157911,-0.077231,-0.148225,0.000000,-0.101003,-0.149827,-0.000000
2.050000,-1.080401,-0.581121,-1.422687,1.284452,0.872561,0.028316,1.476963,-0.776244,0.016600,1.419523,-0.974165,-0.015113,-9.258406,5.342468,2.263469,-0.078216,-0.149684,0.000000,-0.095976,-0.141063,-0.000000
2.060000,-1.067483,-0.572434,-1.422403,1.299291,0.864750,0.028481,1.490688,-0.785714,0.016564,1.324818,-0.919447,0.008033,-9.663401,5.612096,2.360860,-0.079149,-0.151054,0.000000,-0.090712,-0.131921,-0.000000
2.070000,-1.054415,-0.563826,-1.422117,1.314263,0.856848,0.028648,1.503448,-0.794623,0.016763,1.226439,-0.861844,0.032056,-10.029254,5.893824,2.444575,-0.080029,-0.152330,0.000000,-0.085187,-0.122447,-0.000000
2.080000,-1.041197,-0.555298,-1.421830,1.329357,0.848860,0.028818,1.515203,-0.802943,0.017208,1.123881,-0.801880,0.056939,-10.481888,6.096276,2.530305,-0.080852,-0.153509,0.000000,-0.079455,-0.112592,-0.000000
2.090000,-1.027828,-0.546849,-1.421541,1.344563,0.840791,0.028993,1.525911,-0.810653,0.017905,1.017178,-0.739711,0.082583,-10.839752,6.347639,2.594591,-0.081618,-0.154588,0.000000,-0.073530,-0.102356,-0.000000
2.100000,-1.014306,-0.538482,-1.421250,1.359871,0.832649,0.029177,1.535535,-0.817729,0.018861,0.906955,-0.675087,0.108808,-11.221318,6.561842,2.651325,-0.082322,-0.155562,0.000000,-0.067383,-0.091796,0.000000
2.110000,-1.000630,-0.530197,-1.420957,1.375270,0.824439,0.029371,1.544039,-0.824153,0.020082,0.793173,-0.609467,0.135501,-11.588584,6.740285,2.695374,-0.082965,-0.156429,0.000000,-0.061158,-0.080904,0.000000
2.120000,-0.986800,-0.521994,-1.420663,1.390748,0.816168,0.029579,1.551382,-0.829898,0.021573,0.674704,-0.538674,0.162768,-12.050905,7.239945,2.746155,-0.083543,-0.157184,0.000000,-0.054437,-0.069567,0.000000
2.130000,-0.972815,-0.513874,-1.420366,1.406294,0.807843,0.029803,1.557523,-0.834930,0.023338,0.553297,-0.468411,0.190174,-12.227635,6.804204,2.732500,-0.084054,-0.157824,0.000000,-0.047786,-0.057950,0.000000
2.140000,-0.958674,-0.505837,-1.420067,1.421895,0.799472,0.030047,1.562439,-0.839271,0.025377,0.429102,-0.399097,0.217573,-12.663646,7.232846,2.754821,-0.084500,-0.158346,0.000000,-0.041240,-0.046062,0.000000
2.150000,-0.944377,-0.497884,-1.419765,1.437538,0.791060,0.030312,1.566090,-0.842893,0.027690,0.300510,-0.325319,0.245143,-13.000304,7.343367,2.746513,-0.084877,-0.158747,0.000000,-0.034261,-0.033742,-0.000000
2.160000,-0.929923,-0.490016,-1.419460,1.453212,0.782616,0.030601,1.568434,-0.845773,0.030278,0.167625,-0.250176,0.272320,-13.356352,7.470710,2.720322,-0.085184,-0.159022,0.000000,-0.027150,-0.020988,0.000000
2.170000,-0.915312,-0.482232,-1.419153,1.468903,0.774147,0.030918,1.569448,-0.847910,0.033138,0.035429,-0.177912,0.299810,-13.293512,7.183927,2.742292,-0.085422,-0.159169,0.000000,-0.020330,-0.008301,-0.000000
2.180000,-0.900545,-0.474533,-1.418842,1.484597,0.765661,0.031265,1.569121,-0.849318,0.036271,-0.102671,-0.102256,0.326425,-14.331299,7.950257,2.577070,-0.085590,-0.159186,0.000000,-0.013168,0.004995,-0.000000
2.190000,-0.885621,-0.466919,-1.418527,1.500280,0.757164,0.031645,1.567373,-0.849942,0.039663,-0.246858,-0.023128,0.351962,-14.289449,7.664566,2.560789,-0.085684,-0.159066,0.000000,-0.005652,0.018928,0.000000
2.200000,-0.870539,-0.459390,-1.418209,1.515939,0.748664,0.032059,1.564191,-0.849795,0.043310,-0.390239,0.052719,0.377306,-14.597948,7.707401,2.472075,-0.085704,-0.158807,0.000000,0.001546,0.032804,0.000000
2.210000,-0.855302,-0.451945,-1.417886,1.531559,0.740170,0.032512,1.559554,-0.848886,0.047204,-0.537439,0.128988,0.401209,-14.873845,7.696106,2.362456,-0.085652,-0.158406,0.000000,0.008805,0.047105,-0.000000
2.220000,-0.839908,-0.444586,-1.417558,1.547125,0.731689,0.033004,1.553430,-0.847204,0.051335,-0.687978,0.207972,0.425021,-15.197793,7.947456,2.341966,-0.085527,-0.157860,0.000000,0.016346,0.061769,-0.000000
2.230000,-0.824360,-0.437312,-1.417226,1.562623,0.723229,0.033539,1.545788,-0.844735,0.055697,-0.840635,0.284721,0.446837,-15.329405,7.393399,2.016638,-0.085326,-0.157165,0.000000,0.023694,0.076708,0.000000
2.240000,-0.808656,-0.430122,-1.416887,1.578036,0.714797,0.034119,1.536611,-0.841519,0.060264,-0.995180,0.358771,0.466409,-15.610226,7.562815,1.950548,-0.085054,-0.156320,0.000000,0.030807,0.091908,0.000000
2.250000,-0.792799,-0.423016,-1.416543,1.593350,0.706401,0.034745,1.525875,-0.837551,0.065024,-1.152484,0.434611,0.485321,-15.813658,7.450712,1.773184,-0.084709,-0.155319,0.000000,0.038124,0.107436,0.000000
2.260000,-0.776790,-0.415993,-1.416192,1.608548,0.698048,0.035420,1.513559,-0.832842,0.069961,-1.310890,0.506743,0.501665,-15.984976,7.286905,1.573105,-0.084293,-0.154163,0.000000,0.045113,0.123161,0.000000
2.270000,-0.760629,-0.409054,-1.415835,1.623616,0.689747,0.036145,1.499642,-0.827397,0.075057,-1.473222,0.583168,0.517465,-16.360494,7.687628,1.506206,-0.083805,-0.152846,0.000000,0.052561,0.139336,0.000000
2.280000,-0.744318,-0.402198,-1.415469,1.638536,0.681503,0.036921,1.484095,-0.821200,0.080299,-1.635563,0.653983,0.530096,-16.100282,6.461790,1.014674,-0.083243,-0.151366,0.000000,0.059499,0.155616,-0.000000
2.290000,-0.727859,-0.395424,-1.415096,1.653292,0.673325,0.037751,1.466933,-0.814340,0.085647,-1.797524,0.718521,0.539281,-16.406260,6.751168,0.898391,-0.082617,-0.149723,0.000000,0.065863,0.171967,-0.000000
2.300000,-0.711253,-0.388732,-1.414714,1.667869,0.665218,0.038635,1.448132,-0.806813,0.091082,-1.962605,0.786307,0.547341,-16.488062,6.494239,0.632462,-0.081924,-0.147913,0.000000,0.072591,0.188707,-0.000000
2.310000,-0.694502,-0.382120,-1.414323,1.682249,0.657191,0.039573,1.427676,-0.798624,0.096580,-2.128863,0.851235,0.551719,-16.573797,6.261038,0.344354,-0.081166,-0.145935,0.000000,0.079092,0.205681,-0.000000
2.320000,-0.677608,-0.375587,-1.413922,1.696417,0.649248,0.040566,1.405568,-0.789815,0.102115,-2.292290,0.909373,0.555133,-16.287279,5.583206,0.235339,-0.080345,-0.143787,0.000000,0.084950,0.222449,0.000000
2.330000,-0.660574,-0.369134,-1.413512,1.710355,0.641396,0.041615,1.381820,-0.780435,0.107668,-2.458299,0.967452,0.554263,-16.915656,6.036064,-0.414747,-0.079467,-0.141470,0.000000,0.090866,0.239602,-0.000000
2.340000,-0.643402,-0.362759,-1.413090,1.724048,0.633641,0.042720,1.356392,-0.770464,0.113185,-2.626866,1.025574,0.548831,-16.611173,5.362821,-0.572215,-0.078527,-0.138978,0.000000,0.096852,0.257141,-0.000000
2.350000,-0.626094,-0.356461,-1.412657,1.737477,0.625989,0.043879,1.329298,-0.759952,0.118642,-2.791969,1.076525,0.541917,-16.585129,5.045575,-0.914250,-0.077532,-0.136313,0.000000,0.102157,0.274414,0.000000
2.360000,-0.608653,-0.350239,-1.412212,1.750628,0.618444,0.045092,1.300553,-0.748946,0.124007,-2.956764,1.123793,0.530453,-16.501286,4.664997,-1.273263,-0.076485,-0.133473,0.000000,0.107153,0.291777,-0.000000
2.370000,-0.591083,-0.344092,-1.411755,1.763483,0.611011,0.046359,1.270155,-0.737468,0.129247,-3.123107,1.172155,0.517404,-16.633054,4.751644,-1.442140,-0.075388,-0.130459,0.000000,0.112300,0.309375,-0.000000
2.380000,-0.573385,-0.338018,-1.411285,1.776026,0.603696,0.047677,1.238101,-0.725528,0.134337,-3.286610,1.213460,0.499399,-16.057747,3.498472,-2.163497,-0.074242,-0.127269,0.000000,0.116795,0.326805,0.000000
2.390000,-0.555563,-0.332018,-1.410801,1.788240,0.596502,0.049045,1.204435,-0.713226,0.139217,-3.446753,1.247178,0.476212,-16.095159,3.497547,-2.370098,-0.073055,-0.123906,0.000000,0.120581,0.344006,0.000000
2.400000,-0.537621,-0.326088,-1.410304,1.800109,0.589433,0.050460,1.169163,-0.700579,0.143857,-3.607292,1.281193,0.451085,-15.877034,3.048604,-2.760688,-0.071829,-0.120370,0.000000,0.124431,0.361310,-0.000000
2.410000,-0.519562,-0.320228,-1.409792,1.811618,0.582492,0.051921,1.132303,-0.687628,0.148221,-3.764173,1.308199,0.421033,-15.617717,2.576941,-3.158424,-0.070569,-0.116662,0.000000,0.127619,0.378334,-0.000000
2.420000,-0.501390,-0.314438,-1.409265,1.822750,0.575681,0.053424,1.093878,-0.674413,0.152272,-3.920674,1.334775,0.388772,-15.555346,2.516942,-3.384585,-0.069277,-0.112784,0.000000,0.130792,0.395368,0.000000
2.430000,-0.483109,-0.308714,-1.408723,1.833490,0.569004,0.054965,1.053906,-0.660959,0.155979,-4.072620,1.353896,0.351437,-14.824004,1.299024,-4.085277,-0.067955,-0.108737,0.000000,0.133250,0.412009,0.000000
2.440000,-0.464722,-0.303057,-1.408166,1.843823,0.562462,0.056542,1.012444,-0.647363,0.159283,-4.219479,1.365176,0.308904,-14.663848,1.177936,-4.329412,-0.066614,-0.104526,0.000000,0.134947,0.428186,0.000000
2.450000,-0.446233,-0.297465,-1.407592,1.853734,0.556057,0.058149,0.969519,-0.633655,0.162151,-4.364738,1.375558,0.264078,-14.260018,0.676947,-4.725741,-0.065256,-0.100154,0.000000,0.136567,0.444212,0.000000
2.460000,-0.427648,-0.291936,-1.407003,1.863209,0.549790,0.059783,0.925168,-0.619875,0.164548,-4.504603,1.379559,0.214581,-13.815319,0.182337,-5.116967,-0.063885,-0.095625,0.000000,0.137561,0.459707,0.000000
2.470000,-0.408971,-0.286468,-1.406397,1.872233,0.543660,0.061439,0.879434,-0.606075,0.166434,-4.641920,1.379753,0.162275,-13.536849,-0.200394,-5.396837,-0.062506,-0.090942,0.000000,0.138173,0.474928,0.000000
2.480000,-0.390205,-0.281062,-1.405774,1.880793,0.537668,0.063110,0.832352,-0.592299,0.167778,-4.773012,1.374365,0.105544,-12.672346,-0.877883,-5.949303,-0.061124,-0.086110,0.000000,0.138230,0.489496,-0.000000
2.490000,-0.371357,-0.275715,-1.405134,1.888876,0.531814,0.064792,0.783997,-0.578607,0.168530,-4.897375,1.363377,0.044420,-12.300422,-1.260590,-6.218891,-0.059744,-0.081137,0.000000,0.137721,0.503341,-0.000000
2.500000,-0.352429,-0.270425,-1.404478,1.896469,0.526095,0.066479,0.734415,-0.565042,0.168659,-5.018003,1.348696,-0.019251,-11.713443,-1.731038,-6.566909,-0.058371,-0.076027,0.000000,0.136828,0.516735,0.000000
2.510000,-0.333429,-0.265192,-1.403805,1.903560,0.520512,0.068163,0.683659,-0.551632,0.168133,-5.132060,1.333165,-0.086542,-11.097754,-2.104392,-6.894460,-0.057007,-0.070787,0.000000,0.135846,0.529378,-0.000000
2.520000,-0.314360,-0.260014,-1.403115,1.910138,0.515062,0.069839,0.631794,-0.538451,0.166917,-5.239896,1.299922,-0.157135,-10.458285,-3.832568,-7.214993,-0.055661,-0.065424,0.000000,0.133031,0.541285,0.000000
2.530000,-0.295228,-0.254891,-1.402408,1.916192,0.509742,0.071499,0.578884,-0.525612,0.164980,-5.340998,1.271454,-0.230648,-9.756368,-1.836812,-7.483784,-0.054344,-0.059947,0.000000,0.130696,0.552383,-0.000000
2.540000,-0.276038,-0.249819,-1.401685,1.921713,0.504549,0.073136,0.524998,-0.512996,0.162295,-5.435022,1.248867,-0.306855,-9.048435,-3.395336,-7.759635,-0.053045,-0.054363,0.000000,0.128953,0.562619,-0.000000
2.550000,-0.256795,-0.244799,-1.400946,1.926689,0.499481,0.074742,0.470207,-0.500703,0.158834,-5.521810,1.209665,-0.385705,-8.298147,-3.729361,-8.000195,-0.051772,-0.048682,0.000000,0.125478,0.571959,-0.000000
2.560000,-0.237506,-0.239829,-1.400190,1.931114,0.494534,0.076310,0.414596,-0.488813,0.154576,-5.598994,1.167202,-0.466340,-7.477791,-4.165947,-8.204908,-0.050536,-0.042913,0.000000,0.121644,0.580142,-0.000000
2.570000,-0.218175,-0.234908,-1.399419,1.934979,0.489703,0.077831,0.358227,-0.477325,0.149494,-5.674434,1.131860,-0.550469,-7.271027,-3.478699,-8.535528,-0.049336,-0.037065,0.000000,0.118530,0.587972,0.000000
2.580000,-0.198808,-0.230035,-1.398634,1.938276,0.484986,0.079297,0.301151,-0.466217,0.143565,-5.737300,1.085529,-0.635260,-5.287189,-5.803401,-8.414948,-0.048170,-0.031144,0.000000,0.114253,0.594308,0.000000
2.590000,-0.179411,-0.225208,-1.397834,1.941000,0.480377,0.080700,0.243528,-0.455658,0.136789,-5.786853,1.027532,-0.720286,-4.956597,-5.209925,-8.665745,-0.047055,-0.025170,0.000000,0.108745,0.599066,-0.000000
2.600000,-0.159990,-0.220427,-1.397020,1.943145,0.475871,0.082030,0.185418,-0.445633,0.129149,-5.833487,0.976428,-0.807769,-4.029919,-5.589762,-8.744514,-0.045992,-0.019151,0.000000,0.103931,0.603318,0.000000
2.610000,-0.140550,-0.215690,-1.396193,1.944707,0.471463,0.083280,0.126903,-0.436159,0.120637,-5.867904,0.917674,-0.894650,-3.078216,-5.937838,-8.776110,-0.044980,-0.013096,0.000000,0.098300,0.606094,-0.000000
2.620000,-0.121098,-0.210997,-1.395355,1.945682,0.467146,0.084440,0.068074,-0.427273,0.111244,-5.897088,0.859766,-0.984554,-2.534720,-5.852956,-9.052319,-0.044025,-0.007019,0.000000,0.092749,0.608118,0.000000
2.630000,-0.101639,-0.206347,-1.394505,1.946068,0.462915,0.085502,0.009004,-0.418984,0.100954,-5.913905,0.796222,-1.072501,-0.819487,-6.858098,-8.526250,-0.043127,-0.000927,0.000000,0.086590,0.608648,-0.000000
2.640000,-0.082179,-0.201739,-1.393645,1.945862,0.458764,0.086456,-0.050160,-0.411369,0.089803,-5.917915,0.727013,-1.157905,-0.204348,-6.763391,-8.695352,-0.042295,0.005160,0.000000,0.079824,0.607652,0.000000
2.650000,-0.062723,-0.197172,-1.392776,1.945064,0.454686,0.087295,-0.109339,-0.404436,0.077787,-5.916069,0.659232,-1.245023,0.797147,-7.001699,-8.574504,-0.041530,0.011234,0.000000,0.073205,0.605849,0.000000
2.660000,-0.043279,-0.192645,-1.391900,1.943675,0.450673,0.088009,-0.168447,-0.398175,0.064916,-5.903889,0.593102,-1.328922,1.773814,-7.094733,-8.400357,-0.040830,0.017284,0.000000,0.066738,0.602792,-0.000000
2.670000,-0.023852,-0.188158,-1.391016,1.941696,0.446720,0.088590,-0.227373,-0.392647,0.051199,-5.879353,0.509393,-1.414754,3.003037,-8.791282,-8.563229,-0.040203,0.023295,0.000000,0.058482,0.598280,0.000000
2.680000,-0.004447,-0.183710,-1.390128,1.939129,0.442817,0.089030,-0.286007,-0.387949,0.036637,-5.846572,0.435240,-1.495936,3.548483,-6.006993,-7.660110,-0.039657,0.029256,0.000000,0.051196,0.592761,-0.000000
2.690000,0.014929,-0.179301,-1.389236,1.935977,0.438959,0.089320,-0.344279,-0.383899,0.021299,-5.805759,0.372163,-1.571788,4.744834,-7.461466,-7.701483,-0.039174,0.035157,0.000000,0.045029,0.586285,0.000000
2.700000,0.034270,-0.174931,-1.388342,1.932245,0.435137,0.089454,-0.402080,-0.380573,0.005196,-5.752818,0.293404,-1.648147,5.710884,-7.429705,-7.366715,-0.038763,0.040985,0.000000,0.037283,0.578433,0.000000
2.710000,0.053572,-0.170599,-1.387448,1.927937,0.431344,0.089422,-0.459309,-0.378028,-0.011642,-5.691485,0.215204,-1.718756,6.663581,-7.500695,-6.979309,-0.038428,0.046731,0.000000,0.029597,0.569633,-0.000000
2.720000,0.072827,-0.166304,-1.386554,1.923061,0.427574,0.089218,-0.515869,-0.376214,-0.029184,-5.618577,0.149973,-1.789727,7.809493,-6.223747,-6.984565,-0.038165,0.052382,0.000000,0.023254,0.559557,-0.000000
2.730000,0.092031,-0.162047,-1.385664,1.917623,0.423818,0.088836,-0.571654,-0.375061,-0.047411,-5.537577,0.076487,-1.853621,8.384500,-8.489218,-5.781088,-0.037967,0.057927,0.000000,0.016075,0.548621,-0.000000
2.740000,0.111178,-0.157828,-1.384778,1.911631,0.420070,0.088268,-0.626595,-0.374719,-0.066229,-5.448788,-0.005866,-1.909757,9.477999,-7.285362,-5.666408,-0.037847,0.063360,0.000000,0.008008,0.536892,-0.000000
2.750000,0.130262,-0.153646,-1.383899,1.905094,0.416321,0.087510,-0.680591,-0.375122,-0.085607,-5.348992,-0.074955,-1.964909,10.370867,-7.213677,-5.133309,-0.037801,0.068669,0.000000,0.001315,0.524030,-0.000000
2.760000,0.149278,-0.149501,-1.383029,1.898022,0.412565,0.086554,-0.733544,-0.376208,-0.105499,-5.240064,-0.141306,-2.012401,11.265977,-6.957773,-4.559522,-0.037820,0.073845,0.000000,-0.005096,0.510297,0.000000
2.770000,0.168221,-0.145394,-1.382169,1.890427,0.408795,0.085398,-0.785375,-0.378013,-0.125852,-5.125085,-0.222332,-2.057834,11.866485,-8.360197,-4.328261,-0.037909,0.078881,0.000000,-0.012945,0.495988,0.000000
2.780000,0.187085,-0.141325,-1.381322,1.882319,0.405002,0.084036,-0.836011,-0.380603,-0.146626,-4.999865,-0.289890,-2.094801,13.177191,-5.117850,-3.054420,-0.038074,0.083769,0.000000,-0.019432,0.480758,-0.000000
2.790000,0.205865,-0.137294,-1.380489,1.873711,0.401181,0.082464,-0.885337,-0.383753,-0.167716,-4.864486,-0.342393,-2.122756,13.751493,-6.266339,-2.728114,-0.038292,0.088500,0.000000,-0.024414,0.464656,-0.000000
2.800000,0.224557,-0.133302,-1.379673,1.864617,0.397325,0.080681,-0.933285,-0.387509,-0.189074,-4.723736,-0.407557,-2.147622,14.534638,-5.874887,-2.046220,-0.038568,0.093068,0.000000,-0.030635,0.448130,0.000000
2.810000,0.243156,-0.129348,-1.378876,1.855050,0.393429,0.078682,-0.979788,-0.391870,-0.210638,-4.575689,-0.464121,-2.163869,15.253410,-5.503153,-1.340093,-0.038901,0.097467,0.000000,-0.035996,0.431062,-0.000000
2.820000,0.261657,-0.125433,-1.378100,1.845026,0.389486,0.076468,-1.024761,-0.396784,-0.232339,-4.417094,-0.518177,-2.175651,16.280146,-5.236037,-0.877673,-0.039287,0.101692,0.000000,-0.041095,0.413115,-0.000000
2.830000,0.280055,-0.121559,-1.377347,1.834560,0.385491,0.074035,-1.068116,-0.402217,-0.254120,-4.253978,-0.567338,-2.178519,16.330605,-4.590453,0.310740,-0.039721,0.105735,0.000000,-0.045715,0.394950,-0.000000
2.840000,0.298347,-0.117724,-1.376620,1.823669,0.381440,0.071385,-1.109829,-0.408113,-0.275877,-4.086995,-0.611290,-2.172146,17.239849,-4.265210,0.828254,-0.040199,0.109597,0.000000,-0.049834,0.376652,-0.000000
