time,x,y,z,vx,vy,vz,ax,ay,az,jx,jy,jz,sx,sy,sz,roll,pitch,yaw,p,q,r
0.000000,-2.781310,-2.167609,-1.479341,-0.009453,0.001597,-0.003136,0.212152,-0.343613,-0.002315,-8.146558,8.340337,0.322514,230.630827,-95.185912,-14.919415,-0.034996,-0.021618,0.000000,0.846971,0.828632,-0.000000
0.010000,-2.781395,-2.167609,-1.479372,-0.007702,-0.001438,-0.003146,0.141602,-0.264691,0.000195,-6.023291,7.471179,0.182636,194.666230,-78.945361,-13.080220,-0.026973,-0.014434,0.000000,0.760229,0.613387,-0.000000
0.020000,-2.781466,-2.167635,-1.479404,-0.006556,-0.003724,-0.003137,0.090551,-0.193678,0.001396,-4.240690,6.755584,0.060439,162.464613,-64.458378,-11.382199,-0.019742,-0.009232,0.000000,0.688243,0.432166,0.000000
0.030000,-2.781527,-2.167681,-1.479435,-0.005837,-0.005333,-0.003122,0.055775,-0.129124,0.001458,-2.762120,6.176463,-0.045457,133.826874,-51.635956,-9.818985,-0.013163,-0.005686,0.000000,0.629623,0.281596,0.000000
0.040000,-2.781583,-2.167740,-1.479466,-0.005396,-0.006323,-0.003111,0.034411,-0.069747,0.000537,-1.552936,5.717613,-0.136368,108.553974,-40.389111,-8.384204,-0.007110,-0.003508,0.000000,0.582929,0.158353,-0.000000
0.050000,-2.781636,-2.167805,-1.479497,-0.005112,-0.006741,-0.003114,0.023928,-0.014422,-0.001223,-0.580490,5.363726,-0.213547,86.446476,-30.628688,-7.071413,-0.001470,-0.002439,0.000000,0.546722,0.059219,0.000000
0.060000,-2.781686,-2.167873,-1.479528,-0.004888,-0.006622,-0.003138,0.022114,0.037829,-0.003692,0.185881,5.100381,-0.278182,67.305609,-22.265831,-5.874340,0.003855,-0.002253,0.000000,0.519602,-0.018877,0.000000
0.070000,-2.781733,-2.167936,-1.479560,-0.004648,-0.005992,-0.003189,0.027054,0.087842,-0.006749,0.774846,4.914048,-0.331398,50.932122,-15.211465,-4.786578,0.008948,-0.002756,0.000000,0.500232,-0.078834,0.000000
0.080000,-2.781778,-2.167991,-1.479592,-0.004330,-0.004870,-0.003274,0.037109,0.136324,-0.010285,1.213084,4.792087,-0.374257,37.126861,-9.376575,-3.801760,0.013881,-0.003779,0.000000,0.487345,-0.123371,-0.000000
0.090000,-2.781820,-2.168032,-1.479626,-0.003893,-0.003269,-0.003396,0.050896,0.183859,-0.014203,1.525280,4.722748,-0.407755,25.690644,-4.672168,-2.913494,0.018712,-0.005181,0.000000,0.479760,-0.155011,0.000000
0.100000,-2.781856,-2.168055,-1.479660,-0.003304,-0.001195,-0.003559,0.067270,0.230918,-0.018412,1.734136,4.695171,-0.432826,16.424912,-1.009244,-2.115365,0.023490,-0.006844,0.000000,0.476377,-0.176083,0.000000
0.110000,-2.781885,-2.168054,-1.479697,-0.002542,0.001349,-0.003765,0.085303,0.277868,-0.022834,1.860351,4.699388,-0.450341,9.129844,1.701265,-1.401086,0.028251,-0.008675,0.000000,0.476189,-0.188711,0.000000
0.120000,-2.781906,-2.168026,-1.479736,-0.001595,0.004363,-0.004016,0.104264,0.324982,-0.027397,1.922639,4.726319,-0.461106,3.606600,3.548354,-0.764243,0.033021,-0.010598,0.000000,0.478279,-0.194817,0.000000
0.130000,-2.781916,-2.167966,-1.479778,-0.000456,0.007850,-0.004314,0.123599,0.372443,-0.032036,1.937725,4.767774,-0.465863,-0.343860,4.621061,-0.198457,0.037821,-0.012558,0.000000,0.481817,-0.196117,-0.000000
0.140000,-2.781914,-2.167868,-1.479822,0.000877,0.011814,-0.004657,0.142911,0.420361,-0.036696,1.920342,4.816456,-0.465291,-2.920435,5.008477,0.302671,0.042660,-0.014513,0.000000,0.486070,-0.194120,-0.000000
0.150000,-2.781898,-2.167728,-1.479871,0.002402,0.016259,-0.005047,0.161940,0.468775,-0.041326,1.883234,4.865957,-0.460004,-4.321756,4.799814,0.745585,0.047543,-0.016437,0.000000,0.490392,-0.190131,0.000000
0.160000,-2.781866,-2.167541,-1.479923,0.004115,0.021191,-0.005484,0.180546,0.517664,-0.045883,1.837118,4.910746,-0.450557,-4.750737,4.082678,1.136177,0.052466,-0.018317,0.000000,0.494230,-0.185243,-0.000000
0.170000,-2.781815,-2.167302,-1.479981,0.006011,0.026614,-0.005965,0.198682,0.566959,-0.050325,1.790792,4.946211,-0.437434,-4.401733,2.947838,1.481419,0.057424,-0.020147,0.000000,0.497123,-0.180351,0.000000
0.180000,-2.781745,-2.167007,-1.480043,0.008087,0.032531,-0.006490,0.216383,0.616545,-0.054620,1.751007,4.968605,-0.421059,-3.475663,1.483678,1.787479,0.062404,-0.021932,0.000000,0.498702,-0.176139,-0.000000
0.190000,-2.781653,-2.166650,-1.480111,0.010338,0.038945,-0.007056,0.233740,0.666278,-0.058737,1.722539,4.975083,-0.401793,-2.171707,-0.220760,2.060773,0.067393,-0.023680,0.000000,0.498687,-0.173090,0.000000
0.200000,-2.781538,-2.166226,-1.480184,0.012761,0.045856,-0.007664,0.250881,0.715987,-0.062648,1.708174,4.963683,-0.379934,-0.688520,-2.076711,2.307414,0.072372,-0.025406,0.000000,0.496891,-0.171482,0.000000
0.210000,-2.781397,-2.165731,-1.480264,0.015353,0.053265,-0.008309,0.267034,0.765783,-0.066294,1.498489,5.000770,-0.348051,-3.381191,-2.661922,2.685541,0.077354,-0.027031,0.000000,0.500104,-0.150212,0.000000
0.220000,-2.781230,-2.165159,-1.480350,0.018102,0.061170,-0.008989,0.283838,0.814995,-0.069709,1.988816,4.798586,-0.338989,64.691284,-25.990081,0.462746,0.082272,-0.028722,0.000000,0.478941,-0.199475,0.000000
0.230000,-2.781035,-2.164506,-1.480444,0.021046,0.069557,-0.009702,0.305011,0.862282,-0.073000,2.020549,4.728466,-0.310742,-59.505856,12.337437,5.225115,0.086987,-0.030852,0.000000,0.471343,-0.202514,-0.000000
0.240000,-2.780809,-2.163767,-1.480545,0.024187,0.078419,-0.010447,0.322258,0.910153,-0.075843,1.541848,4.806977,-0.261651,0.852166,-8.528177,3.237427,0.091759,-0.032586,0.000000,0.479034,-0.154286,0.000000
0.250000,-2.780550,-2.162936,-1.480653,0.027490,0.087758,-0.011218,0.338692,0.957459,-0.078330,1.722365,4.659127,-0.234586,-1.738010,-9.169862,3.519708,0.096470,-0.034238,0.000000,0.463686,-0.172361,-0.000000
0.260000,-2.780258,-2.162010,-1.480769,0.030963,0.097564,-0.012013,0.355805,1.003667,-0.080499,1.699236,4.583106,-0.199039,-2.081463,-10.060928,3.681123,0.101067,-0.035959,0.000000,0.455734,-0.169988,0.000000
0.270000,-2.779930,-2.160983,-1.480893,0.034605,0.107828,-0.012827,0.372731,1.048765,-0.082298,1.688143,4.420990,-0.160168,-0.922125,-18.433367,3.996082,0.105549,-0.037661,0.000000,0.439272,-0.168856,-0.000000
0.280000,-2.779565,-2.159852,-1.481026,0.038417,0.118534,-0.013657,0.389520,1.092243,-0.083703,1.664324,4.296931,-0.121151,-3.866059,-6.243429,3.799902,0.109868,-0.039350,0.000000,0.426703,-0.166469,0.000000
0.290000,-2.779162,-2.158611,-1.481166,0.042395,0.129670,-0.014500,0.405965,1.134882,-0.084723,1.626690,4.217131,-0.082380,-2.868355,-13.658272,4.043646,0.114101,-0.041005,0.000000,0.418620,-0.162717,-0.000000
0.300000,-2.778717,-2.157257,-1.481316,0.046535,0.141227,-0.015350,0.422105,1.176251,-0.085341,1.600264,4.057613,-0.041163,-3.203882,-14.289750,4.101739,0.118207,-0.042631,0.000000,0.402690,-0.160123,0.000000
0.310000,-2.778230,-2.155785,-1.481473,0.050836,0.153190,-0.016205,0.437966,1.216123,-0.085550,1.572150,3.916239,-0.000744,-3.367904,-14.983369,4.123627,0.122164,-0.044230,0.000000,0.388641,-0.157379,0.000000
0.320000,-2.777700,-2.154192,-1.481640,0.055293,0.165545,-0.017060,0.453466,1.254472,-0.085343,1.524246,3.748889,0.042581,-5.289662,-17.492358,4.393935,0.125970,-0.045794,0.000000,0.372140,-0.152691,-0.000000
0.330000,-2.777124,-2.152473,-1.481815,0.059903,0.178274,-0.017911,0.468489,1.291127,-0.084706,1.485742,3.587255,0.084043,-2.379337,-14.791335,3.889577,0.129610,-0.047312,0.000000,0.356265,-0.148961,0.000000
0.340000,-2.776501,-2.150625,-1.481998,0.064662,0.191362,-0.018753,0.483224,1.326251,-0.083671,1.458103,3.433444,0.123180,-4.074450,-16.950133,4.077872,0.133099,-0.048803,0.000000,0.341206,-0.146327,-0.000000
0.350000,-2.775830,-2.148645,-1.482190,0.069567,0.204794,-0.019583,0.497574,1.359703,-0.082233,1.412217,3.256903,0.164290,-4.174187,-17.358242,3.995727,0.136425,-0.050257,0.000000,0.324008,-0.141902,-0.000000
0.360000,-2.775109,-2.146528,-1.482390,0.074612,0.218551,-0.020396,0.511491,1.391400,-0.080396,1.371191,3.081892,0.202905,-4.285858,-17.748959,3.880281,0.139581,-0.051670,0.000000,0.306999,-0.137972,-0.000000
0.370000,-2.774338,-2.144273,-1.482597,0.079795,0.232616,-0.021189,0.524973,1.421320,-0.078166,1.324189,2.901072,0.243260,-4.861270,-18.291939,4.034358,0.142564,-0.053041,0.000000,0.289514,-0.133475,0.000000
0.380000,-2.773513,-2.141875,-1.482813,0.085110,0.246971,-0.021958,0.537984,1.449417,-0.075543,1.279280,2.718625,0.280316,-4.109640,-18.183812,3.368380,0.145370,-0.054368,0.000000,0.271887,-0.129189,-0.000000
0.390000,-2.772635,-2.139332,-1.483037,0.090553,0.261598,-0.022699,0.550570,1.475690,-0.072574,1.236991,2.535315,0.313637,-4.598153,-18.582050,3.446041,0.148001,-0.055654,0.000000,0.254177,-0.125161,-0.000000
0.400000,-2.771702,-2.136642,-1.483267,0.096120,0.276478,-0.023408,0.562702,1.500108,-0.069264,1.189522,2.348140,0.347867,-4.641373,-18.730607,3.242700,0.150453,-0.056896,0.000000,0.236156,-0.120637,-0.000000
0.410000,-2.770712,-2.133802,-1.483505,0.101806,0.291594,-0.024083,0.574365,1.522650,-0.065630,1.142943,2.160010,0.378588,-4.683783,-18.837864,3.016639,0.152724,-0.058094,0.000000,0.218035,-0.116197,0.000000
0.420000,-2.769665,-2.130810,-1.483749,0.107606,0.306925,-0.024720,0.585559,1.543310,-0.061691,1.095787,1.972005,0.409228,-4.733521,-18.802196,2.993973,0.154814,-0.059248,0.000000,0.199966,-0.111712,0.000000
0.430000,-2.768560,-2.127663,-1.483999,0.113515,0.322454,-0.025316,0.596280,1.562087,-0.057459,1.048563,1.783133,0.436008,-4.708587,-18.965552,2.355817,0.156723,-0.060356,0.000000,0.181786,-0.107208,-0.000000
0.440000,-2.767394,-2.124360,-1.484255,0.119530,0.338161,-0.025868,0.606530,1.578971,-0.052985,1.001426,1.593809,0.458617,-4.728266,-18.843941,2.279636,0.158449,-0.061418,0.000000,0.163523,-0.102697,0.000000
0.450000,-2.766169,-2.120899,-1.484516,0.125644,0.354027,-0.026375,0.616308,1.593969,-0.048287,0.954142,1.405995,0.480580,-4.715244,-18.759269,1.995289,0.159994,-0.062436,0.000000,0.145419,-0.098175,0.000000
0.460000,-2.764881,-2.117279,-1.484782,0.131854,0.370034,-0.026833,0.625614,1.607092,-0.043387,0.906946,1.218722,0.498818,-4.694090,-18.635485,1.702292,0.161358,-0.063407,0.000000,0.127323,-0.093643,-0.000000
0.470000,-2.763531,-2.113498,-1.485053,0.138155,0.386163,-0.027242,0.634450,1.618353,-0.038316,0.860554,1.033907,0.515071,-4.609560,-18.372577,1.497216,0.162541,-0.064333,0.000000,0.109445,-0.089184,0.000000
0.480000,-2.762118,-2.109555,-1.485327,0.144542,0.402395,-0.027599,0.642825,1.627774,-0.033098,0.814225,0.850312,0.527695,-4.655253,-18.341909,1.025195,0.163547,-0.065215,0.000000,0.091629,-0.084710,0.000000
0.490000,-2.760640,-2.105450,-1.485604,0.151010,0.418712,-0.027904,0.650735,1.635364,-0.027775,0.768028,0.668230,0.536570,-4.555277,-18.016708,0.799705,0.164374,-0.066050,0.000000,0.073898,-0.080225,0.000000
0.500000,-2.759097,-2.101181,-1.485885,0.157555,0.435096,-0.028155,0.658189,1.641151,-0.022373,0.722920,0.489649,0.543254,-4.491813,-17.746323,0.486842,0.165026,-0.066841,0.000000,0.056467,-0.075834,-0.000000
0.510000,-2.757489,-2.096748,-1.486167,0.164172,0.451529,-0.028351,0.665195,1.645164,-0.016921,0.678261,0.313487,0.546700,-4.419599,-17.445380,0.179871,0.165504,-0.067588,0.000000,0.039207,-0.071464,-0.000000
0.520000,-2.755814,-2.092150,-1.486452,0.170857,0.467993,-0.028493,0.671759,1.647434,-0.011451,0.634730,0.141165,0.546651,-4.303435,-17.048766,-0.167207,0.165811,-0.068291,0.000000,0.022251,-0.067181,-0.000000
0.530000,-2.754071,-2.087388,-1.486737,0.177606,0.484472,-0.028580,0.677891,1.647997,-0.005997,0.591834,-0.028121,0.543830,-4.275077,-16.805082,-0.395376,0.165950,-0.068950,0.000000,0.005528,-0.062938,0.000000
0.540000,-2.752261,-2.082461,-1.487023,0.184414,0.500948,-0.028613,0.683597,1.646882,-0.000583,0.549626,-0.194155,0.538320,-4.146911,-16.362928,-0.727631,0.165922,-0.069567,0.000000,-0.010942,-0.058740,0.000000
0.550000,-2.750383,-2.077369,-1.487309,0.191277,0.517404,-0.028592,0.688888,1.644130,0.004758,0.508758,-0.355596,0.529490,-4.043336,-15.956258,-1.014470,0.165732,-0.070142,0.000000,-0.027039,-0.054648,0.000000
0.560000,-2.748436,-2.072113,-1.487595,0.198190,0.533825,-0.028518,0.693776,1.639783,0.010000,0.468841,-0.513167,0.518427,-3.932442,-15.528743,-1.283102,0.165383,-0.070676,0.000000,-0.042817,-0.050628,-0.000000
0.570000,-2.746419,-2.066693,-1.487879,0.205151,0.550195,-0.028392,0.698270,1.633883,0.015111,0.430189,-0.665866,0.503069,-3.803172,-15.033045,-1.702253,0.164877,-0.071169,0.000000,-0.058213,-0.046699,0.000000
0.580000,-2.744333,-2.061109,-1.488162,0.212154,0.566498,-0.028216,0.702383,1.626480,0.020057,0.392664,-0.814297,0.486191,-3.701091,-14.651109,-1.668393,0.164220,-0.071623,0.000000,-0.073239,-0.042864,0.000000
0.590000,-2.742176,-2.055363,-1.488443,0.219197,0.582719,-0.027992,0.706127,1.617612,0.024831,0.356314,-0.958326,0.468049,-3.561822,-14.126724,-2.042451,0.163414,-0.072038,0.000000,-0.087879,-0.039130,0.000000
0.600000,-2.739948,-2.049455,-1.488722,0.226276,0.598845,-0.027721,0.709514,1.607331,0.029403,0.321391,-1.097000,0.446117,-3.428119,-13.631228,-2.256399,0.162463,-0.072416,0.000000,-0.102076,-0.035506,0.000000
0.610000,-2.737650,-2.043386,-1.488998,0.233386,0.614861,-0.027405,0.712559,1.595688,0.033751,0.287775,-1.230927,0.423243,-3.291351,-13.124332,-2.444313,0.161373,-0.072758,0.000000,-0.115844,-0.031998,0.000000
0.620000,-2.735281,-2.037158,-1.489270,0.240526,0.630755,-0.027046,0.715274,1.582732,0.037852,0.255569,-1.359183,0.396103,-3.149291,-12.553039,-2.855151,0.160148,-0.073065,0.000000,-0.129142,-0.028594,0.000000
0.630000,-2.732840,-2.030772,-1.489538,0.247691,0.646512,-0.026648,0.717675,1.568520,0.041674,0.224797,-1.482545,0.368835,-3.004634,-12.118807,-2.591270,0.158792,-0.073338,0.000000,-0.141977,-0.025326,0.000000
0.640000,-2.730327,-2.024229,-1.489803,0.254878,0.662121,-0.026214,0.719775,1.553098,0.045230,0.195490,-1.600969,0.341810,-2.856292,-11.536724,-2.936862,0.157310,-0.073578,0.000000,-0.154337,-0.022200,0.000000
0.650000,-2.727742,-2.017530,-1.490063,0.262085,0.677570,-0.025745,0.721590,1.536521,0.048496,0.167686,-1.713497,0.311242,-2.705031,-10.996451,-3.047033,0.155707,-0.073788,0.000000,-0.166184,-0.019194,-0.000000
0.660000,-2.725085,-2.010678,-1.490318,0.269309,0.692848,-0.025245,0.723134,1.518844,0.051458,0.141398,-1.820960,0.281073,-2.551999,-10.454739,-3.127796,0.153988,-0.073967,0.000000,-0.177534,-0.016338,-0.000000
0.670000,-2.722356,-2.003674,-1.490567,0.276547,0.707943,-0.024717,0.724423,1.500123,0.054104,0.116655,-1.922207,0.247429,-2.396565,-9.833925,-3.457126,0.152158,-0.074119,0.000000,-0.188329,-0.013606,-0.000000
0.680000,-2.719554,-1.996519,-1.490812,0.283797,0.722847,-0.024164,0.725472,1.480416,0.056412,0.093463,-2.018466,0.214949,-2.241823,-9.419008,-3.030818,0.150223,-0.074243,0.000000,-0.198615,-0.011034,-0.000000
0.690000,-2.716680,-1.989217,-1.491051,0.291056,0.737549,-0.023590,0.726297,1.459770,0.058409,0.071829,-2.109786,0.184048,-2.084554,-8.805143,-3.287197,0.148188,-0.074343,0.000000,-0.208391,-0.008628,-0.000000
0.700000,-2.713733,-1.981769,-1.491284,0.298322,0.752039,-0.022997,0.726914,1.438242,0.060081,0.051773,-2.194916,0.150474,-1.927253,-8.260801,-3.282069,0.146057,-0.074418,0.000000,-0.217590,-0.006357,-0.000000
0.710000,-2.710713,-1.974177,-1.491510,0.305594,0.766311,-0.022389,0.727338,1.415887,0.061425,0.033258,-2.275109,0.118468,-1.770745,-7.722903,-3.249118,0.143838,-0.074472,0.000000,-0.226271,-0.004250,0.000000
0.720000,-2.707621,-1.966444,-1.491731,0.312868,0.780355,-0.021769,0.727585,1.392762,0.062441,0.016403,-2.348876,0.084335,-1.605309,-7.085152,-3.444499,0.141534,-0.074505,0.000000,-0.234336,-0.002293,-0.000000
0.730000,-2.704456,-1.958571,-1.491946,0.320145,0.794164,-0.021141,0.727671,1.368925,0.063120,0.001046,-2.417963,0.052367,-1.466429,-6.734997,-2.941673,0.139153,-0.074519,0.000000,-0.241895,-0.000501,-0.000000
0.740000,-2.701218,-1.950561,-1.492154,0.327421,0.807731,-0.020508,0.727611,1.344417,0.063498,-0.012831,-2.482506,0.022948,-1.304156,-6.120200,-3.069653,0.136698,-0.074515,0.000000,-0.248954,0.001124,0.000000
0.750000,-2.697908,-1.942417,-1.492356,0.334696,0.821050,-0.019872,0.727420,1.319297,0.063572,-0.025089,-2.540855,-0.007849,-1.152412,-5.605285,-2.956404,0.134176,-0.074496,0.000000,-0.255401,0.002596,0.000000
0.760000,-2.694524,-1.934141,-1.492552,0.341969,0.834115,-0.019238,0.727113,1.293615,0.063350,-0.035924,-2.594721,-0.036249,-1.003616,-5.102931,-2.821843,0.131591,-0.074463,0.000000,-0.261354,0.003907,-0.000000
0.770000,-2.691068,-1.925736,-1.492741,0.349238,0.846920,-0.018606,0.726707,1.267424,0.062844,-0.045065,-2.642333,-0.065160,-0.836116,-4.485679,-2.859311,0.128951,-0.074418,0.000000,-0.266671,0.005051,0.000000
0.780000,-2.687539,-1.917204,-1.492924,0.356503,0.859462,-0.017982,0.726216,1.240781,0.062057,-0.052888,-2.685824,-0.091316,-0.729304,-4.216404,-2.366203,0.126259,-0.074362,0.000000,-0.271522,0.006041,0.000000
0.790000,-2.683938,-1.908547,-1.493100,0.363762,0.871735,-0.017366,0.725654,1.213720,0.061028,-0.059439,-2.725392,-0.114423,-0.570346,-3.633853,-2.352004,0.123522,-0.074297,0.000000,-0.275926,0.006879,-0.000000
0.800000,-2.680264,-1.899770,-1.493271,0.371016,0.883735,-0.016762,0.725033,1.186294,0.059767,-0.064402,-2.759098,-0.137466,-0.433919,-3.173954,-2.155490,0.120743,-0.074224,0.000000,-0.279722,0.007556,0.000000
0.810000,-2.676518,-1.890874,-1.493436,0.378263,0.895459,-0.016171,0.724369,1.158550,0.058289,-0.068145,-2.788953,-0.157703,-0.302248,-2.730006,-1.946531,0.117929,-0.074145,0.000000,-0.283081,0.008088,0.000000
0.820000,-2.672699,-1.881862,-1.493595,0.385503,0.906905,-0.015597,0.723676,1.130535,0.056616,-0.070340,-2.813104,-0.176879,-0.150328,-2.169559,-1.832060,0.115084,-0.074062,0.000000,-0.285837,0.008454,-0.000000
0.830000,-2.668808,-1.872736,-1.493748,0.392736,0.918069,-0.015040,0.722966,1.102299,0.054762,-0.071434,-2.833802,-0.193161,-0.069582,-1.974393,-1.421150,0.112213,-0.073975,0.000000,-0.288194,0.008687,-0.000000
0.840000,-2.664844,-1.863501,-1.493895,0.399963,0.928950,-0.014502,0.722250,1.073869,0.052763,-0.071490,-2.851278,-0.206383,0.070488,-1.455282,-1.277333,0.109321,-0.073887,0.000000,-0.290179,0.008791,-0.000000
0.850000,-2.660809,-1.854158,-1.494038,0.407182,0.939546,-0.013985,0.721541,1.045292,0.050638,-0.070149,-2.863532,-0.218214,0.184071,-1.065538,-1.032587,0.106412,-0.073799,0.000000,-0.291607,0.008743,0.000000
0.860000,-2.656701,-1.844711,-1.494175,0.414393,0.949856,-0.013489,0.720850,1.016608,0.048408,-0.067932,-2.872625,-0.227278,0.288064,-0.693520,-0.786475,0.103490,-0.073712,0.000000,-0.292674,0.008585,0.000000
0.870000,-2.652521,-1.835162,-1.494308,0.421599,0.959878,-0.013017,0.720188,0.987857,0.046100,-0.064174,-2.876895,-0.234013,0.436967,-0.222186,-0.551830,0.100560,-0.073627,0.000000,-0.293219,0.008253,-0.000000
0.880000,-2.648269,-1.825515,-1.494436,0.428797,0.969613,-0.012568,0.719568,0.959079,0.043737,-0.059750,-2.878359,-0.238136,0.446140,-0.074874,-0.272299,0.097627,-0.073546,0.000000,-0.293445,0.007834,0.000000
0.890000,-2.643945,-1.815771,-1.494559,0.435990,0.979060,-0.012142,0.718995,0.930298,0.041346,-0.054753,-2.877248,-0.239622,0.577991,0.354007,-0.033243,0.094692,-0.073470,0.000000,-0.293376,0.007337,0.000000
0.900000,-2.639549,-1.805934,-1.494679,0.443177,0.988219,-0.011741,0.718478,0.901550,0.038952,-0.048429,-2.871833,-0.238737,0.659941,0.666841,0.218614,0.091761,-0.073399,0.000000,-0.292844,0.006688,-0.000000
0.910000,-2.635081,-1.796008,-1.494794,0.450360,0.997091,-0.011363,0.718028,0.872869,0.036579,-0.041519,-2.863905,-0.235497,0.735667,0.962922,0.463716,0.088836,-0.073336,0.000000,-0.292032,0.005962,0.000000
0.920000,-2.630542,-1.785993,-1.494906,0.457538,1.005677,-0.011009,0.717652,0.844285,0.034253,-0.033602,-2.852194,-0.229155,0.832456,1.331322,0.770088,0.085921,-0.073280,0.000000,-0.290808,0.005112,-0.000000
0.930000,-2.625930,-1.775895,-1.495014,0.464713,1.013977,-0.010678,0.717357,0.815832,0.032002,-0.025190,-2.838281,-0.220823,0.848514,1.447314,0.894272,0.083021,-0.073233,0.000000,-0.289344,0.004196,-0.000000
0.940000,-2.621247,-1.765715,-1.495119,0.471886,1.021994,-0.010369,0.717149,0.787526,0.029843,-0.016366,-2.822380,-0.210607,0.929445,1.776397,1.181720,0.080135,-0.073196,0.000000,-0.287665,0.003225,0.000000
0.950000,-2.616493,-1.755456,-1.495222,0.479057,1.029728,-0.010081,0.717033,0.759396,0.027800,-0.006743,-2.803190,-0.197504,0.979627,2.013245,1.403384,0.077269,-0.073169,0.000000,-0.285632,0.002151,-0.000000
0.960000,-2.611666,-1.745121,-1.495321,0.486227,1.037182,-0.009812,0.717015,0.731468,0.025897,0.003218,-2.782074,-0.182763,1.022812,2.235341,1.610503,0.074423,-0.073153,0.000000,-0.283398,0.001032,-0.000000
0.970000,-2.606768,-1.734713,-1.495418,0.493397,1.044358,-0.009562,0.717100,0.703764,0.024157,0.013795,-2.758274,-0.164709,1.080452,2.495300,1.933104,0.071602,-0.073149,0.000000,-0.280873,-0.000175,-0.000000
0.980000,-2.601798,-1.724235,-1.495512,0.500569,1.051259,-0.009328,0.717292,0.676308,0.022607,0.024575,-2.732783,-0.145509,1.074219,2.599907,1.902883,0.068806,-0.073157,0.000000,-0.278178,-0.001410,-0.000000
0.990000,-2.596757,-1.713689,-1.495605,0.507743,1.057885,-0.009109,0.717592,0.649113,0.021250,0.035478,-2.705775,-0.125372,1.116304,2.826707,2.188393,0.066039,-0.073177,0.000000,-0.275333,-0.002665,0.000000
1.000000,-2.591644,-1.703078,-1.495695,0.514921,1.064242,-0.008903,0.718003,0.622200,0.020110,0.046785,-2.676527,-0.102348,1.132949,2.993723,2.348590,0.063300,-0.073210,0.000000,-0.272252,-0.003983,0.000000
1.010000,-2.586458,-1.692405,-1.495783,0.522104,1.070330,-0.008706,0.718527,0.595587,0.019204,0.058062,-2.645849,-0.078576,1.141434,3.148546,2.489404,0.060594,-0.073257,0.000000,-0.269034,-0.005303,0.000000
1.020000,-2.581201,-1.681672,-1.495869,0.529292,1.076155,-0.008518,0.719166,0.569289,0.018550,0.069776,-2.613517,-0.051819,1.180865,3.307177,2.776032,0.057920,-0.073317,0.000000,-0.265643,-0.006690,-0.000000
1.030000,-2.575873,-1.670883,-1.495953,0.536487,1.081717,-0.008334,0.719922,0.543321,0.018168,0.081249,-2.579926,-0.024857,1.111934,3.408637,2.611136,0.055281,-0.073391,0.000000,-0.262139,-0.008055,-0.000000
1.040000,-2.570472,-1.660039,-1.496036,0.543691,1.087022,-0.008154,0.720789,0.517694,0.018052,0.092388,-2.545211,0.002037,1.134541,3.541190,2.849291,0.052678,-0.073478,0.000000,-0.258534,-0.009386,-0.000000
1.050000,-2.564999,-1.649143,-1.496116,0.550904,1.092072,-0.007972,0.721770,0.492421,0.018218,0.103746,-2.509218,0.031354,1.117071,3.647159,2.927830,0.050111,-0.073579,0.000000,-0.254802,-0.010759,-0.000000
1.060000,-2.559454,-1.638198,-1.496195,0.558127,1.096872,-0.007788,0.722863,0.467513,0.018677,0.114772,-2.472244,0.060479,1.094090,3.742799,2.985005,0.047582,-0.073693,0.000000,-0.250987,-0.012098,-0.000000
1.070000,-2.553836,-1.627207,-1.496272,0.565361,1.101424,-0.007598,0.724065,0.442979,0.019437,0.125672,-2.434426,0.091832,1.078167,3.821819,3.194780,0.045092,-0.073821,0.000000,-0.247092,-0.013442,0.000000
1.080000,-2.548146,-1.616171,-1.496347,0.572608,1.105733,-0.007398,0.725375,0.418827,0.020511,0.136172,-2.395782,0.122468,1.020526,3.905354,2.926791,0.042641,-0.073962,0.000000,-0.243131,-0.014743,-0.000000
1.090000,-2.542384,-1.605093,-1.496420,0.579869,1.109802,-0.007187,0.726787,0.395066,0.021882,0.146202,-2.356413,0.152092,0.991347,3.963870,3.083975,0.040229,-0.074116,0.000000,-0.239116,-0.015989,0.000000
1.100000,-2.536549,-1.593975,-1.496491,0.587144,1.113635,-0.006960,0.728298,0.371701,0.023560,0.155923,-2.316511,0.183334,0.944853,4.017486,3.073108,0.037858,-0.074282,0.000000,-0.235055,-0.017219,0.000000
1.110000,-2.530641,-1.582821,-1.496559,0.594435,1.117237,-0.006714,0.729904,0.348738,0.025544,0.165075,-2.276059,0.213506,0.892330,4.062120,3.041511,0.035528,-0.074460,0.000000,-0.230957,-0.018385,-0.000000
1.120000,-2.524660,-1.571631,-1.496625,0.601743,1.120611,-0.006448,0.731599,0.326180,0.027835,0.173821,-2.235384,0.244874,0.848491,4.080215,3.148549,0.033239,-0.074650,0.000000,-0.226845,-0.019521,-0.000000
1.130000,-2.518606,-1.560409,-1.496688,0.609068,1.123762,-0.006157,0.733378,0.304031,0.030436,0.181874,-2.194299,0.274727,0.761137,4.135540,2.816759,0.030991,-0.074851,0.000000,-0.222711,-0.020578,-0.000000
1.140000,-2.512479,-1.549157,-1.496748,0.616411,1.126693,-0.005838,0.735233,0.282296,0.033323,0.189175,-2.152883,0.302788,0.705512,4.137269,2.874361,0.028785,-0.075062,0.000000,-0.218560,-0.021548,-0.000000
1.150000,-2.506278,-1.537876,-1.496805,0.623773,1.129409,-0.005489,0.737160,0.260974,0.036495,0.195904,-2.111501,0.331467,0.632324,4.146027,2.777871,0.026620,-0.075282,0.000000,-0.214422,-0.022467,0.000000
1.160000,-2.500003,-1.526569,-1.496858,0.631154,1.131914,-0.005107,0.739149,0.240066,0.039946,0.201807,-2.069989,0.358358,0.554198,4.146577,2.663986,0.024497,-0.075511,0.000000,-0.210285,-0.023290,-0.000000
1.170000,-2.493655,-1.515239,-1.496907,0.638556,1.134212,-0.004690,0.741194,0.219573,0.043664,0.207035,-2.028675,0.385308,0.484122,4.123156,2.659379,0.022414,-0.075747,0.000000,-0.206178,-0.024048,0.000000
1.180000,-2.487232,-1.503886,-1.496951,0.645978,1.136307,-0.004233,0.743286,0.199493,0.047644,0.211337,-1.987379,0.410148,0.375508,4.134977,2.304392,0.020373,-0.075991,0.000000,-0.202087,-0.024699,-0.000000
1.190000,-2.480735,-1.492513,-1.496991,0.653422,1.138203,-0.003736,0.745417,0.179825,0.051858,0.214663,-1.946168,0.432653,0.295591,4.097787,2.259269,0.018373,-0.076241,0.000000,-0.198015,-0.025234,-0.000000
1.200000,-2.474163,-1.481122,-1.497026,0.660887,1.139905,-0.003195,0.747577,0.160568,0.056297,0.217180,-1.905377,0.454740,0.200663,4.067355,2.091468,0.016413,-0.076496,0.000000,-0.193993,-0.025685,0.000000
1.210000,-2.467517,-1.469716,-1.497055,0.668373,1.141416,-0.002609,0.749757,0.141717,0.060945,0.218662,-1.864874,0.474551,0.101615,4.029429,1.911692,0.014493,-0.076755,0.000000,-0.190008,-0.026016,-0.000000
1.220000,-2.460796,-1.458295,-1.497078,0.675882,1.142741,-0.001976,0.751947,0.123269,0.065785,0.219264,-1.824838,0.493339,0.011718,3.979333,1.802054,0.012612,-0.077016,0.000000,-0.186076,-0.026251,0.000000
1.230000,-2.453999,-1.446861,-1.497094,0.683412,1.143883,-0.001293,0.754139,0.105218,0.070803,0.218748,-1.785252,0.509676,-0.115559,3.936818,1.462545,0.010771,-0.077279,0.000000,-0.182196,-0.026353,0.000000
1.240000,-2.447128,-1.435418,-1.497103,0.690964,1.144846,-0.000559,0.756318,0.087562,0.075970,0.217076,-1.746179,0.523412,-0.212869,3.874030,1.325737,0.008968,-0.077543,0.000000,-0.178372,-0.026319,-0.000000
1.250000,-2.440180,-1.423965,-1.497105,0.698538,1.145635,0.000227,0.758477,0.070293,0.081268,0.214419,-1.707769,0.535799,-0.324640,3.809644,1.108600,0.007203,-0.077805,0.000000,-0.174617,-0.026174,0.000000
1.260000,-2.433157,-1.412506,-1.497099,0.706134,1.146253,0.001067,0.760603,0.053404,0.086677,0.210566,-1.670056,0.545685,-0.439015,3.738302,0.885558,0.005476,-0.078066,0.000000,-0.170933,-0.025887,-0.000000
1.270000,-2.426057,-1.401041,-1.497084,0.713750,1.146705,0.001961,0.762685,0.036890,0.092175,0.205700,-1.632965,0.553655,-0.541761,3.672849,0.690104,0.003784,-0.078323,0.000000,-0.167313,-0.025482,-0.000000
1.280000,-2.418882,-1.389572,-1.497059,0.721387,1.146992,0.002910,0.764712,0.020742,0.097742,0.199573,-1.596745,0.559107,-0.684029,3.569957,0.399158,0.002129,-0.078575,0.000000,-0.163779,-0.024927,0.000000
1.290000,-2.411630,-1.378101,-1.497025,0.729044,1.147121,0.003916,0.766672,0.004951,0.103349,0.192159,-1.561461,0.561976,-0.791778,3.492226,0.191624,0.000509,-0.078821,0.000000,-0.160337,-0.024218,-0.000000
1.300000,-2.404301,-1.366630,-1.496981,0.736721,1.147093,0.004977,0.768552,-0.010490,0.108975,0.183666,-1.526968,0.562783,-0.913624,3.399158,-0.048253,-0.001078,-0.079059,0.000000,-0.156971,-0.023382,0.000000
1.310000,-2.396895,-1.355160,-1.496926,0.744415,1.146912,0.006095,0.770341,-0.025591,0.114596,0.173886,-1.493515,0.561136,-1.036552,3.300478,-0.287878,-0.002631,-0.079288,0.000000,-0.153706,-0.022392,0.000000
1.320000,-2.389412,-1.343692,-1.496859,0.752127,1.146582,0.007269,0.772026,-0.040363,0.120189,0.162987,-1.460883,0.556961,-1.149100,3.215601,-0.540663,-0.004152,-0.079506,0.000000,-0.150518,-0.021265,0.000000
1.330000,-2.381852,-1.332229,-1.496780,0.759855,1.146106,0.008499,0.773596,-0.054813,0.125728,0.150780,-1.429417,0.550462,-1.292587,3.076683,-0.758846,-0.005642,-0.079712,0.000000,-0.147440,-0.019982,0.000000
1.340000,-2.374215,-1.320771,-1.496689,0.767599,1.145487,0.009783,0.775037,-0.068955,0.131190,0.137252,-1.399170,0.541657,-1.407165,2.981618,-1.008451,-0.007102,-0.079905,0.000000,-0.144479,-0.018543,-0.000000
1.350000,-2.366500,-1.309320,-1.496584,0.775356,1.144728,0.011122,0.776338,-0.082800,0.136553,0.122591,-1.369878,0.530361,-1.531247,2.866703,-1.244071,-0.008532,-0.080083,0.000000,-0.141604,-0.016963,0.000000
1.360000,-2.358708,-1.297877,-1.496466,0.783125,1.143832,0.012514,0.777485,-0.096357,0.141791,0.106655,-1.341868,0.516909,-1.654825,2.747602,-1.473693,-0.009934,-0.080244,0.000000,-0.138850,-0.015232,-0.000000
1.370000,-2.350838,-1.286443,-1.496334,0.790905,1.142801,0.013958,0.778467,-0.109640,0.146881,0.089507,-1.314816,0.500644,-1.775663,2.649853,-1.751281,-0.011309,-0.080387,0.000000,-0.136182,-0.013349,0.000000
1.380000,-2.342890,-1.275021,-1.496187,0.798694,1.141640,0.015451,0.779271,-0.122658,0.151797,0.071124,-1.289145,0.482471,-1.900779,2.483522,-1.881464,-0.012658,-0.080510,0.000000,-0.133644,-0.011320,0.000000
1.390000,-2.334864,-1.263611,-1.496024,0.806489,1.140349,0.016993,0.779885,-0.135428,0.156524,0.051517,-1.264897,0.462485,-2.019206,2.378372,-2.142198,-0.013982,-0.080613,0.000000,-0.131239,-0.009147,-0.000000
1.400000,-2.326760,-1.252214,-1.495847,0.814291,1.138932,0.018581,0.780297,-0.147959,0.161038,0.030732,-1.241693,0.439890,-2.138103,2.249673,-2.348858,-0.015283,-0.080693,0.000000,-0.128926,-0.006826,0.000000
1.410000,-2.318578,-1.240833,-1.495653,0.822095,1.137391,0.020213,0.780496,-0.160266,0.165317,0.008751,-1.219917,0.415633,-2.254988,2.118888,-2.544870,-0.016561,-0.080749,0.000000,-0.126747,-0.004366,0.000000
1.420000,-2.310318,-1.229467,-1.495442,0.829900,1.135727,0.021886,0.780469,-0.172361,0.169341,-0.014335,-1.199195,0.388619,-2.364343,2.012323,-2.813961,-0.017818,-0.080780,0.000000,-0.124660,-0.001765,-0.000000
1.430000,-2.301980,-1.218119,-1.495215,0.837703,1.133944,0.023599,0.780205,-0.184255,0.173085,-0.038583,-1.179948,0.360274,-2.485014,1.836580,-2.852247,-0.019055,-0.080784,0.000000,-0.122710,0.000970,0.000000
1.440000,-2.293564,-1.206789,-1.494970,0.845503,1.132043,0.025347,0.779693,-0.195965,0.176543,-0.063970,-1.162199,0.330750,-2.589091,1.726477,-3.093513,-0.020273,-0.080760,0.000000,-0.120901,0.003836,0.000000
1.450000,-2.285070,-1.195478,-1.494708,0.853296,1.130025,0.027129,0.778922,-0.207503,0.179692,-0.090376,-1.145530,0.298802,-2.694170,1.594081,-3.251744,-0.021473,-0.080707,0.000000,-0.119187,0.006829,0.000000
1.460000,-2.276498,-1.184188,-1.494427,0.861081,1.127893,0.028940,0.777882,-0.218880,0.182516,-0.117849,-1.130267,0.265814,-2.796609,1.463192,-3.395942,-0.022657,-0.080623,0.000000,-0.117602,0.009943,-0.000000
1.470000,-2.267849,-1.172921,-1.494129,0.868853,1.125648,0.030778,0.776562,-0.230112,0.184999,-0.146288,-1.116213,0.230441,-2.891855,1.342868,-3.626075,-0.023826,-0.080507,0.000000,-0.116124,0.013178,-0.000000
1.480000,-2.259121,-1.161676,-1.493812,0.876611,1.123292,0.032639,0.774953,-0.241209,0.187123,-0.175700,-1.103509,0.194394,-2.989683,1.198087,-3.579727,-0.024980,-0.080359,0.000000,-0.114772,0.016519,-0.000000
1.490000,-2.250316,-1.150455,-1.493476,0.884351,1.120824,0.034519,0.773045,-0.252187,0.188886,-0.206040,-1.092142,0.157865,-3.076254,1.080660,-3.775184,-0.026122,-0.080177,0.000000,-0.113544,0.019961,-0.000000
1.500000,-2.241434,-1.139260,-1.493121,0.892071,1.118248,0.036415,0.770830,-0.263056,0.190272,-0.237216,-1.081933,0.119363,-3.159829,0.956999,-3.871703,-0.027251,-0.079959,0.000000,-0.112417,0.023505,-0.000000
1.510000,-2.232475,-1.128091,-1.492748,0.899767,1.115564,0.038323,0.768298,-0.273829,0.191272,-0.269114,-1.072941,0.080498,-3.236175,0.837421,-3.952541,-0.028370,-0.079706,0.000000,-0.111402,0.027126,0.000000
1.520000,-2.223439,-1.116949,-1.492355,0.907436,1.112772,0.040239,0.765443,-0.284519,0.191876,-0.302082,-1.065216,0.039865,-3.339546,0.712742,-4.120094,-0.029480,-0.079416,0.000000,-0.110500,0.030869,-0.000000
1.530000,-2.214327,-1.105836,-1.491943,0.915074,1.109874,0.042159,0.762255,-0.295137,0.192070,-0.335530,-1.058579,-0.000773,-3.348470,0.615482,-4.003692,-0.030581,-0.079088,0.000000,-0.109698,0.034658,0.000000
1.540000,-2.205138,-1.094752,-1.491512,0.922680,1.106869,0.044079,0.758732,-0.305694,0.191861,-0.369373,-1.052982,-0.041212,-3.436358,0.500106,-4.134078,-0.031674,-0.078722,0.000000,-0.108991,0.038483,0.000000
1.550000,-2.195873,-1.083698,-1.491061,0.930248,1.103760,0.045995,0.754865,-0.316201,0.191240,-0.404088,-1.048521,-0.082969,-3.488777,0.397359,-4.162791,-0.032761,-0.078318,0.000000,-0.108384,0.042403,0.000000
1.560000,-2.186533,-1.072677,-1.490592,0.937776,1.100545,0.047903,0.750649,-0.326667,0.190203,-0.439142,-1.044960,-0.124434,-3.534284,0.301189,-4.176059,-0.033842,-0.077874,0.000000,-0.107858,0.046350,-0.000000
1.570000,-2.177118,-1.061688,-1.490103,0.945260,1.097227,0.049798,0.746079,-0.337104,0.188748,-0.474875,-1.042612,-0.166889,-3.598220,0.183570,-4.266156,-0.034918,-0.077390,0.000000,-0.107441,0.050368,-0.000000
1.580000,-2.167628,-1.050733,-1.489596,0.952696,1.093803,0.051676,0.741151,-0.347522,0.186868,-0.510808,-1.040973,-0.208733,-3.586730,0.145713,-4.098867,-0.035991,-0.076866,0.000000,-0.107086,0.054394,-0.000000
1.590000,-2.158064,-1.039812,-1.489070,0.960081,1.090276,0.053534,0.735863,-0.357926,0.184576,-0.546851,-1.039961,-0.249769,-3.633762,0.043518,-4.153502,-0.037060,-0.076302,0.000000,-0.106786,0.058415,0.000000
1.600000,-2.148426,-1.028927,-1.488525,0.967412,1.086645,0.055366,0.730212,-0.368325,0.181870,-0.583350,-1.039960,-0.291357,-3.651354,-0.027813,-4.115245,-0.038127,-0.075697,0.000000,-0.106575,0.062478,-0.000000
1.610000,-2.138716,-1.018080,-1.487963,0.974684,1.082910,0.057170,0.724196,-0.378726,0.178752,-0.619865,-1.040439,-0.332071,-3.661006,-0.090265,-4.063453,-0.039192,-0.075051,0.000000,-0.106404,0.066525,-0.000000
1.620000,-2.128933,-1.007270,-1.487382,0.981895,1.079070,0.058940,0.717814,-0.389137,0.175227,-0.656642,-1.041957,-0.372936,-3.682775,-0.189365,-4.070678,-0.040255,-0.074365,0.000000,-0.106327,0.070588,0.000000
1.630000,-2.119078,-0.996499,-1.486784,0.989040,1.075127,0.060673,0.711064,-0.399566,0.171298,-0.693280,-1.043720,-0.412670,-3.643315,-0.161201,-3.873017,-0.041318,-0.073638,0.000000,-0.106267,0.074615,-0.000000
1.640000,-2.109152,-0.985767,-1.486169,0.996115,1.071079,0.062365,0.703949,-0.410012,0.166979,-0.729689,-1.045618,-0.451105,-3.647435,-0.240077,-3.849521,-0.042381,-0.072872,0.000000,-0.106214,0.078595,-0.000000
1.650000,-2.099156,-0.975077,-1.485537,1.003117,1.066927,0.064011,0.696470,-0.420481,0.162276,-0.766115,-1.048297,-0.489306,-3.626071,-0.271479,-3.751673,-0.043443,-0.072065,0.000000,-0.106229,0.082562,-0.000000
1.660000,-2.089090,-0.964429,-1.484889,1.010043,1.062669,0.065609,0.688628,-0.430978,0.157197,-0.802121,-1.050969,-0.526161,-3.594991,-0.292665,-3.642887,-0.044505,-0.071219,0.000000,-0.106238,0.086460,-0.000000
1.670000,-2.078956,-0.953824,-1.484225,1.016889,1.058307,0.067154,0.680427,-0.441504,0.151754,-0.838182,-1.054407,-0.562361,-3.595252,-0.363286,-3.571006,-0.045568,-0.070334,0.000000,-0.106316,0.090343,-0.000000
1.680000,-2.068753,-0.943263,-1.483546,1.023650,1.053839,0.068643,0.671867,-0.452065,0.145955,-0.873570,-1.057576,-0.597037,-3.480470,-0.268114,-3.361816,-0.046632,-0.069411,0.000000,-0.106362,0.094131,0.000000
1.690000,-2.058483,-0.932748,-1.482852,1.030325,1.049266,0.070072,0.662958,-0.462654,0.139819,-0.908178,-1.060348,-0.630060,-3.460506,-0.315201,-3.266018,-0.047695,-0.068450,0.000000,-0.106363,0.097811,-0.000000
1.700000,-2.048147,-0.922279,-1.482145,1.036908,1.044586,0.071438,0.653704,-0.473274,0.133357,-0.942579,-1.063592,-0.662118,-3.397804,-0.301891,-3.119568,-0.048759,-0.067452,0.000000,-0.106406,0.101446,-0.000000
1.710000,-2.037745,-0.911857,-1.481424,1.043398,1.039800,0.072738,0.644110,-0.483924,0.126582,-0.976101,-1.066340,-0.692502,-3.324935,-0.278845,-2.966325,-0.049823,-0.066419,0.000000,-0.106395,0.104963,0.000000
1.720000,-2.027279,-0.901483,-1.480690,1.049790,1.034907,0.073969,0.634183,-0.494602,0.119511,-1.009204,-1.069456,-0.721535,-3.277356,-0.310057,-2.827363,-0.050887,-0.065351,0.000000,-0.106419,0.108411,-0.000000
1.730000,-2.016750,-0.891159,-1.479945,1.056080,1.029908,0.075127,0.623929,-0.505310,0.112158,-1.041269,-1.071821,-0.748782,-3.133786,-0.160416,-2.620625,-0.051951,-0.064248,0.000000,-0.106365,0.111725,0.000000
1.740000,-2.006158,-0.880885,-1.479188,1.062267,1.024801,0.076211,0.613361,-0.516036,0.104542,-1.072194,-1.073302,-0.774161,-3.066951,-0.167640,-2.465854,-0.053014,-0.063114,0.000000,-0.106221,0.114893,0.000000
1.750000,-1.995505,-0.870663,-1.478421,1.068347,1.019587,0.077217,0.602487,-0.526777,0.096680,-1.102437,-1.074865,-0.797982,-2.963461,-0.110268,-2.285559,-0.054076,-0.061948,0.000000,-0.106086,0.117966,0.000000
1.760000,-1.984791,-0.860494,-1.477644,1.074316,1.014266,0.078144,0.591317,-0.537529,0.088589,-1.131440,-1.075473,-0.819915,-2.851676,-0.043011,-2.100635,-0.055135,-0.060751,0.000000,-0.105854,0.120885,-0.000000
1.770000,-1.974019,-0.850378,-1.476858,1.080172,1.008836,0.078989,0.579861,-0.548287,0.080287,-1.159590,-1.076003,-0.839984,-2.761865,-0.029467,-1.911965,-0.056193,-0.059527,0.000000,-0.105618,0.123690,0.000000
1.780000,-1.963188,-0.840317,-1.476064,1.085912,1.003300,0.079749,0.568130,-0.559045,0.071795,-1.186331,-1.075364,-0.858131,-2.584546,0.159406,-1.716738,-0.057247,-0.058274,0.000000,-0.105267,0.126325,-0.000000
1.790000,-1.952301,-0.830312,-1.475263,1.091534,0.997656,0.080424,0.556140,-0.569789,0.063131,-1.211566,-1.073438,-0.874316,-2.476827,0.194813,-1.520315,-0.058298,-0.056996,0.000000,-0.104790,0.128782,0.000000
1.800000,-1.941358,-0.820365,-1.474456,1.097034,0.991904,0.081011,0.543902,-0.580513,0.054315,-1.235720,-1.071170,-0.888526,-2.336444,0.292238,-1.320340,-0.059343,-0.055695,0.000000,-0.104285,0.131105,-0.000000
1.810000,-1.930361,-0.810475,-1.473643,1.102411,0.986045,0.081510,0.531431,-0.591208,0.045367,-1.258283,-1.067585,-0.900763,-2.188415,0.397621,-1.118804,-0.060383,-0.054370,0.000000,-0.103654,0.133243,-0.000000
1.820000,-1.919310,-0.800644,-1.472826,1.107662,0.980080,0.081918,0.518740,-0.601864,0.036308,-1.279589,-1.063455,-0.910822,-2.058639,0.456731,-0.900590,-0.061416,-0.053025,0.000000,-0.102977,0.135231,0.000000
1.830000,-1.908208,-0.790874,-1.472005,1.112785,0.974008,0.082236,0.505845,-0.612472,0.027157,-1.299164,-1.057855,-0.918932,-1.854983,0.665182,-0.721456,-0.062442,-0.051661,0.000000,-0.102161,0.137023,-0.000000
1.840000,-1.897055,-0.781164,-1.471182,1.117778,0.967831,0.082461,0.492763,-0.623015,0.017935,-1.316928,-1.050687,-0.925093,-1.709917,0.741768,-0.502848,-0.063459,-0.050280,0.000000,-0.101196,0.138612,0.000000
1.850000,-1.885853,-0.771517,-1.470356,1.122640,0.961548,0.082594,0.479511,-0.633484,0.008663,-1.333236,-1.042770,-0.929052,-1.537203,0.870218,-0.297043,-0.064466,-0.048884,0.000000,-0.100170,0.140036,-0.000000
1.860000,-1.874602,-0.761934,-1.469530,1.127368,0.955161,0.082634,0.466105,-0.643865,-0.000639,-1.347668,-1.033290,-0.931064,-1.358373,1.004286,-0.092547,-0.065462,-0.047474,0.000000,-0.098999,0.141254,-0.000000
1.870000,-1.863306,-0.752414,-1.468704,1.131961,0.948671,0.082581,0.452563,-0.654147,-0.009950,-1.360479,-1.022877,-0.930788,-1.193232,1.100723,0.135072,-0.066445,-0.046053,0.000000,-0.097750,0.142293,-0.000000
1.880000,-1.851964,-0.742961,-1.467879,1.136419,0.942079,0.082435,0.438902,-0.664317,-0.019249,-1.371308,-1.010807,-0.928627,-0.971337,1.314505,0.296645,-0.067416,-0.044623,0.000000,-0.096349,0.143120,0.000000
1.890000,-1.840578,-0.733573,-1.467056,1.140739,0.935385,0.082196,0.425143,-0.674357,-0.028517,-1.380090,-0.997016,-0.924610,-0.794272,1.422230,0.518814,-0.068372,-0.043185,0.000000,-0.094790,0.143730,-0.000000
1.900000,-1.829149,-0.724253,-1.466235,1.144921,0.928592,0.081865,0.411306,-0.684254,-0.037733,-1.387095,-0.982165,-0.918366,-0.595935,1.569962,0.717475,-0.069312,-0.041742,0.000000,-0.093144,0.144150,0.000000
1.910000,-1.817680,-0.715002,-1.465419,1.148965,0.921701,0.081442,0.397409,-0.693995,-0.046878,-1.392005,-0.965662,-0.910283,-0.393146,1.719496,0.912836,-0.070234,-0.040296,0.000000,-0.091350,0.144353,0.000000
1.920000,-1.806170,-0.705819,-1.464607,1.152869,0.914713,0.080928,0.383472,-0.703563,-0.055931,-1.395016,-0.947874,-0.899988,-0.200917,1.849281,1.131888,-0.071138,-0.038849,0.000000,-0.089449,0.144358,-0.000000
1.930000,-1.794623,-0.696708,-1.463800,1.156634,0.907630,0.080324,0.369516,-0.712947,-0.064872,-1.395855,-0.928443,-0.887947,0.033892,2.037466,1.275116,-0.072023,-0.037402,0.000000,-0.087403,0.144142,0.000000
1.940000,-1.783038,-0.687667,-1.463000,1.160260,0.900455,0.079631,0.355562,-0.722127,-0.073685,-1.394479,-0.907347,-0.874217,0.234201,2.170544,1.484217,-0.072886,-0.035959,0.000000,-0.085209,0.143702,0.000000
1.950000,-1.771418,-0.678699,-1.462208,1.163746,0.893188,0.078851,0.341633,-0.731089,-0.082349,-1.391099,-0.884939,-0.858395,0.449795,2.321927,1.665561,-0.073727,-0.034521,0.000000,-0.082908,0.143060,0.000000
1.960000,-1.759764,-0.669804,-1.461424,1.167093,0.885834,0.077984,0.327748,-0.739820,-0.090847,-1.385474,-0.860978,-0.840930,0.669154,2.472026,1.841162,-0.074544,-0.033091,0.000000,-0.080473,0.142194,0.000000
1.970000,-1.748077,-0.660982,-1.460649,1.170301,0.878393,0.077034,0.313930,-0.748304,-0.099161,-1.377747,-0.835471,-0.821469,0.881026,2.626014,2.037284,-0.075336,-0.031670,0.000000,-0.077908,0.141121,0.000000
1.980000,-1.736358,-0.652236,-1.459883,1.173371,0.870868,0.076002,0.300201,-0.756525,-0.107272,-1.367750,-0.808529,-0.800474,1.118959,2.761959,2.160296,-0.076101,-0.030261,0.000000,-0.075222,0.139825,0.000000
1.990000,-1.724610,-0.643565,-1.459129,1.176305,0.863263,0.074889,0.286583,-0.764470,-0.115166,-1.355457,-0.780180,-0.778019,1.335016,2.910477,2.342992,-0.076840,-0.028866,0.000000,-0.072417,0.138306,-0.000000
2.000000,-1.712833,-0.634971,-1.458386,1.179104,0.855580,0.073699,0.273099,-0.772124,-0.122826,-1.341006,-0.750358,-0.753744,1.560069,3.050405,2.497749,-0.077549,-0.027488,0.000000,-0.069491,0.136579,-0.000000
2.010000,-1.701028,-0.626454,-1.457655,1.181768,0.847822,0.072434,0.259770,-0.779473,-0.130236,-1.324280,-0.719235,-0.728077,1.785531,3.185383,2.645891,-0.078229,-0.026127,0.000000,-0.066458,0.134633,-0.000000
2.020000,-1.689198,-0.618015,-1.456937,1.184300,0.839992,0.071095,0.246621,-0.786503,-0.137382,-1.305293,-0.686556,-0.700742,2.011692,3.338104,2.808962,-0.078878,-0.024787,0.000000,-0.063294,0.132471,-0.000000
2.030000,-1.677343,-0.609654,-1.456233,1.186701,0.832093,0.069687,0.233672,-0.793200,-0.144247,-1.284050,-0.652731,-0.672153,2.236900,3.425713,2.907505,-0.079495,-0.023470,0.000000,-0.060039,0.130096,0.000000
2.040000,-1.665464,-0.601373,-1.455544,1.188974,0.824129,0.068212,0.220947,-0.799554,-0.150821,-1.260553,-0.617827,-0.642392,2.462610,3.565659,3.054715,-0.080079,-0.022178,0.000000,-0.056698,0.127509,-0.000000
2.050000,-1.653564,-0.593172,-1.454869,1.191121,0.816103,0.066672,0.208468,-0.805552,-0.157090,-1.234802,-0.581536,-0.611177,2.687231,3.679963,3.175789,-0.080628,-0.020913,0.000000,-0.053242,0.124709,-0.000000
2.060000,-1.641642,-0.585051,-1.454211,1.193144,0.808019,0.065071,0.196259,-0.811182,-0.163041,-1.206793,-0.544270,-0.578894,2.911325,3.786698,3.289198,-0.081143,-0.019676,0.000000,-0.049710,0.121699,-0.000000
2.070000,-1.629701,-0.577012,-1.453568,1.195047,0.799881,0.063412,0.184340,-0.816432,-0.168663,-1.176602,-0.505695,-0.545330,3.129026,3.913289,3.412940,-0.081622,-0.018471,0.000000,-0.046070,0.118485,-0.000000
2.080000,-1.617742,-0.569054,-1.452943,1.196832,0.791692,0.061699,0.172734,-0.821293,-0.173945,-1.144166,-0.466320,-0.510857,3.358006,3.960022,3.480028,-0.082064,-0.017299,0.000000,-0.042369,0.115063,0.000000
2.090000,-1.605765,-0.561178,-1.452334,1.198503,0.783456,0.059934,0.161464,-0.825757,-0.178878,-1.109499,-0.426241,-0.475567,3.572452,4.068431,3.586083,-0.082469,-0.016163,0.000000,-0.038616,0.111434,0.000000
2.100000,-1.593772,-0.553385,-1.451744,1.200062,0.775178,0.058122,0.150551,-0.829814,-0.183452,-1.072712,-0.385098,-0.439246,3.788006,4.144859,3.667631,-0.082836,-0.015064,0.000000,-0.034777,0.107609,-0.000000
2.110000,-1.581764,-0.545675,-1.451172,1.201515,0.766861,0.056266,0.140019,-0.833461,-0.187660,-1.033277,-0.344225,-0.402247,4.010460,4.195091,3.740459,-0.083165,-0.014004,0.000000,-0.030979,0.103536,-0.000000
2.120000,-1.569742,-0.538048,-1.450619,1.202864,0.758510,0.054370,0.129886,-0.836683,-0.191494,-0.993324,-0.299689,-0.364378,4.064751,4.548907,3.822493,-0.083454,-0.012986,0.000000,-0.026835,0.099427,0.000000
2.130000,-1.557707,-0.530505,-1.450085,1.204114,0.750129,0.052438,0.120164,-0.839461,-0.194946,-0.950205,-0.256674,-0.326020,4.560954,4.047708,3.847427,-0.083702,-0.012010,0.000000,-0.022854,0.095017,0.000000
2.140000,-1.545660,-0.523045,-1.449570,1.205269,0.741722,0.050473,0.110893,-0.841824,-0.198013,-0.903849,-0.215485,-0.287273,4.623073,4.352367,3.909875,-0.083912,-0.011080,0.000000,-0.019065,0.090301,0.000000
2.150000,-1.533602,-0.515670,-1.449075,1.206333,0.733294,0.048479,0.102087,-0.843757,-0.200690,-0.857034,-0.171039,-0.247931,4.824922,4.372654,3.947493,-0.084082,-0.010197,0.000000,-0.014965,0.085552,-0.000000
2.160000,-1.521534,-0.508380,-1.448601,1.207312,0.724848,0.046460,0.093756,-0.845242,-0.202971,-0.808822,-0.125909,-0.208369,4.994720,4.422017,3.975169,-0.084211,-0.009363,0.000000,-0.010804,0.080678,0.000000
2.170000,-1.509456,-0.501173,-1.448146,1.208210,0.716390,0.044421,0.085930,-0.846292,-0.204855,-0.755523,-0.084742,-0.168351,5.490821,4.033528,4.015486,-0.084300,-0.008580,0.000000,-0.007045,0.075311,0.000000
2.180000,-1.497370,-0.494052,-1.447712,1.209033,0.707924,0.042364,0.078643,-0.846925,-0.206339,-0.702662,-0.040572,-0.128330,5.074696,4.806136,3.986793,-0.084351,-0.007851,0.000000,-0.002992,0.069998,-0.000000
2.190000,-1.485275,-0.487015,-1.447299,1.209785,0.699454,0.040295,0.071873,-0.847091,-0.207422,-0.650552,0.006831,-0.088416,5.520891,4.447304,4.005815,-0.084359,-0.007175,0.000000,0.001379,0.064771,0.000000
2.200000,-1.473174,-0.480063,-1.446906,1.210472,0.690984,0.038217,0.065651,-0.846806,-0.208106,-0.593751,0.050258,-0.048342,5.664092,4.461466,3.995842,-0.084325,-0.006553,0.000000,0.005353,0.059086,-0.000000
2.210000,-1.461066,-0.473195,-1.446535,1.211100,0.682519,0.036134,0.060001,-0.846083,-0.208390,-0.535964,0.094184,-0.008557,5.819681,4.438118,3.975144,-0.084252,-0.005989,0.000000,0.009379,0.053311,-0.000000
2.220000,-1.448952,-0.466412,-1.446184,1.211674,0.674064,0.034051,0.054931,-0.844914,-0.208277,-0.478046,0.140054,0.031274,5.833102,4.621405,3.974149,-0.084137,-0.005483,0.000000,0.013598,0.047530,0.000000
2.230000,-1.436833,-0.459714,-1.445854,1.212200,0.665622,0.031970,0.050448,-0.843289,-0.207767,-0.417851,0.184207,0.070573,6.206940,4.203658,3.883690,-0.083980,-0.005036,0.000000,0.017652,0.041528,-0.000000
2.240000,-1.424708,-0.453100,-1.445544,1.212685,0.657199,0.029897,0.046582,-0.841237,-0.206868,-0.355352,0.226372,0.109224,6.220630,4.341527,3.860167,-0.083785,-0.004650,0.000000,0.021518,0.035300,-0.000000
2.250000,-1.412579,-0.446570,-1.445256,1.213134,0.648799,0.027834,0.043340,-0.838754,-0.205583,-0.292866,0.270032,0.147611,6.346570,4.275022,3.800673,-0.083549,-0.004327,0.000000,0.025537,0.029075,0.000000
2.260000,-1.400446,-0.440124,-1.444988,1.213554,0.640425,0.025786,0.040734,-0.835848,-0.203918,-0.228039,0.311009,0.185160,6.475806,4.176123,3.730052,-0.083275,-0.004068,0.000000,0.029302,0.022618,-0.000000
2.270000,-1.388308,-0.433761,-1.444740,1.213951,0.632083,0.023757,0.038772,-0.832517,-0.201880,-0.164682,0.355890,0.222388,6.331352,4.548569,3.691932,-0.082961,-0.003873,0.000000,0.033463,0.016306,0.000000
2.280000,-1.376167,-0.427482,-1.444512,1.214331,0.623777,0.021750,0.037450,-0.828745,-0.199475,-0.098559,0.396701,0.258508,6.895826,3.604320,3.529981,-0.082607,-0.003741,0.000000,0.037236,0.009717,-0.000000
2.290000,-1.364022,-0.421286,-1.444305,1.214702,0.615510,0.019769,0.036811,-0.824600,-0.196715,-0.029582,0.433006,0.293398,6.759037,3.907812,3.468471,-0.082218,-0.003679,0.000000,0.040579,0.002839,-0.000000
2.300000,-1.351873,-0.415172,-1.444117,1.215070,0.607286,0.017817,0.036851,-0.820070,-0.193608,0.037759,0.472692,0.327657,6.845460,3.776659,3.360074,-0.081794,-0.003684,0.000000,0.044270,-0.003882,-0.000000
2.310000,-1.339720,-0.409140,-1.443948,1.215441,0.599109,0.015898,0.037567,-0.815149,-0.190166,0.105445,0.511459,0.360519,6.888247,3.687740,3.240721,-0.081333,-0.003757,0.000000,0.047891,-0.010644,-0.000000
2.320000,-1.327564,-0.403189,-1.443799,1.215823,0.590984,0.014015,0.038977,-0.809867,-0.186400,0.177308,0.543777,0.392718,7.289287,3.054514,3.168508,-0.080839,-0.003899,0.000000,0.050886,-0.017832,-0.000000
2.330000,-1.315404,-0.397320,-1.443668,1.216223,0.582913,0.012171,0.041105,-0.804264,-0.182318,0.247139,0.578401,0.423249,6.668745,3.878185,2.935447,-0.080314,-0.004114,0.000000,0.054132,-0.024826,-0.000000
2.340000,-1.303239,-0.391531,-1.443555,1.216648,0.574900,0.010369,0.043910,-0.798288,-0.177941,0.314538,0.615664,0.451987,7.003414,3.291096,2.840152,-0.079755,-0.004396,0.000000,0.057666,-0.031589,-0.000000
2.350000,-1.291071,-0.385822,-1.443460,1.217104,0.566949,0.008613,0.047411,-0.791976,-0.173281,0.385510,0.646597,0.479776,6.994938,3.176053,2.686973,-0.079164,-0.004749,0.000000,0.060588,-0.038721,0.000000
2.360000,-1.278897,-0.380192,-1.443383,1.217598,0.559062,0.006905,0.051617,-0.785358,-0.168352,0.455815,0.676609,0.505668,6.993536,3.015345,2.524085,-0.078543,-0.005173,0.000000,0.063444,-0.045800,-0.000000
2.370000,-1.266719,-0.374640,-1.443322,1.218138,0.551242,0.005247,0.056521,-0.778434,-0.163170,0.524690,0.708633,0.530545,6.847372,3.203772,2.417183,-0.077894,-0.005667,0.000000,0.066519,-0.052749,-0.000000
2.380000,-1.254534,-0.369167,-1.443278,1.218731,0.543494,0.003642,0.062114,-0.771200,-0.157748,0.594150,0.736790,0.553298,7.044537,2.421076,2.131238,-0.077214,-0.006231,0.000000,0.069236,-0.059772,-0.000000
2.390000,-1.242344,-0.363770,-1.443249,1.219383,0.535819,0.002092,0.068407,-0.763714,-0.152112,0.664154,0.760770,0.573813,6.884898,2.560314,2.003985,-0.076510,-0.006867,0.000000,0.071564,-0.066864,-0.000000
2.400000,-1.230146,-0.358450,-1.443236,1.220102,0.528221,0.000600,0.075390,-0.755976,-0.146276,0.732385,0.786400,0.593075,6.827643,2.379241,1.814213,-0.075782,-0.007572,0.000000,0.074076,-0.073795,-0.000000
2.410000,-1.217942,-0.353205,-1.443237,1.220893,0.520701,-0.000832,0.083054,-0.748000,-0.140258,0.800319,0.808465,0.610081,6.752203,2.189101,1.617915,-0.075030,-0.008347,0.000000,0.076259,-0.080710,0.000000
2.420000,-1.205728,-0.348036,-1.443252,1.221765,0.513261,-0.002204,0.091393,-0.739800,-0.134078,0.867346,0.831602,0.625721,6.654284,2.287206,1.477556,-0.074256,-0.009190,0.000000,0.078568,-0.087551,0.000000
2.430000,-1.193506,-0.342940,-1.443281,1.222723,0.505905,-0.003514,0.100398,-0.731381,-0.127752,0.933431,0.851043,0.638950,6.560344,1.596340,1.166597,-0.073460,-0.010102,0.000000,0.080536,-0.094313,0.000000
2.440000,-1.181274,-0.337917,-1.443322,1.223775,0.498634,-0.004759,0.110058,-0.722794,-0.121308,0.998425,0.866579,0.649683,6.431967,1.663212,1.011544,-0.072647,-0.011081,0.000000,0.082138,-0.100979,-0.000000
2.450000,-1.169030,-0.332967,-1.443376,1.224927,0.491450,-0.005939,0.120362,-0.714044,-0.114763,1.062048,0.883022,0.658897,6.293720,1.474312,0.798930,-0.071817,-0.012127,0.000000,0.083849,-0.107521,0.000000
2.460000,-1.156775,-0.328088,-1.443441,1.226184,0.484354,-0.007054,0.131292,-0.705143,-0.108138,1.123840,0.896870,0.665680,6.131155,1.298668,0.583075,-0.070971,-0.013237,0.000000,0.085324,-0.113893,-0.000000
2.470000,-1.144506,-0.323279,-1.443517,1.227554,0.477348,-0.008102,0.142838,-0.696112,-0.101455,1.185251,0.909037,0.670790,6.081220,1.133232,0.413654,-0.070111,-0.014410,0.000000,0.086648,-0.120238,0.000000
2.480000,-1.132223,-0.318541,-1.443603,1.229043,0.470432,-0.009083,0.154988,-0.686968,-0.094731,1.244001,0.919505,0.673425,5.663920,0.961572,0.112524,-0.069238,-0.015647,0.000000,0.087824,-0.126326,0.000000
2.490000,-1.119925,-0.313871,-1.443698,1.230656,0.463608,-0.009996,0.167708,-0.677727,-0.087995,1.299831,0.928347,0.673545,5.566873,0.810899,-0.063180,-0.068355,-0.016942,0.000000,0.088856,-0.132128,0.000000
2.500000,-1.107610,-0.309268,-1.443802,1.232399,0.456878,-0.010843,0.180983,-0.668406,-0.081265,1.354709,0.935735,0.671946,5.338464,0.665865,-0.281350,-0.067462,-0.018295,0.000000,0.089757,-0.137843,-0.000000
2.510000,-1.095276,-0.304733,-1.443915,1.234278,0.450241,-0.011622,0.194788,-0.658999,-0.074564,1.405735,0.945784,0.667995,5.074702,0.612830,-0.497682,-0.066558,-0.019704,0.000000,0.090944,-0.143174,0.000000
2.520000,-1.082924,-0.300263,-1.444035,1.236297,0.443698,-0.012334,0.209106,-0.649551,-0.067912,1.458087,0.941280,0.662100,5.188853,-0.800954,-0.691528,-0.065649,-0.021166,0.000000,0.090679,-0.148642,0.000000
2.530000,-1.070550,-0.295858,-1.444161,1.238461,0.437249,-0.012980,0.223930,-0.640142,-0.061329,1.505177,0.944721,0.653952,4.220372,1.512423,-0.937798,-0.064741,-0.022681,0.000000,0.091227,-0.153581,0.000000
2.540000,-1.058154,-0.291518,-1.444294,1.240777,0.430896,-0.013561,0.239188,-0.630621,-0.054840,1.546580,0.957161,0.643570,4.264315,0.258308,-1.127354,-0.063821,-0.024242,0.000000,0.092696,-0.157944,-0.000000
2.550000,-1.045734,-0.287240,-1.444432,1.243247,0.424637,-0.014078,0.254868,-0.621057,-0.048464,1.588671,0.955993,0.631337,3.946444,0.224030,-1.329889,-0.062893,-0.025847,0.000000,0.092803,-0.162373,0.000000
2.560000,-1.033288,-0.283025,-1.444575,1.245875,0.418474,-0.014531,0.270950,-0.611501,-0.042220,1.627298,0.954518,0.617111,3.645155,0.078351,-1.525443,-0.061964,-0.027494,0.000000,0.092888,-0.166447,-0.000000
2.570000,-1.020816,-0.278870,-1.444723,1.248667,0.412407,-0.014922,0.287393,-0.601923,-0.036129,1.660324,0.963056,0.600746,3.086492,1.049678,-1.735732,-0.061031,-0.029180,0.000000,0.093993,-0.169946,-0.000000
2.580000,-1.008315,-0.274776,-1.444874,1.251624,0.406436,-0.015254,0.304152,-0.592272,-0.030211,1.691685,0.963342,0.582647,3.188071,-1.010596,-1.882399,-0.060088,-0.030899,0.000000,0.094271,-0.173267,-0.000000
2.590000,-0.995783,-0.270741,-1.445027,1.254751,0.400561,-0.015527,0.321222,-0.582691,-0.024481,1.721462,0.954575,0.562904,2.636393,-0.157264,-2.075885,-0.059149,-0.032651,0.000000,0.093636,-0.176415,0.000000
2.600000,-0.983219,-0.266765,-1.445184,1.258050,0.394782,-0.015744,0.338560,-0.573139,-0.018959,1.745478,0.955233,0.541252,2.294649,-0.294009,-2.242264,-0.058211,-0.034431,0.000000,0.093960,-0.178966,0.000000
2.610000,-0.970621,-0.262845,-1.445342,1.261523,0.389099,-0.015907,0.356125,-0.563609,-0.013661,1.766976,0.950327,0.518221,1.942607,-0.419398,-2.396477,-0.057272,-0.036236,0.000000,0.093720,-0.181246,0.000000
2.620000,-0.957988,-0.258982,-1.445502,1.265173,0.383510,-0.016018,0.373882,-0.554115,-0.008603,1.783741,0.949320,0.493041,1.467992,-0.039963,-2.604747,-0.056335,-0.038061,0.000000,0.093879,-0.183025,0.000000
2.630000,-0.945317,-0.255175,-1.445662,1.269001,0.378016,-0.016080,0.391790,-0.544639,-0.003803,1.797547,0.944113,0.466856,1.293670,-1.007972,-2.629382,-0.055396,-0.039901,0.000000,0.093609,-0.184486,-0.000000
2.640000,-0.932607,-0.251422,-1.445823,1.273009,0.372617,-0.016095,0.409824,-0.535250,0.000732,1.808391,0.934434,0.439820,0.814114,-0.664489,-2.809521,-0.054464,-0.041755,0.000000,0.092880,-0.185628,-0.000000
2.650000,-0.919856,-0.247722,-1.445984,1.277198,0.367311,-0.016066,0.427940,-0.525933,0.004987,1.814308,0.928643,0.410988,0.427263,-0.752253,-2.921473,-0.053537,-0.043617,0.000000,0.092545,-0.186246,-0.000000
2.660000,-0.907063,-0.244075,-1.446144,1.281568,0.362098,-0.015997,0.446093,-0.516666,0.008950,1.815307,0.925101,0.381542,0.002491,-0.724456,-3.017641,-0.052612,-0.045483,0.000000,0.092431,-0.186343,0.000000
2.670000,-0.894224,-0.240480,-1.446304,1.286120,0.356977,-0.015888,0.464251,-0.507492,0.012611,1.816453,0.907106,0.350205,0.001819,-2.124532,-3.197774,-0.051695,-0.047350,0.000000,0.090848,-0.186427,0.000000
2.680000,-0.881340,-0.236935,-1.446462,1.290853,0.351948,-0.015745,0.482397,-0.498488,0.015954,1.810625,0.898353,0.318677,-1.175211,0.399334,-3.103984,-0.050792,-0.049214,0.000000,0.090192,-0.185781,0.000000
2.690000,-0.868407,-0.233441,-1.446619,1.295767,0.347008,-0.015570,0.500437,-0.489485,0.018984,1.797458,0.899995,0.287158,-1.232935,-0.824524,-3.248107,-0.049887,-0.051067,0.000000,0.090582,-0.184370,-0.000000
2.700000,-0.855424,-0.229995,-1.446773,1.300861,0.342158,-0.015367,0.518349,-0.480546,0.021691,1.784035,0.888301,0.254190,-1.677129,-0.760356,-3.293241,-0.048986,-0.052907,0.000000,0.089611,-0.182904,-0.000000
2.710000,-0.842389,-0.226597,-1.446926,1.306134,0.337396,-0.015138,0.536096,-0.471719,0.024070,1.764532,0.876421,0.221451,-2.120206,-0.825314,-3.320600,-0.048095,-0.054728,0.000000,0.088608,-0.180800,-0.000000
2.720000,-0.829301,-0.223247,-1.447076,1.311582,0.332723,-0.014886,0.553633,-0.462955,0.026114,1.742584,0.879080,0.187195,-2.369668,0.592438,-3.462176,-0.047207,-0.056526,0.000000,0.089081,-0.178419,0.000000
2.730000,-0.816157,-0.219942,-1.447224,1.317205,0.328137,-0.014617,0.570928,-0.454175,0.027816,1.715033,0.872221,0.153646,-3.143197,-1.986525,-3.243249,-0.046317,-0.058298,0.000000,0.088570,-0.175452,0.000000
2.740000,-0.802956,-0.216684,-1.447368,1.323000,0.323639,-0.014331,0.587914,-0.445552,0.029191,1.681766,0.854878,0.121034,-3.408149,-0.706813,-3.343838,-0.045440,-0.060037,0.000000,0.086974,-0.171890,0.000000
2.750000,-0.789696,-0.213469,-1.447510,1.328963,0.319226,-0.014034,0.604557,-0.437017,0.030232,1.646027,0.851564,0.087374,-3.839631,-0.724188,-3.318158,-0.044571,-0.061739,0.000000,0.086801,-0.168052,-0.000000
2.760000,-0.776376,-0.210299,-1.447649,1.335090,0.314898,-0.013728,0.620825,-0.428517,0.030942,1.606997,0.849077,0.054676,-4.228401,-0.586328,-3.276742,-0.043704,-0.063400,0.000000,0.086697,-0.163868,-0.000000
2.770000,-0.762994,-0.207171,-1.447785,1.341378,0.310656,-0.013416,0.636663,-0.420097,0.031323,1.559064,0.832384,0.021353,-5.101267,-1.958260,-3.329932,-0.042844,-0.065015,0.000000,0.085136,-0.158758,0.000000
2.780000,-0.749548,-0.204085,-1.447917,1.347821,0.306496,-0.013102,0.652005,-0.411828,0.031374,1.510363,0.826575,-0.010708,-4.629503,0.823343,-3.078496,-0.041997,-0.066578,0.000000,0.084669,-0.153564,0.000000
2.790000,-0.736037,-0.201041,-1.448047,1.354416,0.302419,-0.012790,0.666871,-0.403519,0.031114,1.461338,0.832880,-0.041305,-5.431826,-0.359650,-3.095210,-0.041145,-0.068090,0.000000,0.085420,-0.148334,-0.000000
2.800000,-0.722459,-0.198037,-1.448173,1.361157,0.298426,-0.012481,0.681200,-0.395227,0.030546,1.403950,0.826200,-0.072096,-5.787311,-0.178417,-3.004619,-0.040295,-0.069544,0.000000,0.084838,-0.142241,-0.000000
2.810000,-0.708813,-0.195072,-1.448296,1.368038,0.294515,-0.012180,0.694944,-0.386972,0.029678,1.344328,0.825078,-0.101386,-6.148019,-0.041430,-2.900676,-0.039446,-0.070936,0.000000,0.084807,-0.135923,0.000000
2.820000,-0.695098,-0.192146,-1.448417,1.375054,0.290686,-0.011888,0.708073,-0.378721,0.028518,1.280907,0.825419,-0.130524,-6.522194,0.106784,-2.877490,-0.038598,-0.072263,0.000000,0.084916,-0.129212,-0.000000
2.830000,-0.681312,-0.189258,-1.448534,1.382197,0.286940,-0.011610,0.720551,-0.370459,0.027073,1.214177,0.827152,-0.157903,-6.821571,0.240081,-2.595279,-0.037748,-0.073521,0.000000,0.085150,-0.122173,-0.000000
2.840000,-0.667454,-0.186407,-1.448649,1.389463,0.283277,-0.011348,0.732346,-0.362173,0.025367,1.144264,0.830291,-0.183359,-7.171593,0.391069,-2.542333,-0.036894,-0.074707,0.000000,0.085513,-0.114821,0.000000
