time,x,y,z,vx,vy,vz,ax,ay,az,jx,jy,jz,sx,sy,sz,roll,pitch,yaw,p,q,r
0.000000,-2.477452,-1.626688,-1.469954,-0.009496,0.001672,-0.003083,0.223787,-0.363418,0.008541,-8.511437,8.958495,-0.056037,240.536148,-108.686328,11.516723,-0.037051,-0.022828,0.000000,0.911982,0.867467,0.000000
0.010000,-2.477537,-1.626688,-1.469984,-0.007646,-0.001531,-0.002998,0.150060,-0.278953,0.008537,-6.296234,7.965266,0.053256,203.171562,-90.299227,10.353375,-0.028449,-0.015309,0.000000,0.811474,0.641883,-0.000000
0.020000,-2.477607,-1.626716,-1.470014,-0.006427,-0.003937,-0.002908,0.096683,-0.203534,0.009569,-4.435007,7.145882,0.151256,169.706762,-73.900435,9.257713,-0.020764,-0.009865,0.000000,0.728377,0.452238,-0.000000
0.030000,-2.477667,-1.626764,-1.470042,-0.005655,-0.005627,-0.002804,0.060307,-0.135520,0.011527,-2.889787,6.480968,0.238629,139.935563,-59.388331,8.227556,-0.013830,-0.006155,0.000000,0.660925,0.294733,-0.000000
0.040000,-2.477721,-1.626826,-1.470070,-0.005175,-0.006667,-0.002675,0.037953,-0.073461,0.014308,-1.624671,5.952166,0.316019,113.651776,-46.661290,7.260727,-0.007499,-0.003874,0.000000,0.607345,0.165723,0.000000
0.050000,-2.477771,-1.626896,-1.470096,-0.004858,-0.007111,-0.002515,0.026993,-0.016081,0.017816,-0.605814,5.542131,0.384047,90.649213,-35.617690,6.355047,-0.001642,-0.002757,0.000000,0.565907,0.061758,-0.000000
0.060000,-2.477818,-1.626967,-1.470120,-0.004604,-0.007001,-0.002317,0.025122,0.037723,0.021960,0.198564,5.234539,0.443316,70.721687,-26.155909,5.508338,0.003854,-0.002567,0.000000,0.534954,-0.020402,0.000000
0.070000,-2.477863,-1.627034,-1.470142,-0.004332,-0.006366,-0.002074,0.030348,0.088900,0.026655,0.818183,5.014079,0.494403,53.663010,-18.174323,4.718420,0.009087,-0.003102,0.000000,0.512924,-0.083783,0.000000
0.080000,-2.477904,-1.627092,-1.470161,-0.003980,-0.005229,-0.001782,0.040963,0.138248,0.031822,1.280700,4.866457,0.537867,39.266994,-11.571310,3.983116,0.014137,-0.004189,0.000000,0.498351,-0.131190,0.000000
0.090000,-2.477942,-1.627137,-1.470177,-0.003500,-0.003605,-0.001436,0.055524,0.186428,0.037389,1.611711,4.778396,0.574241,27.327453,-6.245246,3.300246,0.019074,-0.005682,0.000000,0.489875,-0.165220,-0.000000
0.100000,-2.477974,-1.627163,-1.470190,-0.002860,-0.001502,-0.001033,0.072837,0.233973,0.043285,1.834750,4.737635,0.604039,17.638197,-2.094511,2.667632,0.023951,-0.007458,0.000000,0.486235,-0.188254,0.000000
0.110000,-2.477999,-1.627165,-1.470198,-0.002037,0.001074,-0.000570,0.091931,0.281300,0.049449,1.971288,4.732927,0.627753,9.993041,0.982521,2.083096,0.028811,-0.009418,0.000000,0.486277,-0.202469,0.000000
0.120000,-2.478014,-1.627140,-1.470201,-0.001018,0.004124,-0.000043,0.112040,0.328718,0.055822,2.040737,4.754045,0.645854,4.185795,3.087471,1.544459,0.033685,-0.011486,0.000000,0.488948,-0.209830,0.000000
0.130000,-2.478018,-1.627081,-1.470198,0.000205,0.007649,0.000547,0.132580,0.376436,0.062349,2.060443,4.791775,0.658788,0.010272,4.321961,1.049543,0.038595,-0.013600,0.000000,0.493300,-0.212100,0.000000
0.140000,-2.478009,-1.626985,-1.470190,0.001634,0.011654,0.001204,0.153134,0.424581,0.068982,2.045694,4.837921,0.666983,-2.739715,4.787616,0.596168,0.043554,-0.015719,0.000000,0.498486,-0.210832,0.000000
0.150000,-2.477985,-1.626846,-1.470174,0.003267,0.016143,0.001927,0.173424,0.473199,0.075674,2.009713,4.885303,0.670843,-4.270354,4.586057,0.182157,0.048565,-0.017814,0.000000,0.503764,-0.207373,-0.000000
0.160000,-2.477943,-1.626661,-1.470151,0.005101,0.021120,0.002717,0.193295,0.522271,0.082385,1.963664,4.927757,0.670750,-4.787832,3.818908,-0.194669,0.053627,-0.019868,0.000000,0.508494,-0.202863,-0.000000
0.170000,-2.477882,-1.626422,-1.470120,0.007131,0.026589,0.003575,0.212694,0.571720,0.089077,1.916647,4.960135,0.667066,-4.498338,2.587790,-0.536490,0.058732,-0.021877,0.000000,0.512140,-0.198231,-0.000000
0.180000,-2.477800,-1.626127,-1.470079,0.009353,0.032555,0.004499,0.231648,0.621426,0.095716,1.875700,4.978305,0.660130,-3.608059,0.994328,-0.845482,0.063865,-0.023842,0.000000,0.514273,-0.194200,0.000000
0.190000,-2.477695,-1.625770,-1.470029,0.011763,0.039018,0.005489,0.250245,0.671229,0.102270,1.845801,4.979152,0.650259,-2.323182,-0.859857,-1.123826,0.069011,-0.025772,0.000000,0.514566,-0.191280,0.000000
0.200000,-2.477564,-1.625345,-1.469969,0.014357,0.045979,0.006544,0.268611,0.720944,0.108712,1.829864,4.960578,0.637748,-0.849896,-2.873141,-1.373698,0.074150,-0.027681,0.000000,0.512798,-0.189772,0.000000
0.210000,-2.477407,-1.624848,-1.469898,0.017115,0.053443,0.007663,0.287621,0.770103,0.115016,1.895949,4.896752,0.622743,-1.091846,-4.318878,-1.594019,0.079232,-0.029658,0.000000,0.506302,-0.196673,-0.000000
0.220000,-2.477221,-1.624275,-1.469816,0.020086,0.061388,0.008844,0.306522,0.818830,0.121160,1.883753,4.846189,0.605801,-1.349909,-5.797003,-1.790625,0.084270,-0.031626,0.000000,0.501114,-0.195510,-0.000000
0.230000,-2.477005,-1.623619,-1.469721,0.023245,0.069818,0.010085,0.325287,0.866978,0.127126,1.868903,4.780788,0.587001,-1.622421,-7.282426,-1.966095,0.089249,-0.033581,0.000000,0.494339,-0.194052,-0.000000
0.240000,-2.476756,-1.622877,-1.469614,0.026591,0.078725,0.011385,0.343890,0.914397,0.132895,1.851262,4.700600,0.566541,-1.907718,-8.750058,-2.123006,0.094152,-0.035522,0.000000,0.485985,-0.192284,0.000000
0.250000,-2.476472,-1.622043,-1.469493,0.030122,0.088103,0.012742,0.362303,0.960941,0.138452,1.830711,4.605929,0.544594,-2.204135,-10.174810,-2.263937,0.098964,-0.037443,0.000000,0.476088,-0.190194,0.000000
0.260000,-2.476153,-1.621113,-1.469359,0.033836,0.097943,0.014154,0.380509,1.006393,0.143784,1.808502,4.490369,0.521516,-2.544203,-11.355758,-2.396730,0.103661,-0.039345,0.000000,0.464000,-0.187912,-0.000000
0.270000,-2.475795,-1.620083,-1.469210,0.037731,0.108229,0.015617,0.398461,1.050710,0.148878,1.781342,4.371203,0.496933,-2.887875,-12.465177,-2.518054,0.108239,-0.041220,0.000000,0.451492,-0.185098,-0.000000
0.280000,-2.475397,-1.618947,-1.469046,0.041804,0.118953,0.017130,0.416125,1.093782,0.153719,1.750752,4.241315,0.471187,-3.229300,-13.499511,-2.629841,0.112687,-0.043067,0.000000,0.437843,-0.181909,-0.000000
0.290000,-2.474958,-1.617702,-1.468867,0.046053,0.130101,0.018691,0.433465,1.135504,0.158298,1.716783,4.101475,0.444362,-3.562626,-14.455200,-2.734024,0.116993,-0.044881,0.000000,0.423139,-0.178351,0.000000
0.300000,-2.474476,-1.616344,-1.468672,0.050473,0.141658,0.020295,0.450449,1.175781,0.162603,1.679546,3.952485,0.416525,-3.882001,-15.328686,-2.832537,0.121147,-0.046657,0.000000,0.407467,-0.174438,-0.000000
0.310000,-2.473948,-1.614868,-1.468461,0.055061,0.153612,0.021942,0.467027,1.214506,0.166629,1.637537,3.793354,0.388045,-4.139344,-16.070118,-2.935434,0.125137,-0.048392,0.000000,0.390738,-0.170017,0.000000
0.320000,-2.473374,-1.613270,-1.468233,0.059812,0.165944,0.023627,0.483192,1.251624,0.170361,1.594942,3.629295,0.358188,-4.376205,-16.727899,-3.035533,0.128959,-0.050084,0.000000,0.373478,-0.165514,0.000000
0.330000,-2.472751,-1.611548,-1.467989,0.064723,0.178639,0.025348,0.498919,1.287071,0.173789,1.550083,3.459068,0.327341,-4.591901,-17.304138,-3.133770,0.132605,-0.051729,0.000000,0.355570,-0.160760,-0.000000
0.340000,-2.472079,-1.609696,-1.467726,0.069789,0.191679,0.027102,0.514187,1.320788,0.176904,1.503177,3.283477,0.295516,-4.785754,-17.800946,-3.231086,0.136068,-0.053326,0.000000,0.337101,-0.155779,0.000000
0.350000,-2.471355,-1.607713,-1.467446,0.075005,0.205048,0.028885,0.528976,1.352725,0.179696,1.454443,3.103307,0.262719,-4.957081,-18.220432,-3.328418,0.139345,-0.054873,0.000000,0.318155,-0.150593,-0.000000
0.360000,-2.470578,-1.605594,-1.467149,0.080367,0.218728,0.030694,0.543265,1.382838,0.182159,1.403620,2.919015,0.229280,-5.092773,-18.557016,-3.435179,0.142430,-0.056367,0.000000,0.298787,-0.145179,-0.000000
0.370000,-2.469747,-1.603337,-1.466833,0.085869,0.232699,0.032527,0.557044,1.411096,0.184278,1.352108,2.732064,0.194391,-5.206101,-18.821439,-3.542796,0.145320,-0.057806,0.000000,0.279137,-0.139676,0.000000
0.380000,-2.468861,-1.600939,-1.466498,0.091506,0.246943,0.034379,0.570304,1.437472,0.186043,1.299570,2.542816,0.158421,-5.297905,-19.016755,-3.651169,0.148012,-0.059190,0.000000,0.259248,-0.134053,-0.000000
0.390000,-2.467917,-1.598398,-1.466145,0.097273,0.261442,0.036247,0.583033,1.461947,0.187443,1.246218,2.351949,0.121365,-5.369027,-19.146015,-3.760200,0.150504,-0.060516,0.000000,0.239192,-0.128331,-0.000000
0.400000,-2.466915,-1.595710,-1.465773,0.103165,0.276176,0.038126,0.595226,1.484507,0.188467,1.192256,2.160106,0.083216,-5.420308,-19.212270,-3.869790,0.152795,-0.061785,0.000000,0.219036,-0.122532,-0.000000
0.410000,-2.465853,-1.592873,-1.465382,0.109176,0.291126,0.040014,0.606876,1.505147,0.189106,1.137819,1.967905,0.044222,-5.451150,-19.218623,-3.986263,0.154885,-0.062996,0.000000,0.198846,-0.116672,-0.000000
0.420000,-2.464731,-1.589887,-1.464973,0.115301,0.306273,0.041907,0.617982,1.523866,0.189347,1.083228,1.775926,0.003778,-5.464010,-19.168069,-4.102310,0.156772,-0.064147,0.000000,0.178674,-0.110781,-0.000000
0.430000,-2.463547,-1.586747,-1.464544,0.121534,0.321597,0.043800,0.628541,1.540669,0.189178,1.028595,1.584723,-0.037820,-5.459905,-19.063654,-4.217044,0.158459,-0.065239,0.000000,0.158581,-0.104873,-0.000000
0.440000,-2.462300,-1.583454,-1.464097,0.127870,0.337080,0.045689,0.638554,1.555565,0.188587,0.974083,1.394822,-0.080555,-5.439852,-18.908423,-4.329581,0.159944,-0.066271,0.000000,0.138621,-0.098964,-0.000000
0.450000,-2.460989,-1.580005,-1.463630,0.134303,0.352702,0.047570,0.648023,1.568571,0.187563,0.919848,1.206714,-0.124401,-5.404868,-18.705424,-4.439034,0.161232,-0.067243,0.000000,0.118844,-0.093073,-0.000000
0.460000,-2.459613,-1.576400,-1.463145,0.140829,0.368445,0.049439,0.656953,1.579707,0.186097,0.866066,1.020915,-0.169203,-5.356819,-18.459015,-4.547536,0.162322,-0.068157,0.000000,0.099304,-0.087217,0.000000
0.470000,-2.458172,-1.572636,-1.462642,0.147441,0.384290,0.051291,0.665346,1.588998,0.184176,0.812793,0.837732,-0.215200,-5.295770,-18.170767,-4.650813,0.163219,-0.069011,0.000000,0.080031,-0.081403,-0.000000
0.480000,-2.456664,-1.568714,-1.462120,0.154134,0.400219,0.053121,0.673211,1.596472,0.181789,0.760191,0.657629,-0.262198,-5.222635,-17.843564,-4.747610,0.163924,-0.069807,0.000000,0.061074,-0.075648,-0.000000
0.490000,-2.455089,-1.564631,-1.461579,0.160903,0.416213,0.054925,0.680553,1.602162,0.178929,0.708377,0.480981,-0.310126,-5.138328,-17.480292,-4.836672,0.164441,-0.070545,0.000000,0.042472,-0.069965,0.000000
0.500000,-2.453446,-1.560389,-1.461021,0.167743,0.432256,0.056698,0.687381,1.606105,0.175584,0.657459,0.308134,-0.358901,-5.043760,-17.083835,-4.916743,0.164775,-0.071226,0.000000,0.024262,-0.064367,0.000000
0.510000,-2.451734,-1.555986,-1.460446,0.174649,0.448330,0.058435,0.693706,1.608339,0.171748,0.607576,0.139476,-0.408452,-4.940922,-16.658858,-4.985936,0.164928,-0.071850,0.000000,0.006486,-0.058869,0.000000
0.520000,-2.449953,-1.551422,-1.459853,0.181616,0.464417,0.060131,0.699536,1.608909,0.167413,0.558717,-0.024872,-0.458610,-4.829520,-16.206246,-5.043705,0.164906,-0.072420,0.000000,-0.010842,-0.053472,-0.000000
0.530000,-2.448102,-1.546698,-1.459243,0.188638,0.480502,0.061782,0.704884,1.607858,0.162574,0.511011,-0.184566,-0.509284,-4.710335,-15.728668,-5.088872,0.164713,-0.072935,0.000000,-0.027683,-0.048190,0.000000
0.540000,-2.446180,-1.541812,-1.458617,0.195712,0.496569,0.063381,0.709761,1.605234,0.157226,0.464533,-0.339371,-0.560342,-4.584150,-15.228791,-5.120259,0.164354,-0.073397,0.000000,-0.044012,-0.043032,-0.000000
0.550000,-2.444187,-1.536767,-1.457976,0.202832,0.512602,0.064924,0.714179,1.601087,0.151366,0.419349,-0.489076,-0.611639,-4.451746,-14.709280,-5.136688,0.163834,-0.073808,0.000000,-0.059804,-0.038008,-0.000000
0.560000,-2.442123,-1.531561,-1.457319,0.209994,0.528586,0.066407,0.718153,1.595471,0.144991,0.375558,-0.633403,-0.663165,-4.314953,-14.175261,-5.133364,0.163160,-0.074168,0.000000,-0.075028,-0.033128,-0.000000
0.570000,-2.439987,-1.526195,-1.456648,0.217193,0.544507,0.067823,0.721695,1.588437,0.138103,0.333113,-0.772423,-0.714412,-4.173377,-13.626642,-5.113169,0.162336,-0.074480,0.000000,-0.089685,-0.028391,-0.000000
0.580000,-2.437779,-1.520671,-1.455963,0.224426,0.560350,0.069167,0.724820,1.580041,0.130704,0.292104,-0.905895,-0.765369,-4.027672,-13.065789,-5.075369,0.161368,-0.074744,0.000000,-0.103746,-0.023808,-0.000000
0.590000,-2.435499,-1.514988,-1.455265,0.231688,0.576103,0.070435,0.727542,1.570338,0.122797,0.252571,-1.033706,-0.815858,-3.878490,-12.495067,-5.019227,0.160263,-0.074963,0.000000,-0.117199,-0.019385,0.000000
0.600000,-2.433145,-1.509149,-1.454554,0.238976,0.591753,0.071621,0.729876,1.559386,0.114389,0.214544,-1.155771,-0.865690,-3.726486,-11.916842,-4.944010,0.159026,-0.075137,0.000000,-0.130029,-0.015126,-0.000000
0.610000,-2.430719,-1.503154,-1.453833,0.246285,0.607287,0.072721,0.731838,1.547243,0.105484,0.178091,-1.271894,-0.914885,-3.573400,-11.336813,-4.843608,0.157664,-0.075270,0.000000,-0.142218,-0.011040,-0.000000
0.620000,-2.428220,-1.497004,-1.453100,0.253611,0.622694,0.073729,0.733443,1.533967,0.096095,0.143130,-1.382348,-0.962736,-3.418665,-10.753605,-4.723318,0.156184,-0.075361,0.000000,-0.153781,-0.007122,0.000000
0.630000,-2.425647,-1.490700,-1.452358,0.260952,0.637963,0.074641,0.734706,1.519616,0.086234,0.109722,-1.486962,-1.009285,-3.262803,-10.169175,-4.583063,0.154591,-0.075414,0.000000,-0.164701,-0.003381,0.000000
0.640000,-2.423000,-1.484245,-1.451608,0.268304,0.653083,0.075453,0.735643,1.504248,0.075914,0.077876,-1.585734,-1.054331,-3.106332,-9.585482,-4.422767,0.152892,-0.075431,0.000000,-0.174976,0.000182,0.000000
0.650000,-2.420281,-1.477639,-1.450850,0.275664,0.668044,0.076158,0.736269,1.487921,0.065153,0.047595,-1.678681,-1.097673,-2.949774,-9.004484,-4.242353,0.151094,-0.075411,0.000000,-0.184603,0.003565,-0.000000
0.660000,-2.417487,-1.470885,-1.450085,0.283029,0.682838,0.076754,0.736600,1.470695,0.053965,0.018925,-1.765675,-1.139337,-2.794825,-8.432283,-4.036022,0.149202,-0.075359,0.000000,-0.193572,0.006763,0.000000
0.670000,-2.414620,-1.463983,-1.449315,0.290395,0.697455,0.077236,0.736652,1.452626,0.042373,-0.008251,-1.847162,-1.178584,-2.640685,-7.866185,-3.810119,0.147224,-0.075275,0.000000,-0.201918,0.009782,-0.000000
0.680000,-2.411679,-1.456936,-1.448541,0.297761,0.711888,0.077600,0.736440,1.433771,0.030401,-0.033892,-1.923024,-1.215476,-2.487731,-7.307640,-3.565268,0.145166,-0.075162,0.000000,-0.209630,0.012618,-0.000000
0.690000,-2.408665,-1.449746,-1.447763,0.305123,0.726128,0.077843,0.735980,1.414184,0.018072,-0.058011,-1.993344,-1.249828,-2.336339,-6.758098,-3.302093,0.143034,-0.075021,0.000000,-0.216718,0.015273,0.000000
0.700000,-2.405577,-1.442414,-1.446984,0.312480,0.740169,0.077961,0.735285,1.393922,0.005414,-0.080625,-2.058221,-1.281459,-2.186886,-6.219010,-3.021217,0.140834,-0.074854,0.000000,-0.223190,0.017747,-0.000000
0.710000,-2.402415,-1.434943,-1.446204,0.319828,0.754005,0.077950,0.734373,1.373040,-0.007549,-0.101708,-2.117582,-1.310386,-2.040980,-5.696435,-2.718448,0.138572,-0.074663,0.000000,-0.229042,0.020037,0.000000
0.720000,-2.399180,-1.427335,-1.445426,0.327167,0.767628,0.077809,0.733256,1.351587,-0.020784,-0.121399,-2.171986,-1.335990,-1.897615,-5.186650,-2.399815,0.136255,-0.074450,0.000000,-0.234324,0.022154,-0.000000
0.730000,-2.395872,-1.419591,-1.444649,0.334493,0.781035,0.077534,0.731949,1.329617,-0.034258,-0.139669,-2.221360,-1.358334,-1.757015,-4.690540,-2.066531,0.133888,-0.074216,0.000000,-0.239034,0.024095,-0.000000
0.740000,-2.392490,-1.411715,-1.443875,0.341805,0.794219,0.077123,0.730467,1.307177,-0.047939,-0.156549,-2.265845,-1.377276,-1.619408,-4.208992,-1.719812,0.131476,-0.073964,0.000000,-0.243188,0.025865,0.000000
0.750000,-2.389036,-1.403708,-1.443107,0.349101,0.807177,0.076575,0.728823,1.284316,-0.061792,-0.172068,-2.305592,-1.392689,-1.485017,-3.742891,-1.360869,0.129026,-0.073695,0.000000,-0.246804,0.027465,0.000000
0.760000,-2.385508,-1.395572,-1.442344,0.356381,0.819904,0.075887,0.727031,1.261082,-0.075782,-0.186214,-2.340579,-1.404577,-1.355254,-3.297643,-0.987866,0.126542,-0.073411,0.000000,-0.249883,0.028895,0.000000
0.770000,-2.381908,-1.387310,-1.441589,0.363642,0.832397,0.075059,0.725103,1.237518,-0.089871,-0.199132,-2.371398,-1.412551,-1.229014,-2.869062,-0.605441,0.124030,-0.073113,0.000000,-0.252485,0.030169,0.000000
0.780000,-2.378236,-1.378925,-1.440844,0.370883,0.844653,0.074089,0.723052,1.213668,-0.104020,-0.210806,-2.398017,-1.416660,-1.106378,-2.457478,-0.215180,0.121494,-0.072803,0.000000,-0.254611,0.031285,0.000000
0.790000,-2.374491,-1.370418,-1.440108,0.378102,0.856670,0.072978,0.720891,1.189572,-0.118191,-0.221272,-2.420606,-1.416834,-0.987427,-2.063224,0.181329,0.118939,-0.072483,0.000000,-0.256283,0.032249,0.000000
0.800000,-2.370674,-1.361792,-1.439384,0.385300,0.868444,0.071726,0.718631,1.165269,-0.132344,-0.230567,-2.439340,-1.413018,-0.872240,-1.686632,0.582501,0.116370,-0.072154,0.000000,-0.257523,0.033064,-0.000000
0.810000,-2.366785,-1.353050,-1.438674,0.392475,0.879975,0.070332,0.716284,1.140799,-0.146438,-0.238696,-2.454246,-1.405210,-0.761738,-1.331878,0.987655,0.113790,-0.071818,0.000000,-0.258339,0.033732,0.000000
0.820000,-2.362824,-1.344194,-1.437978,0.399625,0.891260,0.068797,0.713860,1.116195,-0.160434,-0.245777,-2.465865,-1.393301,-0.655059,-0.994980,1.394185,0.111204,-0.071476,0.000000,-0.258788,0.034266,0.000000
0.830000,-2.358792,-1.335226,-1.437299,0.406752,0.902298,0.067123,0.711372,1.091492,-0.174291,-0.251810,-2.474205,-1.377327,-0.552181,-0.675801,1.800394,0.108615,-0.071129,0.000000,-0.258877,0.034667,-0.000000
0.840000,-2.354689,-1.326149,-1.436636,0.413853,0.913089,0.065312,0.708828,1.066722,-0.187967,-0.256833,-2.479440,-1.357300,-0.453082,-0.374202,2.204583,0.106028,-0.070779,0.000000,-0.258627,0.034939,-0.000000
0.850000,-2.350515,-1.316965,-1.435993,0.420928,0.923633,0.063365,0.706238,1.041913,-0.201423,-0.260884,-2.481747,-1.333248,-0.357740,-0.090044,2.605054,0.103444,-0.070427,0.000000,-0.258063,0.035089,-0.000000
0.860000,-2.346271,-1.307677,-1.435369,0.427977,0.933928,0.061284,0.703613,1.017097,-0.214619,-0.263962,-2.481194,-1.305171,-0.267098,0.174177,2.998957,0.100867,-0.070074,0.000000,-0.257195,0.035116,-0.000000
0.870000,-2.341956,-1.298287,-1.434768,0.435000,0.943974,0.059073,0.700962,0.992298,-0.227514,-0.266195,-2.478202,-1.273240,-0.180050,0.421555,3.385887,0.098301,-0.069721,0.000000,-0.256071,0.035037,-0.000000
0.880000,-2.337571,-1.288798,-1.434188,0.441996,0.953774,0.056735,0.698292,0.967541,-0.240071,-0.267575,-2.472818,-1.237482,-0.096457,0.652551,3.764286,0.095747,-0.069370,0.000000,-0.254701,0.034850,-0.000000
0.890000,-2.333116,-1.279212,-1.433633,0.448966,0.963326,0.054273,0.695613,0.942849,-0.252251,-0.268135,-2.465204,-1.197988,-0.016178,0.867626,4.132597,0.093208,-0.069021,0.000000,-0.253105,0.034562,-0.000000
0.900000,-2.328592,-1.269532,-1.433103,0.455909,0.972631,0.051691,0.692932,0.918244,-0.264018,-0.267909,-2.455517,-1.154869,0.060927,1.067240,4.489262,0.090685,-0.068676,0.000000,-0.251305,0.034176,0.000000
0.910000,-2.323998,-1.259761,-1.432600,0.462825,0.981691,0.048994,0.690257,0.893746,-0.275335,-0.266924,-2.443858,-1.108136,0.134933,1.250573,4.829926,0.088182,-0.068335,0.000000,-0.249313,0.033697,-0.000000
0.920000,-2.319335,-1.249899,-1.432124,0.469714,0.990506,0.046186,0.687596,0.869372,-0.286170,-0.265217,-2.430496,-1.058193,0.206054,1.419523,5.156172,0.085700,-0.068000,0.000000,-0.247164,0.033131,0.000000
0.930000,-2.314604,-1.239951,-1.431676,0.476577,0.999079,0.043273,0.684955,0.845141,-0.296489,-0.262813,-2.415514,-1.005065,0.274438,1.574709,5.466786,0.083239,-0.067670,0.000000,-0.244868,0.032482,0.000000
0.940000,-2.309804,-1.229919,-1.431259,0.483413,1.007410,0.040258,0.682342,0.821067,-0.306261,-0.259737,-2.399046,-0.948914,0.340232,1.716747,5.760554,0.080803,-0.067348,0.000000,-0.242442,0.031753,-0.000000
0.950000,-2.304936,-1.219804,-1.430872,0.490224,1.015501,0.037149,0.679763,0.797165,-0.315457,-0.256016,-2.381221,-0.889914,0.403586,1.846254,6.036260,0.078391,-0.067033,0.000000,-0.239903,0.030949,0.000000
0.960000,-2.300000,-1.209609,-1.430516,0.497009,1.023353,0.033951,0.677224,0.773447,-0.324049,-0.251688,-2.362162,-0.828100,0.465021,1.963891,6.288840,0.076005,-0.066727,0.000000,-0.237266,0.030075,-0.000000
0.970000,-2.294996,-1.199338,-1.430193,0.503768,1.030970,0.030670,0.674731,0.749925,-0.332011,-0.246740,-2.341982,-0.764032,0.524266,2.070228,6.521401,0.073646,-0.066430,0.000000,-0.234548,0.029132,0.000000
0.980000,-2.289924,-1.188991,-1.429903,0.510503,1.038353,0.027313,0.672291,0.726611,-0.339322,-0.241209,-2.320793,-0.697742,0.581423,2.165877,6.733199,0.071314,-0.066143,0.000000,-0.231760,0.028125,0.000000
0.990000,-2.284786,-1.178571,-1.429647,0.517214,1.045503,0.023886,0.669909,0.703512,-0.345960,-0.235118,-2.298698,-0.629440,0.636594,2.251451,6.923491,0.069011,-0.065867,0.000000,-0.228916,0.027056,-0.000000
1.000000,-2.279580,-1.168081,-1.429425,0.523902,1.052424,0.020396,0.667590,0.680639,-0.351905,-0.228484,-2.275796,-0.559346,0.689882,2.327561,7.091536,0.066736,-0.065601,0.000000,-0.226027,0.025930,-0.000000
1.010000,-2.274308,-1.157524,-1.429239,0.530566,1.059117,0.016850,0.665341,0.657998,-0.357139,-0.221332,-2.252219,-0.487517,0.741550,2.395897,7.232314,0.064490,-0.065347,0.000000,-0.223108,0.024749,0.000000
1.020000,-2.268969,-1.146900,-1.429089,0.537209,1.065584,0.013256,0.663165,0.635597,-0.361651,-0.213666,-2.227954,-0.414586,0.791520,2.455862,7.349880,0.062274,-0.065105,0.000000,-0.220161,0.023518,-0.000000
1.030000,-2.263564,-1.136213,-1.428974,0.543830,1.071829,0.009620,0.661069,0.613441,-0.365428,-0.205507,-2.203128,-0.340597,0.839875,2.507938,7.444016,0.060087,-0.064876,0.000000,-0.217200,0.022237,-0.000000
1.040000,-2.258092,-1.125464,-1.428896,0.550430,1.077854,0.005950,0.659057,0.591536,-0.368460,-0.196873,-2.177820,-0.265785,0.886698,2.552604,7.514500,0.057930,-0.064660,0.000000,-0.214232,0.020910,-0.000000
1.050000,-2.252555,-1.114656,-1.428855,0.557011,1.083661,0.002253,0.657133,0.569886,-0.370741,-0.187778,-2.152099,-0.190387,0.932071,2.590343,7.561114,0.055803,-0.064457,0.000000,-0.211265,0.019540,0.000000
1.060000,-2.246952,-1.103792,-1.428851,0.563573,1.089253,-0.001463,0.655302,0.548495,-0.372265,-0.178266,-2.126095,-0.114479,0.976825,2.623162,7.579493,0.053705,-0.064269,0.000000,-0.208312,0.018130,-0.000000
1.070000,-2.241284,-1.092872,-1.428884,0.570118,1.094632,-0.005190,0.653569,0.527365,-0.373031,-0.168280,-2.099725,-0.038691,1.020203,2.649826,7.574070,0.051636,-0.064094,0.000000,-0.205367,0.016678,0.000000
1.080000,-2.235550,-1.081900,-1.428955,0.576645,1.099801,-0.008921,0.651938,0.506501,-0.373039,-0.157866,-2.073118,0.036924,1.062198,2.670630,7.545131,0.049597,-0.063935,0.000000,-0.202442,0.015190,0.000000
1.090000,-2.229751,-1.070877,-1.429063,0.583157,1.104763,-0.012648,0.650413,0.485903,-0.372294,-0.147040,-2.046331,0.112134,1.102800,2.685866,7.492964,0.047587,-0.063790,0.000000,-0.199542,0.013666,-0.000000
1.100000,-2.223887,-1.059805,-1.429208,0.589654,1.109520,-0.016364,0.648999,0.465575,-0.370799,-0.135815,-2.019418,0.186707,1.142001,2.695829,7.417857,0.045606,-0.063661,0.000000,-0.196672,0.012109,0.000000
1.110000,-2.217958,-1.048687,-1.429390,0.596137,1.114075,-0.020062,0.647698,0.445515,-0.368561,-0.124230,-1.992491,0.260557,1.180417,2.702316,7.316529,0.043654,-0.063548,0.000000,-0.193841,0.010523,0.000000
1.120000,-2.211964,-1.037524,-1.429609,0.602608,1.118431,-0.023733,0.646515,0.425725,-0.365591,-0.112240,-1.965455,0.333124,1.217338,2.703932,7.193273,0.041729,-0.063451,0.000000,-0.191042,0.008907,-0.000000
1.130000,-2.205906,-1.026319,-1.429865,0.609068,1.122590,-0.027371,0.645454,0.406206,-0.361903,-0.099888,-1.938428,0.404352,1.252679,2.700786,7.048813,0.039833,-0.063370,0.000000,-0.188283,0.007263,0.000000
1.140000,-2.199783,-1.015073,-1.430156,0.615518,1.126556,-0.030969,0.644519,0.386956,-0.357509,-0.087192,-1.911455,0.474032,1.286356,2.692987,6.883873,0.037964,-0.063305,0.000000,-0.185568,0.005594,-0.000000
1.150000,-2.193595,-1.003788,-1.430484,0.621959,1.130331,-0.034519,0.643712,0.367976,-0.352428,-0.074167,-1.884583,0.541963,1.318283,2.680644,6.699178,0.036121,-0.063258,0.000000,-0.182900,0.003902,-0.000000
1.160000,-2.187344,-0.992467,-1.430847,0.628392,1.133917,-0.038015,0.643036,0.349264,-0.346676,-0.060850,-1.857899,0.608058,1.348823,2.664922,6.492772,0.034305,-0.063227,0.000000,-0.180287,0.002191,-0.000000
1.170000,-2.181027,-0.981111,-1.431244,0.634820,1.137317,-0.041450,0.642496,0.330818,-0.340274,-0.047217,-1.831347,0.671878,1.377389,2.644744,6.268388,0.032515,-0.063214,0.000000,-0.177721,0.000460,0.000000
1.180000,-2.174647,-0.969721,-1.431675,0.641243,1.140534,-0.044818,0.642093,0.312636,-0.333246,-0.033309,-1.805019,0.733369,1.403840,2.620092,6.027079,0.030751,-0.063218,0.000000,-0.175210,-0.001287,0.000000
1.190000,-2.168203,-0.958301,-1.432140,0.647662,1.143570,-0.048113,0.641830,0.294716,-0.325615,-0.019148,-1.778960,0.792367,1.428038,2.590943,5.769895,0.029011,-0.063240,0.000000,-0.172756,-0.003048,-0.000000
1.200000,-2.161694,-0.946851,-1.432637,0.654080,1.146429,-0.051329,0.641711,0.277056,-0.317407,-0.004756,-1.753215,0.848718,1.449842,2.557279,5.497891,0.027295,-0.063279,0.000000,-0.170363,-0.004819,0.000000
1.210000,-2.155121,-0.935373,-1.433166,0.660497,1.149112,-0.054459,0.641736,0.259651,-0.308649,0.009834,-1.727843,0.902342,1.469270,2.519429,5.210520,0.025604,-0.063336,0.000000,-0.168033,-0.006599,0.000000
1.220000,-2.148484,-0.923869,-1.433726,0.666915,1.151623,-0.057500,0.641908,0.242497,-0.299370,0.024613,-1.702857,0.952958,1.486005,2.476979,4.910628,0.023935,-0.063411,0.000000,-0.165766,-0.008384,-0.000000
1.230000,-2.141783,-0.912341,-1.434316,0.673336,1.153963,-0.060445,0.642229,0.225592,-0.289600,0.039545,-1.678319,1.000517,1.499889,2.429867,4.599464,0.022288,-0.063504,0.000000,-0.163567,-0.010171,0.000000
1.240000,-2.135017,-0.900790,-1.434935,0.679760,1.156135,-0.063290,0.642699,0.208929,-0.279370,0.054601,-1.654276,1.044914,1.510762,2.378030,4.278277,0.020663,-0.063615,0.000000,-0.161437,-0.011958,0.000000
1.250000,-2.128187,-0.889219,-1.435582,0.686190,1.158142,-0.066031,0.643321,0.192505,-0.268713,0.069750,-1.630775,1.086054,1.518464,2.321405,3.948315,0.019059,-0.063743,0.000000,-0.159380,-0.013740,0.000000
1.260000,-2.121293,-0.877628,-1.436255,0.692627,1.159986,-0.068663,0.644095,0.176312,-0.257660,0.084967,-1.607846,1.123872,1.522632,2.259468,3.610387,0.017475,-0.063890,0.000000,-0.157396,-0.015516,0.000000
1.270000,-2.114335,-0.866019,-1.436954,0.699072,1.161669,-0.071183,0.645020,0.160346,-0.246247,0.100200,-1.585581,1.158260,1.523337,2.192674,3.266234,0.015911,-0.064054,0.000000,-0.155493,-0.017278,0.000000
1.280000,-2.107312,-0.854395,-1.437678,0.705528,1.163194,-0.073587,0.646099,0.144598,-0.234507,0.115422,-1.564008,1.189181,1.520444,2.121014,2.917159,0.014365,-0.064235,0.000000,-0.153672,-0.019026,-0.000000
1.290000,-2.100224,-0.842756,-1.438426,0.711995,1.164562,-0.075872,0.647329,0.129063,-0.222475,0.130596,-1.543177,1.216591,1.513822,2.044483,2.564462,0.012837,-0.064434,0.000000,-0.151934,-0.020754,0.000000
1.300000,-2.093072,-0.831104,-1.439195,0.718475,1.165776,-0.078036,0.648710,0.113732,-0.210187,0.145685,-1.523135,1.240462,1.503334,1.963074,2.209446,0.011326,-0.064650,0.000000,-0.150284,-0.022458,-0.000000
1.310000,-2.085855,-0.819441,-1.439986,0.724970,1.166837,-0.080075,0.650242,0.098598,-0.197678,0.160669,-1.503895,1.260750,1.488364,1.875854,1.854095,0.009831,-0.064883,0.000000,-0.148720,-0.024137,-0.000000
1.320000,-2.078573,-0.807768,-1.440796,0.731480,1.167748,-0.081989,0.651923,0.083651,-0.184983,0.175461,-1.485592,1.277514,1.469320,1.783856,1.498946,0.008351,-0.065133,0.000000,-0.147255,-0.025781,-0.000000
1.330000,-2.071225,-0.796087,-1.441625,0.738009,1.168511,-0.083775,0.653751,0.068883,-0.172139,0.190042,-1.468233,1.290734,1.446129,1.687186,1.145216,0.006886,-0.065399,0.000000,-0.145887,-0.027388,-0.000000
1.340000,-2.063812,-0.784398,-1.442472,0.744556,1.169127,-0.085431,0.655723,0.054283,-0.159180,0.204369,-1.451864,1.300428,1.418716,1.585951,0.794125,0.005433,-0.065680,0.000000,-0.144619,-0.028954,0.000000
1.350000,-2.056334,-0.772705,-1.443334,0.751123,1.169597,-0.086958,0.657837,0.039842,-0.146142,0.218402,-1.436529,1.306629,1.387006,1.480258,0.446891,0.003993,-0.065978,0.000000,-0.143454,-0.030474,0.000000
1.360000,-2.048790,-0.761007,-1.444210,0.757713,1.169924,-0.088354,0.660090,0.025550,-0.133060,0.232118,-1.422224,1.309316,1.350347,1.368972,0.106401,0.002564,-0.066290,0.000000,-0.142390,-0.031946,0.000000
1.370000,-2.041180,-0.749307,-1.445100,0.764326,1.170109,-0.089619,0.662478,0.011394,-0.119967,0.245420,-1.409108,1.308703,1.309312,1.253593,-0.227999,0.001145,-0.066616,0.000000,-0.141441,-0.033359,0.000000
1.380000,-2.033503,-0.737605,-1.446002,0.770963,1.170152,-0.090753,0.664997,-0.002636,-0.106897,0.258289,-1.397165,1.304780,1.263899,1.134379,-0.555296,-0.000265,-0.066957,0.000000,-0.140606,-0.034712,-0.000000
1.390000,-2.025760,-0.725904,-1.446915,0.777626,1.170056,-0.091757,0.667642,-0.016553,-0.093882,0.270683,-1.386432,1.297624,1.214102,1.011589,-0.874474,-0.001668,-0.067310,0.000000,-0.139886,-0.036000,0.000000
1.400000,-2.017951,-0.714204,-1.447837,0.784316,1.169822,-0.092631,0.670409,-0.030369,-0.080955,0.282557,-1.376944,1.287321,1.159919,0.885481,-1.184519,-0.003063,-0.067676,0.000000,-0.139283,-0.037218,-0.000000
1.410000,-2.010074,-0.702508,-1.448767,0.791035,1.169449,-0.093377,0.673292,-0.044096,-0.068147,0.293902,-1.368681,1.273872,1.100457,0.755007,-1.482005,-0.004454,-0.068054,0.000000,-0.138796,-0.038364,0.000000
1.420000,-2.002130,-0.690816,-1.449704,0.797782,1.168940,-0.093995,0.676285,-0.057747,-0.055487,0.304591,-1.361795,1.257609,1.036708,0.621893,-1.768626,-0.005840,-0.068444,0.000000,-0.138437,-0.039427,0.000000
1.430000,-1.994118,-0.679130,-1.450647,0.804561,1.168294,-0.094487,0.679382,-0.071336,-0.043004,0.314622,-1.356251,1.238538,0.968780,0.486557,-2.043661,-0.007223,-0.068843,0.000000,-0.138203,-0.040406,-0.000000
1.440000,-1.986038,-0.667450,-1.451593,0.811370,1.167513,-0.094855,0.682575,-0.084877,-0.030726,0.323953,-1.352070,1.216777,0.896776,0.349418,-2.306394,-0.008604,-0.069251,0.000000,-0.138095,-0.041296,0.000000
1.450000,-1.977891,-0.655780,-1.452543,0.818212,1.166597,-0.095102,0.685858,-0.098382,-0.018677,0.332544,-1.349267,1.192453,0.820801,0.210893,-2.556105,-0.009985,-0.069668,0.000000,-0.138114,-0.042093,-0.000000
1.460000,-1.969674,-0.644119,-1.453495,0.825088,1.165546,-0.095230,0.689224,-0.111866,-0.006886,0.340395,-1.347820,1.165589,0.739991,0.070521,-2.789250,-0.011367,-0.070093,0.000000,-0.138257,-0.042797,0.000000
1.470000,-1.961389,-0.632469,-1.454447,0.831997,1.164360,-0.095241,0.692663,-0.125343,0.004627,0.347375,-1.347819,1.136589,0.655538,-0.070291,-3.008282,-0.012751,-0.070524,0.000000,-0.138532,-0.043395,0.000000
1.480000,-1.953034,-0.620832,-1.455399,0.838941,1.163039,-0.095138,0.696168,-0.138828,0.015839,0.353494,-1.349226,1.105472,0.567668,-0.211017,-3.212827,-0.014138,-0.070961,0.000000,-0.138935,-0.043889,-0.000000
1.490000,-1.944610,-0.609209,-1.456350,0.845921,1.161583,-0.094925,0.699730,-0.152333,0.026730,0.358718,-1.352037,1.072382,0.476604,-0.351130,-3.402513,-0.015530,-0.071402,0.000000,-0.139466,-0.044275,-0.000000
1.500000,-1.936115,-0.597601,-1.457298,0.852936,1.159992,-0.094605,0.703340,-0.165873,0.037280,0.363016,-1.356244,1.037472,0.382569,-0.490103,-3.576966,-0.016928,-0.071846,0.000000,-0.140123,-0.044549,0.000000
1.510000,-1.927551,-0.586010,-1.458242,0.859988,1.158265,-0.094181,0.706988,-0.179462,0.047472,0.366368,-1.361821,1.000781,0.285592,-0.627731,-3.732941,-0.018333,-0.072292,0.000000,-0.140903,-0.044710,-0.000000
1.520000,-1.918916,-0.574436,-1.459181,0.867076,1.156403,-0.093657,0.710664,-0.193114,0.057291,0.368729,-1.368777,0.962737,0.186117,-0.763128,-3.873289,-0.019746,-0.072740,0.000000,-0.141807,-0.044755,-0.000000
1.530000,-1.910209,-0.562882,-1.460114,0.874201,1.154403,-0.093036,0.714359,-0.206842,0.066723,0.370083,-1.377074,0.923368,0.084390,-0.895727,-3.997991,-0.021169,-0.073187,0.000000,-0.142831,-0.044682,-0.000000
1.540000,-1.901431,-0.551349,-1.461041,0.881363,1.152265,-0.092323,0.718062,-0.220660,0.075755,0.370410,-1.386681,0.882829,-0.019339,-1.024962,-4.107024,-0.022603,-0.073633,0.000000,-0.143970,-0.044489,-0.000000
1.550000,-1.892582,-0.539837,-1.461961,0.888562,1.149989,-0.091522,0.721763,-0.234580,0.084376,0.369690,-1.397560,0.841279,-0.124822,-1.150267,-4.200370,-0.024049,-0.074077,0.000000,-0.145222,-0.044175,-0.000000
1.560000,-1.883660,-0.528349,-1.462871,0.895798,1.147573,-0.090637,0.725452,-0.248615,0.092576,0.367920,-1.409681,0.798772,-0.232116,-1.270816,-4.275429,-0.025508,-0.074517,0.000000,-0.146583,-0.043740,0.000000
1.570000,-1.874666,-0.516886,-1.463773,0.903071,1.145017,-0.089672,0.729118,-0.262777,0.100349,0.365058,-1.422971,0.755707,-0.340631,-1.386335,-4.335074,-0.026981,-0.074951,0.000000,-0.148046,-0.043183,-0.000000
1.580000,-1.865599,-0.505449,-1.464665,0.910381,1.142317,-0.088632,0.732750,-0.277078,0.107689,0.361105,-1.437389,0.712121,-0.450084,-1.496290,-4.379599,-0.028469,-0.075380,0.000000,-0.149606,-0.042502,-0.000000
1.590000,-1.856458,-0.494040,-1.465545,0.917726,1.139475,-0.087520,0.736337,-0.291529,0.114590,0.356054,-1.452877,0.668165,-0.560189,-1.600148,-4.409297,-0.029973,-0.075801,0.000000,-0.151257,-0.041699,-0.000000
1.600000,-1.847244,-0.482660,-1.466415,0.925107,1.136486,-0.086341,0.739867,-0.306139,0.121051,0.349900,-1.469370,0.623984,-0.670662,-1.697374,-4.424464,-0.031495,-0.076214,0.000000,-0.152993,-0.040773,-0.000000
1.610000,-1.837956,-0.471311,-1.467272,0.932523,1.133351,-0.085100,0.743331,-0.320920,0.127069,0.342651,-1.486832,0.579644,-0.781499,-1.786639,-4.423405,-0.033034,-0.076617,0.000000,-0.154810,-0.039727,-0.000000
1.620000,-1.828593,-0.459994,-1.468117,0.939974,1.130067,-0.083801,0.746717,-0.335879,0.132644,0.334283,-1.505113,0.535473,-0.892099,-1.868302,-4.408648,-0.034591,-0.077009,0.000000,-0.156693,-0.038560,-0.000000
1.630000,-1.819156,-0.448710,-1.468948,0.947457,1.126633,-0.082449,0.750013,-0.351025,0.137779,0.324811,-1.524171,0.491515,-1.002143,-1.941926,-4.380729,-0.036168,-0.077388,0.000000,-0.158637,-0.037274,-0.000000
1.640000,-1.809644,-0.437462,-1.469765,0.954973,1.123046,-0.081047,0.753209,-0.366364,0.142476,0.314243,-1.543923,0.447900,-1.111312,-2.007073,-4.340188,-0.037764,-0.077754,0.000000,-0.160635,-0.035871,-0.000000
1.650000,-1.800057,-0.426250,-1.470569,0.962521,1.119305,-0.079601,0.756294,-0.381905,0.146739,0.302589,-1.564283,0.404751,-1.219285,-2.063307,-4.287563,-0.039380,-0.078106,0.000000,-0.162678,-0.034354,0.000000
1.660000,-1.790394,-0.415076,-1.471357,0.970099,1.115407,-0.078114,0.759257,-0.397652,0.150572,0.289848,-1.585207,0.362139,-1.325372,-2.108964,-4.222177,-0.041018,-0.078441,0.000000,-0.164761,-0.032724,0.000000
1.670000,-1.780655,-0.403942,-1.472131,0.977706,1.111351,-0.076591,0.762088,-0.413611,0.153984,0.276071,-1.606485,0.320290,-1.429671,-2.144985,-4.145932,-0.042676,-0.078760,0.000000,-0.166863,-0.030987,-0.000000
1.680000,-1.770839,-0.392850,-1.472889,0.985340,1.107135,-0.075036,0.764775,-0.429783,0.156981,0.261261,-1.628074,0.279254,-1.531908,-2.171082,-4.059514,-0.044355,-0.079061,0.000000,-0.168981,-0.029145,-0.000000
1.690000,-1.760948,-0.381800,-1.473632,0.993001,1.102755,-0.073453,0.767310,-0.446173,0.159572,0.245440,-1.649872,0.239131,-1.631809,-2.186971,-3.963610,-0.046055,-0.079344,0.000000,-0.171105,-0.027202,0.000000
1.700000,-1.750979,-0.370795,-1.474358,1.000686,1.098210,-0.071846,0.769681,-0.462781,0.161767,0.228634,-1.671778,0.200012,-1.729100,-2.192364,-3.858907,-0.047777,-0.079606,0.000000,-0.173223,-0.025162,0.000000
1.710000,-1.740934,-0.359836,-1.475068,1.008394,1.093499,-0.070219,0.771879,-0.479609,0.163576,0.210851,-1.693740,0.161965,-1.823078,-2.185546,-3.745705,-0.049520,-0.079847,0.000000,-0.175333,-0.023026,-0.000000
1.720000,-1.730811,-0.348926,-1.475762,1.016123,1.088617,-0.068575,0.773895,-0.496655,0.165010,0.192163,-1.715516,0.125105,-1.913951,-2.167834,-3.625124,-0.051284,-0.080066,0.000000,-0.177409,-0.020803,0.000000
1.730000,-1.720611,-0.338065,-1.476440,1.023871,1.083565,-0.066920,0.775719,-0.513918,0.166082,0.172583,-1.737060,0.089484,-2.001499,-2.139116,-3.497900,-0.053068,-0.080263,0.000000,-0.179447,-0.018496,-0.000000
1.740000,-1.710334,-0.327255,-1.477101,1.031637,1.078338,-0.065255,0.777344,-0.531395,0.166804,0.152145,-1.758262,0.055167,-2.085500,-2.099282,-3.364766,-0.054872,-0.080437,0.000000,-0.181438,-0.016109,-0.000000
1.750000,-1.699979,-0.316498,-1.477745,1.039417,1.072936,-0.063585,0.778759,-0.549082,0.167190,0.130886,-1.779009,0.022206,-2.165734,-2.048220,-3.226456,-0.056697,-0.080586,0.000000,-0.183369,-0.013648,0.000000
1.760000,-1.689545,-0.305797,-1.478372,1.047211,1.067356,-0.061912,0.779958,-0.566974,0.167253,0.108821,-1.799245,-0.009333,-2.241411,-1.984375,-3.084079,-0.058540,-0.080710,0.000000,-0.185237,-0.011115,-0.000000
1.770000,-1.679034,-0.295152,-1.478983,1.055016,1.061596,-0.060241,0.780933,-0.585065,0.167008,0.086046,-1.818723,-0.039446,-2.312948,-1.909254,-2.937948,-0.060401,-0.080808,0.000000,-0.187017,-0.008520,-0.000000
1.780000,-1.668445,-0.284566,-1.479577,1.062829,1.055654,-0.058573,0.781677,-0.603346,0.166469,0.062577,-1.837393,-0.068082,-2.380194,-1.822925,-2.788753,-0.062280,-0.080880,0.000000,-0.188705,-0.005867,-0.000000
1.790000,-1.657778,-0.274039,-1.480155,1.070648,1.049529,-0.056912,0.782183,-0.621810,0.165651,0.038457,-1.855144,-0.095213,-2.442997,-1.725451,-2.637182,-0.064175,-0.080926,0.000000,-0.190289,-0.003159,-0.000000
1.800000,-1.647032,-0.263576,-1.480715,1.078472,1.043217,-0.055261,0.782444,-0.640445,0.164570,0.013732,-1.871865,-0.120820,-2.501204,-1.616899,-2.483923,-0.066085,-0.080943,0.000000,-0.191761,-0.000404,-0.000000
1.810000,-1.636208,-0.253176,-1.481260,1.086296,1.036719,-0.053622,0.782455,-0.659244,0.163240,-0.011576,-1.887497,-0.144850,-2.554040,-1.496039,-2.330633,-0.068010,-0.080934,0.000000,-0.193115,0.002397,0.000000
1.820000,-1.625306,-0.242842,-1.481788,1.094120,1.030032,-0.051997,0.782211,-0.678191,0.161678,-0.037361,-1.901808,-0.167388,-2.602055,-1.364389,-2.176914,-0.069947,-0.080895,0.000000,-0.194329,0.005231,-0.000000
1.830000,-1.614326,-0.232576,-1.482300,1.101940,1.023155,-0.050389,0.781706,-0.697275,0.159898,-0.063601,-1.914749,-0.188389,-2.645173,-1.222173,-2.023336,-0.071896,-0.080829,0.000000,-0.195398,0.008098,0.000000
1.840000,-1.603267,-0.222379,-1.482796,1.109753,1.016086,-0.048800,0.780938,-0.716481,0.157915,-0.090248,-1.926217,-0.207857,-2.683321,-1.069614,-1.870468,-0.073854,-0.080733,0.000000,-0.196313,0.010990,0.000000
1.850000,-1.592131,-0.212255,-1.483276,1.117558,1.008825,-0.047231,0.779900,-0.735794,0.155746,-0.117251,-1.936108,-0.225802,-2.716423,-0.906935,-1.718880,-0.075821,-0.080608,0.000000,-0.197065,0.013903,0.000000
1.860000,-1.580916,-0.202204,-1.483741,1.125350,1.001370,-0.045685,0.778591,-0.755198,0.153405,-0.144583,-1.944367,-0.242188,-2.743803,-0.733231,-1.570479,-0.077795,-0.080454,0.000000,-0.197650,0.016834,0.000000
1.870000,-1.569624,-0.192228,-1.484190,1.133129,0.993721,-0.044164,0.777008,-0.774676,0.150907,-0.172136,-1.950791,-0.257160,-2.766062,-0.549993,-1.424335,-0.079774,-0.080270,0.000000,-0.198047,0.019771,-0.000000
1.880000,-1.558254,-0.182330,-1.484624,1.140890,0.985876,-0.042668,0.775148,-0.794208,0.148266,-0.199887,-1.955336,-0.270683,-2.783197,-0.357583,-1.280854,-0.081755,-0.080057,0.000000,-0.198254,0.022713,0.000000
1.890000,-1.546806,-0.172511,-1.485043,1.148631,0.977836,-0.041199,0.773010,-0.813776,0.145498,-0.227783,-1.957913,-0.282787,-2.795207,-0.156363,-1.140442,-0.083738,-0.079815,0.000000,-0.198263,0.025655,-0.000000
1.900000,-1.535281,-0.162774,-1.485448,1.156349,0.969601,-0.039758,0.770592,-0.833359,0.142615,-0.255774,-1.958436,-0.293504,-2.802092,0.053305,-1.003505,-0.085720,-0.079542,0.000000,-0.198066,0.028590,0.000000
1.910000,-1.523679,-0.153120,-1.485838,1.164042,0.961169,-0.038347,0.767894,-0.852938,0.139633,-0.283830,-1.956852,-0.302812,-2.803307,0.271850,-0.871914,-0.087699,-0.079241,0.000000,-0.197660,0.031516,0.000000
1.920000,-1.512001,-0.143551,-1.486215,1.171706,0.952542,-0.036966,0.764915,-0.872489,0.136563,-0.311848,-1.953008,-0.310890,-2.799459,0.498022,-0.744432,-0.089673,-0.078910,0.000000,-0.197029,0.034424,0.000000
1.930000,-1.500245,-0.134069,-1.486578,1.179339,0.943720,-0.035616,0.761657,-0.891990,0.133419,-0.339802,-1.946867,-0.317715,-2.790615,0.731363,-0.621285,-0.091639,-0.078549,0.000000,-0.196170,0.037311,-0.000000
1.940000,-1.488414,-0.124677,-1.486927,1.186938,0.934702,-0.034297,0.758120,-0.911418,0.130213,-0.367643,-1.938359,-0.323331,-2.776839,0.971416,-0.502701,-0.093595,-0.078160,0.000000,-0.195079,0.040173,0.000000
1.950000,-1.476507,-0.115376,-1.487264,1.194500,0.925492,-0.033012,0.754305,-0.930749,0.126957,-0.395323,-1.927418,-0.327785,-2.758197,1.217722,-0.388906,-0.095539,-0.077743,0.000000,-0.193749,0.043004,0.000000
1.960000,-1.464524,-0.106168,-1.487588,1.202023,0.916088,-0.031758,0.750214,-0.949959,0.123662,-0.422808,-1.913999,-0.331072,-2.734342,1.470182,-0.281502,-0.097469,-0.077296,0.000000,-0.192177,0.045803,-0.000000
1.970000,-1.452466,-0.097055,-1.487899,1.209504,0.906493,-0.030538,0.745849,-0.969021,0.120339,-0.450012,-1.898013,-0.333371,-2.705801,1.727934,-0.179173,-0.099382,-0.076822,0.000000,-0.190354,0.048561,0.000000
1.980000,-1.440334,-0.088039,-1.488199,1.216939,0.896708,-0.029352,0.741215,-0.987910,0.116998,-0.476908,-1.879425,-0.334672,-2.672691,1.990475,-0.081979,-0.101276,-0.076321,0.000000,-0.188278,0.051276,0.000000
1.990000,-1.428128,-0.079121,-1.488486,1.224327,0.886735,-0.028198,0.736312,-1.006600,0.113648,-0.503451,-1.858189,-0.335028,-2.635126,2.257303,0.010022,-0.103147,-0.075792,0.000000,-0.185945,0.053945,0.000000
2.000000,-1.415848,-0.070305,-1.488763,1.231665,0.876577,-0.027079,0.731147,-1.025065,0.110300,-0.529597,-1.834266,-0.334489,-2.593224,2.527914,0.096771,-0.104994,-0.075236,0.000000,-0.183352,0.056562,0.000000
2.010000,-1.403495,-0.061590,-1.489028,1.238949,0.866235,-0.025992,0.725722,-1.043277,0.106962,-0.555308,-1.807629,-0.333066,-2.546943,2.802042,0.177092,-0.106813,-0.074654,0.000000,-0.180498,0.059126,-0.000000
2.020000,-1.391069,-0.052981,-1.489283,1.246178,0.855712,-0.024939,0.720042,-1.061208,0.103641,-0.580529,-1.778226,-0.330915,-2.496574,3.078920,0.252180,-0.108603,-0.074047,0.000000,-0.177376,0.061632,0.000000
2.030000,-1.378571,-0.044477,-1.489527,1.253349,0.845012,-0.023920,0.714113,-1.078832,0.100346,-0.605226,-1.746043,-0.328039,-2.442253,3.358017,0.322112,-0.110360,-0.073415,0.000000,-0.173986,0.064076,-0.000000
2.040000,-1.366002,-0.036081,-1.489761,1.260460,0.834137,-0.022932,0.707940,-1.096120,0.097083,-0.629361,-1.711060,-0.324490,-2.384112,3.638800,0.386968,-0.112082,-0.072758,0.000000,-0.170328,0.066456,-0.000000
2.050000,-1.353362,-0.027795,-1.489986,1.267507,0.823091,-0.021978,0.701528,-1.113044,0.093858,-0.652896,-1.673264,-0.320317,-2.322289,3.920740,0.446824,-0.113765,-0.072077,0.000000,-0.166400,0.068769,0.000000
2.060000,-1.340652,-0.019620,-1.490201,1.274489,0.811877,-0.021055,0.694884,-1.129576,0.090679,-0.675803,-1.632661,-0.315539,-2.256707,4.203745,0.500990,-0.115409,-0.071374,0.000000,-0.162203,0.071012,-0.000000
2.070000,-1.327873,-0.011558,-1.490407,1.281404,0.800500,-0.020164,0.688014,-1.145688,0.087549,-0.698028,-1.589208,-0.310278,-2.187737,4.486788,0.550408,-0.117009,-0.070648,0.000000,-0.157732,0.073181,0.000000
2.080000,-1.315024,-0.003610,-1.490604,1.288249,0.788965,-0.019304,0.680926,-1.161351,0.084475,-0.719547,-1.542927,-0.304546,-2.115538,4.769286,0.595248,-0.118562,-0.069900,0.000000,-0.152991,0.075274,-0.000000
2.090000,-1.302108,0.004221,-1.490793,1.295022,0.777275,-0.018474,0.673626,-1.176537,0.081460,-0.740329,-1.493826,-0.298388,-2.040272,5.050651,0.635683,-0.120067,-0.069132,0.000000,-0.147980,0.077289,0.000000
2.100000,-1.289124,0.011935,-1.490974,1.301721,0.765436,-0.017675,0.666122,-1.191218,0.078508,-0.760343,-1.441920,-0.291847,-1.962097,5.330300,0.671886,-0.121521,-0.068343,0.000000,-0.142701,0.079223,-0.000000
2.110000,-1.276074,0.019529,-1.491147,1.308344,0.753452,-0.016904,0.658420,-1.205363,0.075624,-0.779717,-1.386992,-0.284949,-1.877253,5.601692,0.703654,-0.122920,-0.067536,0.000000,-0.137132,0.081089,0.000000
2.120000,-1.262958,0.027003,-1.491312,1.314889,0.741330,-0.016162,0.650530,-1.218949,0.072810,-0.798056,-1.329627,-0.277770,-1.790302,5.870926,0.731578,-0.124263,-0.066710,0.000000,-0.131332,0.082849,-0.000000
2.130000,-1.249776,0.034355,-1.491470,1.321354,0.729075,-0.015448,0.642461,-1.231947,0.070069,-0.815518,-1.269580,-0.270330,-1.701885,6.138144,0.755879,-0.125546,-0.065866,0.000000,-0.125276,0.084519,0.000000
2.140000,-1.236531,0.041584,-1.491621,1.327737,0.716693,-0.014760,0.634223,-1.244331,0.067404,-0.832091,-1.206871,-0.262664,-1.612641,6.403492,0.776772,-0.126768,-0.065006,0.000000,-0.118966,0.086098,0.000000
2.150000,-1.223222,0.048689,-1.491765,1.334038,0.704191,-0.014099,0.625823,-1.256076,0.064817,-0.847770,-1.141516,-0.254805,-1.523212,6.667112,0.794477,-0.127925,-0.064131,0.000000,-0.112402,0.087587,-0.000000
2.160000,-1.209850,0.055668,-1.491903,1.340253,0.691574,-0.013464,0.617274,-1.267158,0.062309,-0.862253,-1.073994,-0.246780,-1.441914,6.940764,0.809110,-0.129015,-0.063241,0.000000,-0.105634,0.088955,-0.000000
2.170000,-1.196417,0.062520,-1.492035,1.346383,0.678850,-0.012853,0.608580,-1.277546,0.059882,-0.876266,-1.003229,-0.238627,-1.360772,7.211553,0.821003,-0.130036,-0.062337,0.000000,-0.098551,0.090277,0.000000
2.180000,-1.182923,0.069245,-1.492160,1.352424,0.666026,-0.012266,0.599751,-1.287214,0.057537,-0.889468,-0.929776,-0.230368,-1.279485,7.478203,0.830387,-0.130985,-0.061420,0.000000,-0.091211,0.091517,0.000000
2.190000,-1.169369,0.075840,-1.492280,1.358377,0.653108,-0.011702,0.590794,-1.296133,0.055275,-0.901854,-0.853683,-0.222027,-1.197753,7.739433,0.837491,-0.131860,-0.060491,0.000000,-0.083616,0.092677,-0.000000
2.200000,-1.155756,0.082306,-1.492394,1.364240,0.640106,-0.011160,0.581717,-1.304279,0.053096,-0.913420,-0.775010,-0.213625,-1.115278,7.993967,0.842545,-0.132657,-0.059551,0.000000,-0.075773,0.093756,-0.000000
2.210000,-1.142084,0.088642,-1.492503,1.370011,0.627025,-0.010640,0.572527,-1.311623,0.051002,-0.924283,-0.693692,-0.205190,-1.028557,8.237042,0.845987,-0.133374,-0.058599,0.000000,-0.067674,0.094766,-0.000000
2.220000,-1.128356,0.094847,-1.492607,1.375690,0.613876,-0.010140,0.563234,-1.318145,0.048993,-0.934131,-0.610143,-0.196720,-0.940884,8.471290,0.847816,-0.134010,-0.057639,0.000000,-0.059359,0.095676,-0.000000
2.230000,-1.114571,0.100919,-1.492706,1.381276,0.600665,-0.009659,0.553847,-1.323819,0.047068,-0.943098,-0.524299,-0.188239,-0.852353,8.695858,0.848236,-0.134561,-0.056669,0.000000,-0.050823,0.096500,0.000000
2.240000,-1.100731,0.106860,-1.492800,1.386767,0.587402,-0.009198,0.544375,-1.328623,0.045228,-0.951176,-0.436261,-0.179759,-0.763055,8.909895,0.847454,-0.135025,-0.055691,0.000000,-0.042074,0.097237,-0.000000
2.250000,-1.086836,0.112667,-1.492890,1.392163,0.574096,-0.008755,0.534826,-1.332537,0.043473,-0.958357,-0.346139,-0.171293,-0.673082,9.112549,0.845674,-0.135401,-0.054707,0.000000,-0.033121,0.097887,0.000000
2.260000,-1.072888,0.118342,-1.492976,1.397463,0.560755,-0.008328,0.525208,-1.335535,0.041802,-0.964880,-0.253652,-0.162864,-0.576353,9.292894,0.843480,-0.135687,-0.053715,0.000000,-0.023937,0.098473,-0.000000
2.270000,-1.058887,0.123882,-1.493057,1.402667,0.547388,-0.007918,0.515532,-1.337604,0.040215,-0.970161,-0.159871,-0.154442,-0.479890,9.461386,0.840653,-0.135880,-0.052719,0.000000,-0.014627,0.098938,-0.000000
2.280000,-1.044835,0.129289,-1.493134,1.407774,0.534006,-0.007524,0.505808,-1.338727,0.038713,-0.974481,-0.064462,-0.146052,-0.384542,9.618406,0.837351,-0.135979,-0.051719,0.000000,-0.005157,0.099309,-0.000000
2.290000,-1.030732,0.134562,-1.493207,1.412783,0.520617,-0.007144,0.496046,-1.338888,0.037294,-0.977858,0.032460,-0.137696,-0.291158,9.764335,0.833733,-0.135982,-0.050715,0.000000,0.004463,0.099588,-0.000000
2.300000,-1.016579,0.139702,-1.493277,1.417694,0.507231,-0.006778,0.486254,-1.338073,0.035959,-0.980314,0.130789,-0.129378,-0.200586,9.899555,0.829957,-0.135889,-0.049709,0.000000,0.014224,0.099779,-0.000000
2.310000,-1.002378,0.144707,-1.493343,1.422508,0.493859,-0.006424,0.476446,-1.336274,0.034706,-0.981539,0.229897,-0.121111,-0.122329,10.037593,0.826532,-0.135698,-0.048701,0.000000,0.024063,0.099848,-0.000000
2.320000,-0.988129,0.149579,-1.493405,1.427223,0.480509,-0.006083,0.466626,-1.333471,0.033536,-0.982386,0.330915,-0.112862,-0.047521,10.164076,0.823225,-0.135407,-0.047693,0.000000,0.034094,0.099883,-0.000000
2.330000,-0.973834,0.154317,-1.493465,1.431840,0.467193,-0.005753,0.456801,-1.329652,0.032449,-0.982500,0.433135,-0.104646,0.024049,10.277775,0.820152,-0.135016,-0.046685,0.000000,0.044249,0.099848,0.000000
2.340000,-0.959493,0.158923,-1.493521,1.436359,0.453920,-0.005434,0.446978,-1.324805,0.031443,-0.981915,0.536424,-0.096458,0.092592,10.377462,0.817428,-0.134522,-0.045678,0.000000,0.054514,0.099746,0.000000
2.350000,-0.945107,0.163396,-1.493573,1.440780,0.440700,-0.005124,0.437165,-1.318920,0.030520,-0.980658,0.640634,-0.088296,0.158318,10.461909,0.815171,-0.133925,-0.044672,0.000000,0.064876,0.099580,-0.000000
2.360000,-0.930678,0.167737,-1.493623,1.445103,0.427545,-0.004823,0.427366,-1.311986,0.029677,-0.978884,0.745936,-0.080169,0.224654,10.521576,0.813906,-0.133224,-0.043669,0.000000,0.075354,0.099366,-0.000000
2.370000,-0.916205,0.171947,-1.493670,1.449327,0.414464,-0.004530,0.417589,-1.304000,0.028916,-0.976318,0.851381,-0.072034,0.288203,10.564564,0.813289,-0.132418,-0.042668,0.000000,0.085854,0.099074,0.000000
2.380000,-0.901691,0.176027,-1.493714,1.453454,0.401468,-0.004245,0.407841,-1.294957,0.028237,-0.973130,0.957171,-0.063901,0.348783,10.590664,0.813385,-0.131507,-0.041670,0.000000,0.096396,0.098724,0.000000
2.390000,-0.887137,0.179977,-1.493755,1.457484,0.388568,-0.003965,0.398128,-1.284856,0.027638,-0.969353,1.063137,-0.055763,0.406210,10.599666,0.814261,-0.130490,-0.040676,0.000000,0.106965,0.098317,0.000000
2.400000,-0.872542,0.183798,-1.493793,1.461417,0.375775,-0.003692,0.388456,-1.273694,0.027121,-0.965017,1.169107,-0.047613,0.460303,10.591358,0.815982,-0.129367,-0.039687,0.000000,0.117545,0.097857,-0.000000
2.410000,-0.857909,0.187493,-1.493829,1.465254,0.363098,-0.003423,0.378830,-1.261471,0.026686,-0.960187,1.275212,-0.039457,0.511616,10.557800,0.819021,-0.128139,-0.038703,0.000000,0.128151,0.097350,0.000000
2.420000,-0.843237,0.191061,-1.493861,1.468994,0.350549,-0.003158,0.369254,-1.248191,0.026332,-0.954830,1.380552,-0.031248,0.559140,10.507459,0.822987,-0.126804,-0.037724,0.000000,0.138691,0.096792,0.000000
2.430000,-0.828529,0.194504,-1.493892,1.472639,0.338137,-0.002896,0.359734,-1.233862,0.026061,-0.949018,1.485308,-0.022994,0.602602,10.441072,0.827895,-0.125365,-0.036751,0.000000,0.149186,0.096192,-0.000000
2.440000,-0.813785,0.197824,-1.493919,1.476189,0.325875,-0.002636,0.350275,-1.218488,0.025873,-0.942793,1.589322,-0.014687,0.641729,10.359375,0.833762,-0.123821,-0.035785,0.000000,0.159620,0.095553,0.000000
2.450000,-0.799006,0.201022,-1.493944,1.479645,0.313771,-0.002378,0.340880,-1.202078,0.025767,-0.936199,1.692447,-0.006316,0.676249,10.263105,0.840604,-0.122173,-0.034826,0.000000,0.169980,0.094878,0.000000
2.460000,-0.784192,0.204100,-1.493967,1.483007,0.301837,-0.002120,0.331553,-1.184641,0.025746,-0.929205,1.794620,0.002114,0.703890,10.150936,0.848818,-0.120421,-0.033873,0.000000,0.180259,0.094166,0.000000
2.470000,-0.769346,0.207059,-1.493987,1.486276,0.290082,-0.001863,0.322297,-1.166190,0.025810,-0.922048,1.895515,0.010647,0.726623,10.025918,0.857992,-0.118568,-0.032929,0.000000,0.190426,0.093440,0.000000
2.480000,-0.754467,0.209902,-1.494004,1.489453,0.278516,-0.001604,0.313113,-1.146735,0.025960,-0.914689,1.995099,0.019277,0.744420,9.889042,0.868095,-0.116613,-0.031991,0.000000,0.200477,0.092695,0.000000
2.490000,-0.739557,0.212630,-1.494019,1.492538,0.267150,-0.001343,0.304003,-1.126292,0.026196,-0.907176,2.093259,0.028012,0.757253,9.741295,0.879096,-0.114559,-0.031062,0.000000,0.210402,0.091937,-0.000000
2.500000,-0.724617,0.215246,-1.494031,1.495533,0.255994,-0.001080,0.294970,-1.104875,0.026520,-0.899561,2.189892,0.036861,0.765094,9.583666,0.890965,-0.112406,-0.030141,0.000000,0.220191,0.091171,0.000000
2.510000,-0.709647,0.217751,-1.494041,1.498438,0.245056,-0.000813,0.286016,-1.082513,0.026933,-0.891573,2.283735,0.045818,0.759865,9.446629,0.904070,-0.110157,-0.029227,0.000000,0.229716,0.090369,-0.000000
2.520000,-0.694648,0.220148,-1.494047,1.501254,0.234347,-0.000541,0.277138,-1.059205,0.027437,-0.884017,2.377470,0.054928,0.750573,9.298078,0.917932,-0.107812,-0.028322,0.000000,0.239247,0.089612,0.000000
2.530000,-0.679622,0.222439,-1.494051,1.503981,0.223875,-0.000263,0.268335,-1.034968,0.028032,-0.876571,2.469650,0.064179,0.738178,9.135391,0.932470,-0.105372,-0.027425,0.000000,0.248640,0.088868,-0.000000
2.540000,-0.664569,0.224626,-1.494053,1.506620,0.213651,0.000020,0.259606,-1.009818,0.028721,-0.869261,2.560122,0.073579,0.723635,8.955947,0.947606,-0.102839,-0.026535,0.000000,0.257879,0.088140,0.000000
2.550000,-0.649490,0.226713,-1.494051,1.509173,0.203682,0.000311,0.250949,-0.983772,0.029505,-0.862103,2.648704,0.083133,0.707903,8.757124,0.963259,-0.100215,-0.025653,0.000000,0.266945,0.087428,-0.000000
2.560000,-0.634386,0.228701,-1.494046,1.511640,0.193978,0.000611,0.242360,-0.956839,0.030384,-0.855404,2.736339,0.092823,0.699521,8.507287,0.979910,-0.097500,-0.024777,0.000000,0.275935,0.086765,-0.000000
2.570000,-0.619257,0.230593,-1.494039,1.514021,0.184547,0.000919,0.233841,-0.929054,0.031362,-0.848451,2.820075,0.102707,0.690937,8.236381,0.996850,-0.094697,-0.023909,0.000000,0.284548,0.086078,0.000000
2.580000,-0.604106,0.232393,-1.494028,1.516317,0.175399,0.001238,0.225391,-0.900446,0.032439,-0.841586,2.901000,0.112761,0.682180,7.945337,1.013930,-0.091810,-0.023048,0.000000,0.292894,0.085401,0.000000
2.590000,-0.588931,0.234102,-1.494014,1.518529,0.166541,0.001568,0.217009,-0.871044,0.033617,-0.834808,2.978918,0.122986,0.673280,7.635085,1.031002,-0.088840,-0.022194,0.000000,0.300954,0.084734,0.000000
2.600000,-0.573735,0.235724,-1.493996,1.520657,0.157981,0.001911,0.208694,-0.840879,0.034899,-0.828120,3.053641,0.133380,0.664267,7.306557,1.047917,-0.085792,-0.021346,0.000000,0.308707,0.084077,0.000000
2.610000,-0.558518,0.237263,-1.493976,1.522703,0.149726,0.002267,0.200444,-0.809977,0.036285,-0.821713,3.125556,0.143920,0.659952,6.946412,1.065091,-0.082667,-0.020506,0.000000,0.316192,0.083451,0.000000
2.620000,-0.543281,0.238720,-1.493951,1.524666,0.141784,0.002637,0.192260,-0.778380,0.037778,-0.815137,3.193157,0.154655,0.654996,6.571600,1.081742,-0.079469,-0.019672,0.000000,0.323255,0.082808,0.000000
2.630000,-0.528025,0.240099,-1.493923,1.526548,0.134161,0.003023,0.184141,-0.746126,0.039379,-0.808617,3.256948,0.165553,0.648844,6.184800,1.097652,-0.076203,-0.018844,0.000000,0.329946,0.082172,0.000000
2.640000,-0.512751,0.241404,-1.493891,1.528349,0.126863,0.003425,0.176087,-0.713254,0.041090,-0.802166,3.316822,0.176605,0.640939,5.788691,1.112603,-0.072872,-0.018023,0.000000,0.336254,0.081545,-0.000000
2.650000,-0.497459,0.242638,-1.493854,1.530070,0.119897,0.003845,0.168098,-0.679803,0.042911,-0.795806,3.372700,0.187801,0.630725,5.385952,1.126377,-0.069479,-0.017209,0.000000,0.342169,0.080928,-0.000000
2.660000,-0.482150,0.243803,-1.493814,1.531712,0.113269,0.004283,0.160174,-0.645827,0.044846,-0.789234,3.423288,0.199113,0.609390,5.010579,1.139131,-0.066031,-0.016401,0.000000,0.347559,0.080290,0.000000
2.670000,-0.466825,0.244904,-1.493768,1.533274,0.106983,0.004742,0.152312,-0.611350,0.046894,-0.783257,3.471496,0.210561,0.585644,4.630099,1.150227,-0.062529,-0.015600,0.000000,0.352719,0.079714,0.000000
2.680000,-0.451484,0.245944,-1.493719,1.534758,0.101044,0.005222,0.144508,-0.576410,0.049057,-0.777528,3.515869,0.222111,0.559943,4.243354,1.159401,-0.058978,-0.014804,0.000000,0.357499,0.079165,-0.000000
2.690000,-0.436130,0.246926,-1.493664,1.536164,0.095456,0.005724,0.136761,-0.541045,0.051337,-0.772063,3.556339,0.233742,0.532742,3.849190,1.166391,-0.055380,-0.014013,0.000000,0.361892,0.078644,0.000000
2.700000,-0.420761,0.247854,-1.493604,1.537493,0.090224,0.006249,0.129066,-0.505296,0.053732,-0.766876,3.592824,0.245431,0.504495,3.446449,1.170933,-0.051741,-0.013228,0.000000,0.365888,0.078152,0.000000
2.710000,-0.405380,0.248732,-1.493539,1.538746,0.085351,0.006799,0.121424,-0.469187,0.056245,-0.761847,3.626688,0.257136,0.472416,2.997287,1.173173,-0.048062,-0.012448,0.000000,0.369626,0.077678,-0.000000
2.720000,-0.389987,0.249563,-1.493468,1.539922,0.080841,0.007374,0.113828,-0.432778,0.058875,-0.757283,3.654387,0.268866,0.440598,2.541728,1.172388,-0.044350,-0.011673,0.000000,0.372742,0.077253,0.000000
2.730000,-0.374582,0.250350,-1.493391,1.541022,0.076696,0.007977,0.106277,-0.396114,0.061622,-0.753031,3.677512,0.280572,0.409893,2.083110,1.168263,-0.040609,-0.010902,0.000000,0.375398,0.076861,-0.000000
2.740000,-0.359167,0.251098,-1.493308,1.542048,0.072919,0.008607,0.098767,-0.359243,0.064486,-0.749078,3.696050,0.292219,0.381152,1.624769,1.160485,-0.036844,-0.010134,0.000000,0.377590,0.076500,-0.000000
2.750000,-0.343741,0.251810,-1.493219,1.542998,0.069512,0.009267,0.091294,-0.322209,0.067466,-0.745399,3.710020,0.303769,0.355227,1.170041,1.148741,-0.033059,-0.009370,0.000000,0.379320,0.076169,0.000000
2.760000,-0.328307,0.252489,-1.493123,1.543874,0.066476,0.009957,0.083853,-0.285072,0.070562,-0.742405,3.718142,0.315192,0.344173,0.755904,1.132404,-0.029260,-0.008609,0.000000,0.380455,0.075910,0.000000
2.770000,-0.312864,0.253140,-1.493020,1.544675,0.063811,0.010678,0.076446,-0.247859,0.073770,-0.739005,3.723656,0.326415,0.336266,0.347934,1.111510,-0.025451,-0.007852,0.000000,0.381326,0.075610,0.000000
2.780000,-0.297414,0.253767,-1.492909,1.545403,0.061519,0.011432,0.069073,-0.210612,0.077089,-0.735671,3.725119,0.337406,0.330988,-0.054653,1.085785,-0.021635,-0.007097,0.000000,0.381784,0.075318,0.000000
2.790000,-0.281956,0.254372,-1.492791,1.546057,0.059599,0.012220,0.061732,-0.173370,0.080517,-0.732378,3.722579,0.348114,0.327818,-0.452638,1.054953,-0.017817,-0.006345,0.000000,0.381833,0.075032,0.000000
2.800000,-0.266493,0.254960,-1.492665,1.546638,0.058051,0.013043,0.054425,-0.136174,0.084050,-0.729109,3.716079,0.358487,0.326237,-0.846806,1.018738,-0.014000,-0.005596,0.000000,0.381476,0.074749,-0.000000
2.810000,-0.251024,0.255534,-1.492530,1.547145,0.056875,0.013902,0.047151,-0.099061,0.087686,-0.725825,3.705693,0.368499,0.325098,-1.238946,0.976134,-0.010189,-0.004850,0.000000,0.380719,0.074466,-0.000000
2.820000,-0.235550,0.256099,-1.492387,1.547581,0.056070,0.014797,0.039909,-0.062073,0.091419,-0.722577,3.691353,0.378023,0.324585,-1.628711,0.927686,-0.006387,-0.004106,0.000000,0.379555,0.074188,-0.000000
2.830000,-0.220072,0.256657,-1.492234,1.547944,0.055633,0.015730,0.032699,-0.025247,0.095244,-0.719333,3.673124,0.387033,0.324253,-2.016759,0.873208,-0.002599,-0.003366,0.000000,0.377989,0.073910,0.000000
2.840000,-0.204591,0.257213,-1.492072,1.548235,0.055564,0.016702,0.025522,0.011377,0.099157,-0.716093,3.651021,0.395467,0.323661,-2.403751,0.812515,0.001172,-0.002628,0.000000,0.376020,0.073634,0.000000
