time,x,y,z,vx,vy,vz,ax,ay,az,jx,jy,jz,sx,sy,sz,roll,pitch,yaw,p,q,r
0.000000,-2.163340,-2.168303,-1.461032,-0.009496,0.001672,-0.003084,0.223758,-0.363359,0.008539,-8.507036,8.955850,-0.030763,239.880543,-108.489626,-0.600512,-0.037045,-0.022825,0.000000,0.911618,0.866960,-0.000000
0.010000,-2.163425,-2.168303,-1.461063,-0.007646,-0.001531,-0.003000,0.150045,-0.278910,0.008203,-6.297644,7.964631,-0.036516,202.663079,-90.093402,-0.548102,-0.028444,-0.015307,0.000000,0.811642,0.642146,-0.000000
0.020000,-2.163495,-2.168331,-1.461092,-0.006428,-0.003937,-0.002920,0.096631,-0.203486,0.007811,-4.440813,7.147366,-0.041688,169.334041,-73.681971,-0.484306,-0.020755,-0.009858,0.000000,0.728806,0.452943,0.000000
0.030000,-2.163555,-2.168379,-1.461121,-0.005657,-0.005626,-0.002844,0.060180,-0.135447,0.007371,-2.898688,6.484713,-0.046168,139.687637,-59.154072,-0.410013,-0.013816,-0.006139,0.000000,0.661429,0.295695,0.000000
0.040000,-2.163609,-2.168441,-1.461149,-0.005178,-0.006665,-0.002773,0.037727,-0.073338,0.006890,-1.635471,5.958344,-0.049856,113.518075,-46.408442,-0.326112,-0.007481,-0.003848,0.000000,0.607796,0.166844,0.000000
0.050000,-2.163659,-2.168510,-1.461177,-0.004864,-0.007108,-0.002706,0.026654,-0.015884,0.006377,-0.617423,5.550941,-0.052661,90.619563,-35.343819,-0.233490,-0.001620,-0.002719,0.000000,0.566218,0.062993,-0.000000
0.060000,-2.163706,-2.168581,-1.461203,-0.004614,-0.006995,-0.002645,0.024667,0.038023,0.005840,0.187138,5.246202,-0.054499,70.786309,-25.858941,-0.133037,0.003878,-0.002516,0.000000,0.535068,-0.019073,0.000000
0.070000,-2.163751,-2.168648,-1.461230,-0.004347,-0.006356,-0.002590,0.029784,0.089332,0.005291,0.807835,5.028834,-0.055298,53.812522,-17.852544,-0.025641,0.009111,-0.003038,0.000000,0.512801,-0.082371,-0.000000
0.080000,-2.163793,-2.168707,-1.461255,-0.004001,-0.005214,-0.002539,0.040303,0.138843,0.004738,1.272234,4.884560,-0.054992,39.492409,-11.223367,0.087809,0.014159,-0.004110,0.000000,0.497966,-0.129712,-0.000000
0.090000,-2.163831,-2.168751,-1.461280,-0.003528,-0.003583,-0.002495,0.054793,0.187222,0.004195,1.605843,4.800114,-0.053525,27.620180,-5.870147,0.206426,0.019090,-0.005588,0.000000,0.489210,-0.163699,0.000000
0.100000,-2.163863,-2.168777,-1.461305,-0.002895,-0.001472,-0.002455,0.072063,0.235004,0.003672,1.832111,4.763241,-0.050849,17.990041,-1.691623,0.329321,0.023959,-0.007348,0.000000,0.485282,-0.186728,0.000000
0.110000,-2.163888,-2.168779,-1.461329,-0.002081,0.001116,-0.002421,0.091149,0.282608,0.003182,1.972431,4.762703,-0.046927,10.396202,1.413470,0.455606,0.028808,-0.009294,0.000000,0.485037,-0.200983,0.000000
0.120000,-2.163904,-2.168753,-1.461354,-0.001069,0.004181,-0.002392,0.111290,0.330345,0.002737,2.046137,4.788270,-0.041729,4.632871,3.546391,0.584391,0.033669,-0.011347,0.000000,0.487430,-0.208442,-0.000000
0.130000,-2.163909,-2.168694,-1.461377,0.000147,0.007724,-0.002366,0.131907,0.378429,0.002351,2.070504,4.830728,-0.035234,0.494255,4.808406,0.714789,0.038563,-0.013449,0.000000,0.491523,-0.210868,-0.000000
0.140000,-2.163900,-2.168597,-1.461401,0.001569,0.011751,-0.002344,0.152586,0.426988,0.002037,2.060752,4.881873,-0.027431,-2.225437,5.300774,0.845911,0.043502,-0.015556,0.000000,0.496481,-0.209817,0.000000
0.150000,-2.163877,-2.168457,-1.461424,0.003198,0.016266,-0.002325,0.173053,0.476072,0.001807,2.030039,4.934515,-0.018316,-3.731996,5.124760,0.976869,0.048493,-0.017642,0.000000,0.501574,-0.206633,0.000000
0.160000,-2.163836,-2.168270,-1.461447,0.005029,0.021274,-0.002308,0.193154,0.525663,0.001675,1.989470,4.982478,-0.007897,-4.231215,4.381625,1.106774,0.053532,-0.019690,0.000000,0.506176,-0.202450,-0.000000
0.170000,-2.163776,-2.168030,-1.461470,0.007059,0.026781,-0.002291,0.212839,0.575688,0.001654,1.948087,5.020595,0.003813,-3.928886,3.172631,1.234738,0.058613,-0.021696,0.000000,0.509764,-0.198189,0.000000
0.180000,-2.163694,-2.167733,-1.461493,0.009285,0.032789,-0.002274,0.232137,0.626028,0.001756,1.912878,5.044715,0.016789,-3.030800,1.599042,1.359872,0.063722,-0.023663,0.000000,0.511921,-0.194563,0.000000
0.190000,-2.163589,-2.167372,-1.461516,0.011701,0.039302,-0.002256,0.251134,0.676526,0.001993,1.888771,5.051698,0.030998,-1.742748,-0.237881,1.481288,0.068845,-0.025599,0.000000,0.512332,-0.192073,-0.000000
0.200000,-2.163459,-2.166945,-1.461538,0.014307,0.046319,-0.002234,0.269959,0.726998,0.002379,1.878637,5.039417,0.046399,-0.270524,-2.236876,1.598098,0.073963,-0.027518,0.000000,0.510788,-0.191010,0.000000
0.210000,-2.163303,-2.166444,-1.461561,0.017081,0.053848,-0.002208,0.289486,0.776977,0.002923,1.950496,4.981992,0.062766,-0.517428,-3.671149,1.713854,0.079027,-0.029509,0.000000,0.504656,-0.198281,-0.000000
0.220000,-2.163117,-2.165866,-1.461582,0.020073,0.061866,-0.002175,0.308960,0.826589,0.003639,1.944005,4.937948,0.080455,-0.783884,-5.141565,1.822683,0.084051,-0.031496,0.000000,0.499912,-0.197601,0.000000
0.230000,-2.162901,-2.165205,-1.461604,0.023260,0.070378,-0.002134,0.328357,0.875687,0.004536,1.934760,4.879122,0.099191,-1.067825,-6.623456,1.923152,0.089020,-0.033475,0.000000,0.493693,-0.196650,0.000000
0.240000,-2.162651,-2.164457,-1.461625,0.026640,0.079378,-0.002084,0.347646,0.924122,0.005626,1.922597,4.805523,0.118885,-1.367186,-8.092155,2.013830,0.093920,-0.035443,0.000000,0.486007,-0.195414,-0.000000
0.250000,-2.162367,-2.163616,-1.461646,0.030212,0.088858,-0.002021,0.366798,0.971749,0.006916,1.907372,4.717406,0.139431,-1.679898,-9.522995,2.093284,0.098735,-0.037399,0.000000,0.476887,-0.193879,-0.000000
0.260000,-2.162046,-2.162678,-1.461665,0.033975,0.098812,-0.001945,0.385797,1.018349,0.008418,1.890278,4.608368,0.160853,-2.037164,-10.716936,2.156425,0.103445,-0.039340,0.000000,0.465697,-0.192168,0.000000
0.270000,-2.161687,-2.161638,-1.461684,0.037927,0.109224,-0.001852,0.404592,1.063877,0.010135,1.868096,4.495502,0.182677,-2.399575,-11.845036,2.205925,0.108046,-0.041262,0.000000,0.454163,-0.189954,0.000000
0.280000,-2.161287,-2.160492,-1.461702,0.042066,0.120085,-0.001741,0.423147,1.108222,0.012073,1.842290,4.371698,0.204923,-2.760992,-12.903980,2.240800,0.112525,-0.043161,0.000000,0.441575,-0.187387,-0.000000
0.290000,-2.160845,-2.159235,-1.461719,0.046389,0.131384,-0.001610,0.441426,1.151277,0.014235,1.812900,4.237664,0.227441,-3.115274,-13.890454,2.260065,0.116874,-0.045032,0.000000,0.428006,-0.184472,-0.000000
0.300000,-2.160359,-2.157863,-1.461735,0.050893,0.143106,-0.001456,0.459393,1.192944,0.016622,1.780029,4.094141,0.250069,-3.456283,-14.801143,2.262735,0.121082,-0.046874,0.000000,0.413535,-0.181218,0.000000
0.310000,-2.159827,-2.156372,-1.461748,0.055576,0.155238,-0.001277,0.476996,1.233112,0.019239,1.742111,3.940175,0.272895,-3.734215,-15.589051,2.241317,0.125140,-0.048681,0.000000,0.398072,-0.177469,0.000000
0.320000,-2.159247,-2.154757,-1.461760,0.060433,0.167764,-0.001070,0.494226,1.271722,0.022079,1.703463,3.780667,0.295127,-3.991939,-16.299892,2.202132,0.129041,-0.050451,0.000000,0.382098,-0.173657,-0.000000
0.330000,-2.158617,-2.153015,-1.461770,0.065459,0.180667,-0.000834,0.511057,1.308703,0.025140,1.662342,3.614427,0.316877,-4.228661,-16.935699,2.144993,0.132780,-0.052182,0.000000,0.365498,-0.169608,-0.000000
0.340000,-2.157937,-2.151143,-1.461777,0.070652,0.193932,-0.000567,0.527466,1.343991,0.028415,1.618962,3.442196,0.337966,-4.443587,-17.498506,2.069713,0.136349,-0.053872,0.000000,0.348344,-0.165340,-0.000000
0.350000,-2.157204,-2.149135,-1.461781,0.076007,0.207541,-0.000265,0.543430,1.377530,0.031896,1.573546,3.264694,0.358211,-4.635924,-17.990347,1.976103,0.139745,-0.055519,0.000000,0.330703,-0.160876,0.000000
0.360000,-2.156416,-2.146991,-1.461782,0.081520,0.221477,0.000072,0.558925,1.409268,0.035578,1.525775,3.082425,0.377714,-4.791057,-18.408343,1.856712,0.142962,-0.057120,0.000000,0.312628,-0.156183,0.000000
0.370000,-2.155573,-2.144705,-1.461779,0.087184,0.235721,0.000447,0.573941,1.439165,0.039446,1.477182,2.896529,0.395610,-4.923705,-18.760041,1.719507,0.145996,-0.058674,0.000000,0.294215,-0.151409,-0.000000
0.380000,-2.154672,-2.142275,-1.461773,0.092997,0.250254,0.000861,0.588464,1.467188,0.043486,1.427372,2.707436,0.412047,-5.034767,-19.048075,1.565189,0.148845,-0.060181,0.000000,0.275507,-0.146516,0.000000
0.390000,-2.153712,-2.139699,-1.461762,0.098952,0.265058,0.001317,0.602485,1.493305,0.047682,1.376556,2.515771,0.426859,-5.125141,-19.275081,1.394462,0.151506,-0.061637,0.000000,0.256559,-0.141520,-0.000000
0.400000,-2.152693,-2.136973,-1.461746,0.105045,0.280114,0.001815,0.615993,1.517496,0.052017,1.324936,2.322129,0.439884,-5.195725,-19.443694,1.208026,0.153976,-0.063043,0.000000,0.237424,-0.136442,-0.000000
0.410000,-2.151611,-2.134096,-1.461725,0.111270,0.295401,0.002358,0.628980,1.539744,0.056475,1.272611,2.127169,0.451202,-5.245047,-19.558722,1.000718,0.156254,-0.064398,0.000000,0.218163,-0.131288,0.000000
0.420000,-2.150467,-2.131064,-1.461699,0.117623,0.310902,0.002945,0.641444,1.560037,0.061034,1.219988,1.931230,0.460115,-5.276666,-19.620360,0.779825,0.158339,-0.065701,0.000000,0.198794,-0.126095,0.000000
0.430000,-2.149258,-2.127877,-1.461666,0.124097,0.326596,0.003579,0.653379,1.578368,0.065670,1.167132,1.734932,0.466758,-5.291772,-19.630976,0.546767,0.160230,-0.066952,0.000000,0.179376,-0.120869,-0.000000
0.440000,-2.147984,-2.124532,-1.461627,0.130689,0.342463,0.004259,0.664786,1.594736,0.070361,1.114203,1.538773,0.471015,-5.291553,-19.592940,0.302966,0.161926,-0.068150,0.000000,0.159949,-0.115621,-0.000000
0.450000,-2.146644,-2.121027,-1.461581,0.137391,0.358484,0.004986,0.675664,1.609145,0.075082,1.061348,1.343227,0.472786,-5.277198,-19.508621,0.049841,0.163429,-0.069295,0.000000,0.140556,-0.110366,-0.000000
0.460000,-2.145236,-2.117362,-1.461527,0.144200,0.374639,0.005760,0.686014,1.621605,0.079810,1.008726,1.148836,0.472109,-5.250477,-19.382652,-0.214317,0.164738,-0.070387,0.000000,0.121243,-0.105118,0.000000
0.470000,-2.143760,-2.113534,-1.461466,0.151110,0.390909,0.006582,0.695839,1.632127,0.084515,0.956404,0.955815,0.468619,-5.211926,-19.214859,-0.484574,0.165854,-0.071426,0.000000,0.102023,-0.099879,0.000000
0.480000,-2.142214,-2.109543,-1.461396,0.158115,0.407275,0.007450,0.705144,1.640728,0.089173,0.904523,0.764671,0.462403,-5.162663,-19.007334,-0.759125,0.166779,-0.072413,0.000000,0.082942,-0.094663,0.000000
0.490000,-2.140597,-2.105388,-1.461317,0.165211,0.423718,0.008365,0.713932,1.647428,0.093754,0.853183,0.575793,0.453428,-5.103807,-18.762168,-1.036167,0.167513,-0.073346,0.000000,0.064034,-0.089479,0.000000
0.500000,-2.138909,-2.101069,-1.461228,0.172392,0.440218,0.009325,0.722209,1.652252,0.098232,0.802475,0.389547,0.441678,-5.036474,-18.481451,-1.313896,0.168060,-0.074228,0.000000,0.045332,-0.084333,0.000000
0.510000,-2.137149,-2.096584,-1.461130,0.179653,0.456757,0.010329,0.729984,1.655229,0.102579,0.752536,0.206331,0.427152,-4.963252,-18.168659,-1.590452,0.168421,-0.075057,0.000000,0.026872,-0.079239,-0.000000
0.520000,-2.135316,-2.091934,-1.461021,0.186990,0.473316,0.011376,0.737263,1.656390,0.106766,0.703297,0.026340,0.409876,-4.883609,-17.824330,-1.864095,0.168598,-0.075835,0.000000,0.008672,-0.074189,-0.000000
0.530000,-2.133409,-2.087118,-1.460902,0.194397,0.489878,0.012464,0.744053,1.655768,0.110767,0.654882,-0.150057,0.389886,-4.798483,-17.450385,-2.133025,0.168595,-0.076563,0.000000,-0.009233,-0.069194,-0.000000
0.540000,-2.131428,-2.082136,-1.460772,0.201869,0.506426,0.013591,0.750363,1.653402,0.114555,0.607342,-0.322575,0.367237,-4.708813,-17.048747,-2.395447,0.168415,-0.077239,0.000000,-0.026814,-0.064261,0.000000
0.550000,-2.129371,-2.076989,-1.460630,0.209403,0.522941,0.014754,0.756203,1.649330,0.118103,0.560718,-0.490946,0.342004,-4.615537,-16.621336,-2.649562,0.168060,-0.077866,0.000000,-0.044045,-0.059392,-0.000000
0.560000,-2.127240,-2.071677,-1.460477,0.216992,0.539407,0.015952,0.761581,1.643598,0.121385,0.515117,-0.654888,0.314164,-4.521532,-16.170932,-2.890650,0.167535,-0.078445,0.000000,-0.060896,-0.054599,0.000000
0.570000,-2.125031,-2.066201,-1.460311,0.224633,0.555807,0.017181,0.766508,1.636248,0.124379,0.470380,-0.814253,0.284099,-4.425558,-15.698495,-3.120196,0.166844,-0.078974,0.000000,-0.077347,-0.049867,0.000000
0.580000,-2.122747,-2.060562,-1.460133,0.232321,0.572126,0.018439,0.770992,1.627329,0.127060,0.426610,-0.968791,0.251803,-4.328317,-15.205840,-3.336760,0.165990,-0.079456,0.000000,-0.093370,-0.045208,0.000000
0.590000,-2.120385,-2.054759,-1.459942,0.240051,0.588349,0.019721,0.775044,1.616889,0.129408,0.383816,-1.118308,0.217412,-4.230509,-14.694785,-3.538904,0.164978,-0.079891,0.000000,-0.108942,-0.040623,-0.000000
0.600000,-2.117946,-2.048795,-1.459739,0.247820,0.604459,0.021026,0.778672,1.604980,0.131402,0.342000,-1.262631,0.181078,-4.132834,-14.167146,-3.725187,0.163812,-0.080280,0.000000,-0.124041,-0.036114,-0.000000
0.610000,-2.115428,-2.042670,-1.459522,0.255623,0.620444,0.022348,0.781888,1.591655,0.133021,0.301245,-1.401566,0.142771,-4.038224,-13.625650,-3.889236,0.162499,-0.080624,0.000000,-0.138645,-0.031689,-0.000000
0.620000,-2.112833,-2.036387,-1.459292,0.263456,0.636288,0.023685,0.784700,1.576967,0.134252,0.261331,-1.535060,0.103133,-3.944875,-13.071092,-4.035150,0.161041,-0.080923,0.000000,-0.152734,-0.027333,-0.000000
0.630000,-2.110159,-2.029945,-1.459048,0.271316,0.651979,0.025032,0.787118,1.560972,0.135079,0.222342,-1.662950,0.062131,-3.853214,-12.505177,-4.162097,0.159446,-0.081178,0.000000,-0.166289,-0.023053,-0.000000
0.640000,-2.107407,-2.023348,-1.458791,0.279198,0.667503,0.026385,0.789150,1.543727,0.135491,0.184259,-1.785131,0.019957,-3.763668,-11.929611,-4.269241,0.157717,-0.081390,0.000000,-0.179293,-0.018850,0.000000
0.650000,-2.104575,-2.016596,-1.458520,0.287098,0.682849,0.027740,0.790806,1.525289,0.135475,0.147060,-1.901516,-0.023185,-3.676664,-11.346100,-4.355747,0.155862,-0.081560,0.000000,-0.191729,-0.014725,0.000000
0.660000,-2.101665,-2.009691,-1.458236,0.295012,0.698005,0.029093,0.792095,1.505717,0.135022,0.110808,-2.011976,-0.067317,-3.594945,-10.757767,-4.414961,0.153885,-0.081688,0.000000,-0.203582,-0.010683,-0.000000
0.670000,-2.098675,-2.002636,-1.457938,0.302938,0.712960,0.030439,0.793024,1.485069,0.134127,0.075254,-2.116592,-0.111672,-3.516338,-10.164724,-4.452581,0.151792,-0.081776,0.000000,-0.214842,-0.006708,0.000000
0.680000,-2.095606,-1.995433,-1.457627,0.310872,0.727703,0.031774,0.793602,1.463405,0.132788,0.040470,-2.215260,-0.156296,-3.440989,-9.568505,-4.468485,0.149590,-0.081824,0.000000,-0.225496,-0.002807,0.000000
0.690000,-2.092457,-1.988083,-1.457303,0.318809,0.742225,0.033093,0.793836,1.440784,0.131001,0.006423,-2.307957,-0.200969,-3.369041,-8.970639,-4.462552,0.147284,-0.081833,0.000000,-0.235536,0.001021,0.000000
0.700000,-2.089230,-1.980589,-1.456966,0.326747,0.756516,0.034393,0.793733,1.417265,0.128769,-0.026922,-2.394673,-0.245474,-3.300636,-8.372658,-4.434659,0.144881,-0.081804,0.000000,-0.244952,0.004777,0.000000
0.710000,-2.085922,-1.972953,-1.456615,0.334683,0.770567,0.035667,0.793301,1.392911,0.126091,-0.059517,-2.475331,-0.289809,-3.238075,-7.778207,-4.379118,0.142387,-0.081737,0.000000,-0.253735,0.008454,0.000000
0.720000,-2.082536,-1.965178,-1.456252,0.342612,0.784371,0.036913,0.792545,1.367779,0.122975,-0.091600,-2.550152,-0.333233,-3.179082,-7.186445,-4.302055,0.139809,-0.081633,0.000000,-0.261892,0.012070,-0.000000
0.730000,-2.079070,-1.957267,-1.455877,0.350533,0.797921,0.038125,0.791471,1.341928,0.119429,-0.123110,-2.619073,-0.375780,-3.123536,-6.598647,-4.204030,0.137152,-0.081493,0.000000,-0.269416,0.015618,0.000000
0.740000,-2.075525,-1.949221,-1.455490,0.358441,0.811208,0.039300,0.790085,1.315417,0.115463,-0.154081,-2.682142,-0.417245,-3.071318,-6.016084,-4.085604,0.134422,-0.081318,0.000000,-0.276306,0.019099,-0.000000
0.750000,-2.071902,-1.941044,-1.455091,0.366333,0.824227,0.040433,0.788391,1.288304,0.111088,-0.184547,-2.739417,-0.457426,-3.022308,-5.440029,-3.947335,0.131628,-0.081108,0.000000,-0.282564,0.022515,-0.000000
0.760000,-2.068199,-1.932737,-1.454681,0.374207,0.836972,0.041521,0.786396,1.260649,0.106317,-0.214468,-2.790862,-0.496301,-2.978141,-4.874440,-3.785399,0.128773,-0.080864,0.000000,-0.288186,0.025860,0.000000
0.770000,-2.064417,-1.924305,-1.454261,0.382060,0.849438,0.042559,0.784103,1.232505,0.101168,-0.244041,-2.836815,-0.533269,-2.936726,-4.317576,-3.605278,0.125866,-0.080587,0.000000,-0.293196,0.029148,0.000000
0.780000,-2.060558,-1.915749,-1.453830,0.389888,0.861621,0.043543,0.781516,1.203931,0.095658,-0.273211,-2.877246,-0.568350,-2.897728,-3.770383,-3.408067,0.122911,-0.080277,0.000000,-0.297593,0.032374,0.000000
0.790000,-2.056620,-1.907074,-1.453390,0.397690,0.873516,0.044471,0.778640,1.174979,0.089808,-0.302002,-2.912258,-0.601377,-2.860813,-3.233803,-3.194864,0.119916,-0.079935,0.000000,-0.301386,0.035539,0.000000
0.800000,-2.052604,-1.898280,-1.452941,0.405460,0.885119,0.045338,0.775478,1.145703,0.083638,-0.330433,-2.941960,-0.632198,-2.825645,-2.708781,-2.966765,0.116886,-0.079561,0.000000,-0.304584,0.038642,0.000000
0.810000,-2.048511,-1.889372,-1.452484,0.413198,0.896429,0.046142,0.772033,1.116158,0.077171,-0.358480,-2.966359,-0.660771,-2.792890,-2.199181,-2.722247,0.113826,-0.079157,0.000000,-0.307191,0.041682,0.000000
0.820000,-2.044340,-1.880353,-1.452019,0.420900,0.907442,0.046881,0.768309,1.086393,0.070431,-0.386249,-2.985857,-0.686718,-2.761091,-1.702670,-2.465347,0.110744,-0.078722,0.000000,-0.309243,0.044665,0.000000
0.830000,-2.040093,-1.871224,-1.451546,0.428563,0.918156,0.047550,0.764309,1.056457,0.063445,-0.413704,-3.000458,-0.710041,-2.729789,-1.219834,-2.197483,0.107643,-0.078258,0.000000,-0.310744,0.047588,0.000000
0.840000,-2.035769,-1.861990,-1.451068,0.436185,0.928570,0.048149,0.760036,1.026399,0.056239,-0.440845,-3.010302,-0.730636,-2.698527,-0.751261,-1.920072,0.104531,-0.077765,0.000000,-0.311710,0.050450,0.000000
0.850000,-2.031369,-1.852654,-1.450584,0.443763,0.938684,0.048674,0.755493,0.996267,0.048842,-0.467673,-3.015533,-0.748415,-2.666848,-0.297538,-1.634532,0.101411,-0.077244,0.000000,-0.312159,0.053250,-0.000000
0.860000,-2.026894,-1.843218,-1.450095,0.451294,0.948495,0.049125,0.750684,0.966105,0.041280,-0.494151,-3.016198,-0.763331,-2.635018,0.138085,-1.341610,0.098289,-0.076695,0.000000,-0.312097,0.055986,0.000000
0.870000,-2.022344,-1.833685,-1.449601,0.458776,0.958006,0.049499,0.745611,0.935957,0.033585,-0.520336,-3.012705,-0.775260,-2.601767,0.558011,-1.043476,0.095171,-0.076119,0.000000,-0.311570,0.058662,-0.000000
0.880000,-2.017719,-1.824059,-1.449105,0.466206,0.967215,0.049796,0.740278,0.905864,0.025785,-0.546180,-3.005091,-0.784188,-2.566550,0.961980,-0.741629,0.092059,-0.075517,0.000000,-0.310584,0.061274,0.000000
0.890000,-2.013020,-1.814342,-1.448606,0.473581,0.976123,0.050015,0.734689,0.875868,0.017911,-0.571659,-2.993519,-0.790085,-2.528822,1.349731,-0.437569,0.088960,-0.074889,0.000000,-0.309160,0.063819,0.000000
0.900000,-2.008247,-1.804537,-1.448105,0.480899,0.984733,0.050154,0.728847,0.846007,0.009994,-0.596746,-2.978152,-0.792937,-2.488035,1.721005,-0.132796,0.085878,-0.074235,0.000000,-0.307318,0.066297,-0.000000
0.910000,-2.003402,-1.794648,-1.447603,0.488157,0.993044,0.050215,0.722755,0.816318,0.002063,-0.621429,-2.959071,-0.792699,-2.443108,2.073416,0.170073,0.082815,-0.073558,0.000000,-0.305071,0.068705,-0.000000
0.920000,-1.998484,-1.784677,-1.447101,0.495353,1.001060,0.050196,0.716420,0.786837,-0.005850,-0.645618,-2.936644,-0.789493,-2.394097,2.409087,0.470793,0.079777,-0.072857,0.000000,-0.302461,0.071037,0.000000
0.930000,-1.993495,-1.774628,-1.446599,0.502484,1.008782,0.050098,0.709845,0.757596,-0.013717,-0.669295,-2.910945,-0.783295,-2.340522,2.728020,0.768001,0.076767,-0.072133,0.000000,-0.299500,0.073292,-0.000000
0.940000,-1.988435,-1.764503,-1.446099,0.509549,1.016212,0.049922,0.703035,0.728628,-0.021506,-0.692412,-2.882140,-0.774149,-2.281902,3.030214,1.060336,0.073789,-0.071387,0.000000,-0.296209,0.075466,0.000000
0.950000,-1.983304,-1.754305,-1.445601,0.516544,1.023355,0.049668,0.695998,0.699963,-0.029190,-0.714915,-2.850396,-0.762109,-2.217758,3.315667,1.346434,0.070844,-0.070620,0.000000,-0.292609,0.077555,-0.000000
0.960000,-1.978104,-1.744036,-1.445106,0.523468,1.030213,0.049338,0.688739,0.671630,-0.036738,-0.736798,-2.815829,-0.747147,-2.146334,3.583032,1.622445,0.067937,-0.069832,0.000000,-0.288715,0.079560,-0.000000
0.970000,-1.972835,-1.733701,-1.444615,0.530318,1.036789,0.048934,0.681265,0.643655,-0.044124,-0.757878,-2.778731,-0.729578,-2.068581,3.833821,1.889800,0.065071,-0.069025,0.000000,-0.284564,0.081465,-0.000000
0.980000,-1.967498,-1.723302,-1.444128,0.537093,1.043087,0.048456,0.673584,0.616064,-0.051321,-0.778147,-2.739207,-0.709384,-1.984175,4.068200,2.147439,0.062247,-0.068200,0.000000,-0.280167,0.083272,0.000000
0.990000,-1.962094,-1.712840,-1.443646,0.543789,1.049112,0.047908,0.665705,0.588879,-0.058303,-0.797538,-2.697421,-0.686665,-1.892791,4.286333,2.394305,0.059468,-0.067357,0.000000,-0.275546,0.084974,-0.000000
1.000000,-1.956622,-1.702320,-1.443170,0.550406,1.054866,0.047291,0.657636,0.562122,-0.065046,-0.815978,-2.653534,-0.661537,-1.794107,4.488386,2.629339,0.056737,-0.066498,0.000000,-0.270721,0.086568,0.000000
1.010000,-1.951086,-1.691744,-1.442700,0.556942,1.060356,0.046608,0.649388,0.535815,-0.071525,-0.833446,-2.607684,-0.633991,-1.686501,4.673968,2.848176,0.054054,-0.065623,0.000000,-0.265707,0.088051,-0.000000
1.020000,-1.945484,-1.681114,-1.442238,0.563394,1.065584,0.045862,0.640971,0.509974,-0.077719,-0.849740,-2.560082,-0.604471,-1.571104,4.843868,3.053471,0.051423,-0.064734,0.000000,-0.260531,0.089407,0.000000
1.030000,-1.939818,-1.670433,-1.441783,0.569760,1.070557,0.045055,0.632397,0.484618,-0.083608,-0.864841,-2.510858,-0.572968,-1.447750,4.998317,3.244571,0.048844,-0.063833,0.000000,-0.255207,0.090637,-0.000000
1.040000,-1.934089,-1.659704,-1.441337,0.576041,1.075278,0.044191,0.623679,0.459762,-0.089172,-0.878668,-2.460167,-0.539629,-1.316276,5.137548,3.420823,0.046319,-0.062920,0.000000,-0.249753,0.091733,0.000000
1.050000,-1.928298,-1.648928,-1.440899,0.582234,1.079754,0.043272,0.614828,0.435419,-0.094395,-0.891139,-2.408157,-0.504604,-1.176514,5.261794,3.581574,0.043850,-0.061997,0.000000,-0.244186,0.092690,-0.000000
1.060000,-1.922445,-1.638109,-1.440471,0.588337,1.083988,0.042304,0.605860,0.411603,-0.099258,-0.902252,-2.354977,-0.467910,-1.026250,5.371226,3.722598,0.041436,-0.061065,0.000000,-0.238522,0.093508,0.000000
1.070000,-1.916531,-1.627249,-1.440053,0.594351,1.087987,0.041288,0.596789,0.388323,-0.103748,-0.911728,-2.300779,-0.430047,-0.867619,5.466145,3.847252,0.039079,-0.060126,0.000000,-0.232779,0.094164,0.000000
1.080000,-1.910558,-1.616351,-1.439646,0.600273,1.091757,0.040230,0.587631,0.365590,-0.107855,-0.919576,-2.245702,-0.391020,-0.700708,5.546792,3.955323,0.036781,-0.059181,0.000000,-0.226971,0.094659,0.000000
1.090000,-1.904526,-1.605415,-1.439249,0.606103,1.095301,0.039133,0.578403,0.343412,-0.111566,-0.925715,-2.189889,-0.350996,-0.525601,5.613407,4.046594,0.034540,-0.058232,0.000000,-0.221113,0.094986,-0.000000
1.100000,-1.898436,-1.594445,-1.438863,0.611841,1.098627,0.038000,0.569122,0.321794,-0.114872,-0.930061,-2.133480,-0.310145,-0.342386,5.666230,4.120851,0.032359,-0.057280,0.000000,-0.215220,0.095139,0.000000
1.110000,-1.892289,-1.583443,-1.438489,0.617485,1.101739,0.036837,0.559807,0.300744,-0.117765,-0.932615,-2.076616,-0.268504,-0.149132,5.705657,4.174529,0.030236,-0.056328,0.000000,-0.209305,0.095119,0.000000
1.120000,-1.886087,-1.572411,-1.438127,0.623037,1.104643,0.035646,0.550477,0.280263,-0.120240,-0.933108,-2.019418,-0.226561,0.051813,5.731755,4.211173,0.028172,-0.055378,0.000000,-0.203382,0.094902,-0.000000
1.130000,-1.879829,-1.561351,-1.437776,0.628495,1.107346,0.034433,0.541152,0.260356,-0.122295,-0.931555,-1.962025,-0.184337,0.260116,5.744742,4.230976,0.026168,-0.054430,0.000000,-0.197463,0.094489,-0.000000
1.140000,-1.873517,-1.550265,-1.437438,0.633860,1.109852,0.033202,0.531853,0.241023,-0.123927,-0.927883,-1.904566,-0.141997,0.475446,5.744842,4.234135,0.024223,-0.053488,0.000000,-0.191561,0.093874,-0.000000
1.150000,-1.867152,-1.539155,-1.437112,0.639132,1.112168,0.031956,0.522601,0.222264,-0.125135,-0.922023,-1.847170,-0.099709,0.697470,5.732275,4.220843,0.022337,-0.052553,0.000000,-0.185688,0.093051,-0.000000
1.160000,-1.860735,-1.528022,-1.436799,0.644312,1.114300,0.030700,0.513419,0.204079,-0.125921,-0.913984,-1.789964,-0.057526,0.927678,5.707311,4.188542,0.020509,-0.051627,0.000000,-0.179856,0.092022,0.000000
1.170000,-1.854266,-1.516869,-1.436498,0.649401,1.116252,0.029439,0.504329,0.186464,-0.126287,-0.903532,-1.733067,-0.015868,1.163692,5.670117,4.140518,0.018740,-0.050713,0.000000,-0.174076,0.090764,-0.000000
1.180000,-1.847747,-1.505698,-1.436210,0.654399,1.118031,0.028176,0.495356,0.169416,-0.126240,-0.890693,-1.676602,0.025234,1.404956,5.620907,4.077303,0.017028,-0.049812,0.000000,-0.168359,0.089279,-0.000000
1.190000,-1.841179,-1.494509,-1.435935,0.659308,1.119642,0.026916,0.486524,0.152930,-0.125785,-0.875417,-1.620688,0.065630,1.650916,5.559896,3.999428,0.015372,-0.048928,0.000000,-0.162715,0.087564,-0.000000
1.200000,-1.834561,-1.483305,-1.435672,0.664130,1.121091,0.025662,0.477856,0.137000,-0.124930,-0.857661,-1.565443,0.105175,1.901015,5.487300,3.907427,0.013773,-0.048062,0.000000,-0.157155,0.085612,0.000000
1.210000,-1.827896,-1.472088,-1.435421,0.668866,1.122384,0.024418,0.469378,0.121619,-0.123684,-0.837440,-1.510968,0.143809,2.156088,5.403034,3.799905,0.012229,-0.047216,0.000000,-0.151688,0.083426,-0.000000
1.220000,-1.821184,-1.460858,-1.435183,0.673518,1.123525,0.023189,0.461116,0.106778,-0.122058,-0.814591,-1.457406,0.181217,2.414018,5.307648,3.679556,0.010739,-0.046394,0.000000,-0.146326,0.080990,-0.000000
1.230000,-1.814426,-1.449618,-1.434958,0.678089,1.124521,0.021978,0.453095,0.092467,-0.120064,-0.789152,-1.404852,0.217360,2.674082,5.201395,3.547148,0.009302,-0.045597,0.000000,-0.141078,0.078306,0.000000
1.240000,-1.807623,-1.438368,-1.434744,0.682581,1.125377,0.020789,0.445341,0.078677,-0.117715,-0.761105,-1.353413,0.252122,2.935554,5.084525,3.403449,0.007917,-0.044828,0.000000,-0.135953,0.075371,0.000000
1.250000,-1.800775,-1.427111,-1.434542,0.686997,1.126096,0.019625,0.437882,0.065395,-0.115026,-0.730439,-1.303196,0.285394,3.197707,4.957292,3.249226,0.006582,-0.044090,0.000000,-0.130960,0.072185,0.000000
1.260000,-1.793883,-1.415847,-1.434351,0.691340,1.126686,0.018490,0.430741,0.052609,-0.112012,-0.697180,-1.254269,0.317113,3.460557,4.819145,3.084251,0.005297,-0.043385,0.000000,-0.126105,0.068748,-0.000000
1.270000,-1.786948,-1.404577,-1.434172,0.695613,1.127150,0.017386,0.423947,0.040305,-0.108689,-0.661264,-1.206809,0.347094,3.722547,4.671236,2.910411,0.004060,-0.042716,0.000000,-0.121404,0.065053,0.000000
1.280000,-1.779971,-1.393304,-1.434003,0.699820,1.127494,0.016317,0.417525,0.028468,-0.105076,-0.622735,-1.160876,0.375295,3.982861,4.513912,2.728594,0.002869,-0.042085,0.000000,-0.116861,0.061104,0.000000
1.290000,-1.772952,-1.382028,-1.433845,0.703965,1.127721,0.015285,0.411501,0.017082,-0.101190,-0.581615,-1.116561,0.401642,4.240684,4.347524,2.539690,0.001722,-0.041495,0.000000,-0.112485,0.056902,-0.000000
1.300000,-1.765892,-1.370750,-1.433698,0.708051,1.127837,0.014294,0.405901,0.006131,-0.097050,-0.537932,-1.073955,0.426068,4.495200,4.172421,2.344589,0.000618,-0.040948,0.000000,-0.108284,0.052448,-0.000000
1.310000,-1.758791,-1.359472,-1.433559,0.712084,1.127845,0.013345,0.400750,-0.004403,-0.092675,-0.491726,-1.033100,0.448520,4.745631,3.987919,2.144087,-0.000444,-0.040447,0.000000,-0.104261,0.047745,-0.000000
1.320000,-1.751650,-1.348194,-1.433430,0.716068,1.127750,0.012441,0.396075,-0.014537,-0.088086,-0.443038,-0.994176,0.468940,4.991118,3.795528,1.939178,-0.001468,-0.039994,0.000000,-0.100433,0.042796,0.000000
1.330000,-1.744470,-1.336917,-1.433310,0.720007,1.127556,0.011584,0.391898,-0.024293,-0.083303,-0.391923,-0.957214,0.487292,5.230840,3.595723,1.730763,-0.002454,-0.039592,0.000000,-0.096802,0.037605,-0.000000
1.340000,-1.737250,-1.325643,-1.433199,0.723908,1.127265,0.010776,0.388244,-0.033689,-0.078347,-0.338443,-0.922285,0.503546,5.463977,3.388981,1.519745,-0.003404,-0.039243,0.000000,-0.093375,0.032177,0.000000
1.350000,-1.729992,-1.314372,-1.433095,0.727774,1.126883,0.010018,0.385137,-0.042745,-0.073239,-0.282668,-0.889456,0.517681,5.689707,3.175776,1.307023,-0.004322,-0.038949,0.000000,-0.090157,0.026519,-0.000000
1.360000,-1.722695,-1.303105,-1.432998,0.731612,1.126412,0.009311,0.382598,-0.051484,-0.068001,-0.224653,-0.858742,0.529656,5.906634,2.955397,1.094193,-0.005208,-0.038713,0.000000,-0.087151,0.020635,0.000000
1.370000,-1.715360,-1.291844,-1.432908,0.735428,1.125854,0.008658,0.380651,-0.059928,-0.062653,-0.164540,-0.830313,0.539534,6.114583,2.729654,0.881378,-0.006065,-0.038537,0.000000,-0.084372,0.014537,0.000000
1.380000,-1.707986,-1.280589,-1.432825,0.739227,1.125214,0.008059,0.379314,-0.068098,-0.057217,-0.102394,-0.804165,0.547287,6.312806,2.499167,0.669393,-0.006896,-0.038423,0.000000,-0.081819,0.008233,-0.000000
1.390000,-1.700575,-1.269340,-1.432747,0.743016,1.124493,0.007514,0.378609,-0.076019,-0.051714,-0.038318,-0.780343,0.552927,6.500552,2.264560,0.459054,-0.007703,-0.038373,0.000000,-0.079498,0.001730,0.000000
1.400000,-1.693126,-1.258099,-1.432674,0.746802,1.123694,0.007024,0.378554,-0.083713,-0.046166,0.027579,-0.758886,0.556476,6.677071,2.026453,0.251178,-0.008487,-0.038389,0.000000,-0.077411,-0.004959,0.000000
1.410000,-1.685639,-1.246866,-1.432606,0.750590,1.122820,0.006591,0.379167,-0.091204,-0.040592,0.095240,-0.739779,0.557911,6.840166,1.784325,0.047869,-0.009252,-0.038473,0.000000,-0.075558,-0.011831,0.000000
1.420000,-1.678114,-1.235643,-1.432542,0.754387,1.121871,0.006213,0.380464,-0.098517,-0.035014,0.164406,-0.723155,0.557389,6.990712,1.540080,-0.151503,-0.009999,-0.038626,0.000000,-0.073951,-0.018858,0.000000
1.430000,-1.670551,-1.224429,-1.432482,0.758201,1.120850,0.005890,0.382460,-0.105675,-0.029451,0.235011,-0.708982,0.554896,7.128136,1.294481,-0.346280,-0.010731,-0.038850,0.000000,-0.072587,-0.026036,-0.000000
1.440000,-1.662950,-1.213226,-1.432424,0.762039,1.119758,0.005623,0.385169,-0.112704,-0.023923,0.306923,-0.697268,0.550481,7.251865,1.048287,-0.535802,-0.011452,-0.039147,0.000000,-0.071467,-0.033350,-0.000000
1.450000,-1.655310,-1.202034,-1.432369,0.765907,1.118596,0.005412,0.388602,-0.119629,-0.018448,0.380001,-0.688015,0.544200,7.361326,0.802261,-0.719413,-0.012162,-0.039518,0.000000,-0.070591,-0.040786,-0.000000
1.460000,-1.647632,-1.190854,-1.432316,0.769813,1.117365,0.005254,0.392773,-0.126473,-0.013045,0.454181,-0.681195,0.536050,7.453903,0.556548,-0.894819,-0.012864,-0.039964,0.000000,-0.069957,-0.048337,0.000000
1.470000,-1.639914,-1.179687,-1.432264,0.773765,1.116067,0.005150,0.397689,-0.133261,-0.007733,0.529119,-0.676851,0.526254,7.531317,0.312601,-1.063196,-0.013562,-0.040485,0.000000,-0.069569,-0.055969,0.000000
1.480000,-1.632156,-1.168533,-1.432213,0.777770,1.114700,0.005099,0.403358,-0.140018,-0.002526,0.604755,-0.674934,0.514811,7.593246,0.071258,-1.224086,-0.014256,-0.041083,0.000000,-0.069421,-0.063674,-0.000000
1.490000,-1.624358,-1.157393,-1.432162,0.781835,1.113266,0.005100,0.409786,-0.146768,0.002558,0.680932,-0.675414,0.501799,7.639368,-0.166646,-1.377030,-0.014951,-0.041759,0.000000,-0.069512,-0.071435,0.000000
1.500000,-1.616519,-1.146268,-1.432111,0.785968,1.111765,0.005150,0.416977,-0.153534,0.007505,0.757489,-0.678253,0.487298,7.669359,-0.400273,-1.521570,-0.015647,-0.042512,0.000000,-0.069837,-0.079237,0.000000
1.510000,-1.608639,-1.135158,-1.432059,0.790177,1.110196,0.005249,0.424937,-0.160340,0.012299,0.834330,-0.683405,0.471328,7.681239,-0.628721,-1.655514,-0.016348,-0.043344,0.000000,-0.070392,-0.087067,0.000000
1.520000,-1.600716,-1.124064,-1.432005,0.794469,1.108558,0.005395,0.433664,-0.167210,0.016927,0.911132,-0.690810,0.454141,7.676547,-0.851226,-1.780350,-0.017056,-0.044254,0.000000,-0.071170,-0.094892,-0.000000
1.530000,-1.592749,-1.112987,-1.431951,0.798853,1.106851,0.005587,0.443159,-0.174164,0.021378,0.987805,-0.700407,0.435752,7.655163,-1.066959,-1.895832,-0.017772,-0.045242,0.000000,-0.072166,-0.102702,-0.000000
1.540000,-1.584738,-1.101928,-1.431894,0.803335,1.105074,0.005822,0.453419,-0.181225,0.025639,1.064180,-0.712124,0.416256,7.616969,-1.275093,-2.001713,-0.018500,-0.046308,0.000000,-0.073371,-0.110479,0.000000
1.550000,-1.576682,-1.090886,-1.431834,0.807924,1.103226,0.006099,0.464441,-0.188413,0.029700,1.140088,-0.725881,0.395751,7.561845,-1.474797,-2.097748,-0.019240,-0.047452,0.000000,-0.074778,-0.118203,0.000000
1.560000,-1.568579,-1.079863,-1.431771,0.812626,1.101305,0.006416,0.476220,-0.195749,0.033550,1.215438,-0.741621,0.374271,7.487705,-1.664435,-2.182069,-0.019996,-0.048672,0.000000,-0.076381,-0.125864,0.000000
1.570000,-1.560429,-1.068860,-1.431706,0.817450,1.099311,0.006769,0.488747,-0.203252,0.037182,1.289873,-0.759173,0.352071,7.396636,-1.844084,-2.256249,-0.020769,-0.049969,0.000000,-0.078161,-0.133425,-0.000000
1.580000,-1.552230,-1.057877,-1.431636,0.822404,1.097240,0.007159,0.502014,-0.210939,0.040589,1.363314,-0.778467,0.329180,7.288761,-2.013017,-2.320243,-0.021560,-0.051341,0.000000,-0.080112,-0.140876,0.000000
1.590000,-1.543981,-1.046916,-1.431562,0.827493,1.095091,0.007580,0.516009,-0.218827,0.043764,1.435593,-0.799395,0.305700,7.164200,-2.170502,-2.374002,-0.022371,-0.052787,0.000000,-0.082223,-0.148198,-0.000000
1.600000,-1.535680,-1.035976,-1.431484,0.832726,1.092863,0.008033,0.530721,-0.226931,0.046702,1.506543,-0.821837,0.281734,7.023075,-2.315811,-2.417479,-0.023205,-0.054305,0.000000,-0.084480,-0.155374,-0.000000
1.610000,-1.527326,-1.025059,-1.431402,0.838110,1.090552,0.008514,0.546136,-0.235269,0.049397,1.576076,-0.845729,0.257331,6.863574,-2.446675,-2.449269,-0.024062,-0.055895,0.000000,-0.086877,-0.162393,0.000000
1.620000,-1.518917,-1.014165,-1.431314,0.843651,1.088156,0.009020,0.562237,-0.243850,0.051847,1.643847,-0.870794,0.232722,6.687989,-2.564091,-2.470848,-0.024943,-0.057554,0.000000,-0.089386,-0.169218,0.000000
1.630000,-1.510452,-1.003296,-1.431221,0.849357,1.085674,0.009550,0.579007,-0.252688,0.054051,1.709783,-0.896964,0.207948,6.496676,-2.667517,-2.482337,-0.025850,-0.059280,0.000000,-0.091998,-0.175842,-0.000000
1.640000,-1.501929,-0.992452,-1.431123,0.855234,1.083102,0.010100,0.596426,-0.261793,0.056006,1.773730,-0.924096,0.183109,6.289994,-2.756413,-2.483853,-0.026783,-0.061071,0.000000,-0.094700,-0.182247,0.000000
1.650000,-1.493347,-0.981634,-1.431019,0.861288,1.080437,0.010669,0.614474,-0.271173,0.057713,1.835533,-0.952042,0.158304,6.068301,-2.830238,-2.475515,-0.027744,-0.062925,0.000000,-0.097475,-0.188418,0.000000
1.660000,-1.484703,-0.970844,-1.430909,0.867525,1.077677,0.011254,0.633130,-0.280837,0.059172,1.895089,-0.980735,0.133590,5.830888,-2.886270,-2.456424,-0.028733,-0.064840,0.000000,-0.100316,-0.194341,-0.000000
1.670000,-1.475996,-0.960081,-1.430794,0.873952,1.074819,0.011852,0.652368,-0.290789,0.060386,1.952152,-1.009812,0.109161,5.579311,-2.926415,-2.427843,-0.029750,-0.066813,0.000000,-0.103187,-0.199993,0.000000
1.680000,-1.467223,-0.949347,-1.430672,0.880574,1.071861,0.012461,0.672164,-0.301034,0.061356,2.006630,-1.039209,0.085064,5.314057,-2.950398,-2.390014,-0.030797,-0.068841,0.000000,-0.106080,-0.205364,-0.000000
1.690000,-1.458383,-0.938644,-1.430545,0.887397,1.068798,0.013078,0.692492,-0.311574,0.062088,2.058389,-1.068765,0.061391,5.035615,-2.957943,-2.343183,-0.031872,-0.070921,0.000000,-0.108978,-0.210440,0.000000
1.700000,-1.449475,-0.927972,-1.430411,0.894426,1.065628,0.013702,0.713322,-0.322409,0.062586,2.107300,-1.098313,0.038230,4.744475,-2.948778,-2.287593,-0.032976,-0.073050,0.000000,-0.111865,-0.215207,0.000000
1.710000,-1.440494,-0.917332,-1.430271,0.901665,1.062349,0.014329,0.734628,-0.333541,0.062855,2.153263,-1.127785,0.015640,4.440470,-2.920067,-2.222787,-0.034109,-0.075226,0.000000,-0.114733,-0.219657,-0.000000
1.720000,-1.431441,-0.906725,-1.430124,0.909120,1.058956,0.014958,0.756377,-0.344964,0.062901,2.196099,-1.156772,-0.006230,4.124823,-2.874408,-2.149795,-0.035271,-0.077445,0.000000,-0.117541,-0.223771,0.000000
1.730000,-1.422311,-0.896153,-1.429971,0.916794,1.055448,0.015586,0.778539,-0.356674,0.062733,2.235723,-1.185217,-0.027330,3.798103,-2.811842,-2.068947,-0.036460,-0.079703,0.000000,-0.120283,-0.227541,0.000000
1.740000,-1.413104,-0.885617,-1.429812,0.924692,1.051822,0.016212,0.801081,-0.368666,0.062357,2.272026,-1.212952,-0.047584,3.460878,-2.732406,-1.980573,-0.037676,-0.081998,0.000000,-0.122943,-0.230959,0.000000
1.750000,-1.403817,-0.875117,-1.429647,0.932817,1.048074,0.016833,0.823968,-0.380930,0.061784,2.304907,-1.239809,-0.066918,3.113716,-2.636139,-1.885004,-0.038918,-0.084325,0.000000,-0.125503,-0.234013,-0.000000
1.760000,-1.394447,-0.864656,-1.429476,0.941172,1.044203,0.017447,0.847167,-0.393460,0.061022,2.334273,-1.265725,-0.085280,2.757084,-2.520399,-1.782098,-0.040186,-0.086680,0.000000,-0.127958,-0.236698,0.000000
1.770000,-1.384992,-0.854233,-1.429298,0.949761,1.040204,0.018053,0.870642,-0.406241,0.060082,2.360024,-1.290282,-0.102559,2.391665,-2.388235,-1.672713,-0.041477,-0.089061,0.000000,-0.130266,-0.239003,0.000000
1.780000,-1.375451,-0.843852,-1.429115,0.958586,1.036077,0.018648,0.894355,-0.419260,0.058975,2.382079,-1.313436,-0.118714,2.018040,-2.240013,-1.557237,-0.042791,-0.091463,0.000000,-0.132423,-0.240924,-0.000000
1.790000,-1.365820,-0.833512,-1.428925,0.967649,1.031818,0.019232,0.918271,-0.432504,0.057712,2.400360,-1.335030,-0.133685,1.636791,-2.076102,-1.436055,-0.044125,-0.093883,0.000000,-0.134415,-0.242454,-0.000000
1.800000,-1.356097,-0.823216,-1.428730,0.976952,1.027426,0.019802,0.942350,-0.445955,0.056305,2.414792,-1.354907,-0.147417,1.248499,-1.896867,-1.309556,-0.045478,-0.096316,0.000000,-0.136226,-0.243589,0.000000
1.810000,-1.346280,-0.812964,-1.428529,0.986496,1.022899,0.020357,0.966553,-0.459597,0.054767,2.425295,-1.373017,-0.159873,0.854076,-1.700152,-1.177766,-0.046849,-0.098758,0.000000,-0.137853,-0.244322,-0.000000
1.820000,-1.336366,-0.802759,-1.428323,0.996283,1.018234,0.020897,0.990842,-0.473409,0.053112,2.431839,-1.388976,-0.170973,0.453732,-1.489157,-1.041478,-0.048235,-0.101206,0.000000,-0.139259,-0.244653,-0.000000
1.830000,-1.326353,-0.792600,-1.428111,1.006313,1.013430,0.021419,1.015177,-0.487369,0.051353,2.434352,-1.402755,-0.180689,0.048006,-1.264560,-0.901121,-0.049633,-0.103656,0.000000,-0.140442,-0.244578,-0.000000
1.840000,-1.316239,-0.782490,-1.427895,1.016587,1.008486,0.021924,1.039516,-0.501456,0.049503,2.432783,-1.414224,-0.188984,-0.362560,-1.027037,-0.757128,-0.051043,-0.106102,0.000000,-0.141390,-0.244095,-0.000000
1.850000,-1.306021,-0.772431,-1.427673,1.027103,1.003400,0.022409,1.063819,-0.515646,0.047578,2.427086,-1.423255,-0.195821,-0.777426,-0.777264,-0.609928,-0.052460,-0.108542,0.000000,-0.142093,-0.243202,-0.000000
1.860000,-1.295696,-0.762423,-1.427447,1.037863,0.998173,0.022875,1.088043,-0.529914,0.045591,2.417200,-1.429818,-0.201187,-1.195495,-0.513707,-0.459588,-0.053884,-0.110972,0.000000,-0.142549,-0.241897,0.000000
1.870000,-1.285263,-0.752468,-1.427216,1.048864,0.992802,0.023321,1.112149,-0.544233,0.043559,2.403140,-1.433593,-0.205022,-1.616851,-0.239523,-0.306949,-0.055311,-0.113386,0.000000,-0.142729,-0.240183,-0.000000
1.880000,-1.274718,-0.742567,-1.426980,1.060105,0.987288,0.023746,1.136092,-0.558576,0.041496,2.384853,-1.434576,-0.207320,-2.041023,0.044339,-0.152487,-0.056738,-0.115781,0.000000,-0.142633,-0.238060,0.000000
1.890000,-1.264060,-0.732723,-1.426741,1.071585,0.981631,0.024151,1.159832,-0.572915,0.039418,2.362312,-1.432677,-0.208067,-2.467537,0.336933,0.003321,-0.058162,-0.118154,0.000000,-0.142256,-0.235527,-0.000000
1.900000,-1.253286,-0.722935,-1.426497,1.083301,0.975830,0.024534,1.183324,-0.587220,0.037340,2.335496,-1.427812,-0.207251,-2.895921,0.637311,0.160001,-0.059582,-0.120499,0.000000,-0.141591,-0.232585,0.000000
1.910000,-1.242393,-0.713206,-1.426250,1.095251,0.969886,0.024897,1.206527,-0.601462,0.035278,2.304367,-1.419969,-0.204883,-3.325146,0.946087,0.317512,-0.060993,-0.122812,0.000000,-0.140640,-0.229234,0.000000
1.920000,-1.231380,-0.703538,-1.425999,1.107431,0.963801,0.025240,1.229397,-0.615609,0.033247,2.268965,-1.408940,-0.200921,-3.755365,1.260562,0.474889,-0.062394,-0.125090,0.000000,-0.139383,-0.225481,-0.000000
1.930000,-1.220244,-0.693931,-1.425745,1.119837,0.957575,0.025563,1.251892,-0.629630,0.031265,2.229258,-1.394743,-0.195387,-4.186174,1.579598,0.631602,-0.063780,-0.127329,0.000000,-0.137824,-0.221326,-0.000000
1.940000,-1.208982,-0.684387,-1.425488,1.132467,0.951209,0.025866,1.273968,-0.643493,0.029345,2.185241,-1.377337,-0.188293,-4.617169,1.902057,0.787123,-0.065149,-0.129525,0.000000,-0.135962,-0.216771,-0.000000
1.950000,-1.197594,-0.674907,-1.425228,1.145315,0.944705,0.026150,1.295582,-0.657166,0.027504,2.136915,-1.356694,-0.179651,-5.047947,2.226799,0.940921,-0.066498,-0.131673,0.000000,-0.133797,-0.211818,0.000000
1.960000,-1.186075,-0.665493,-1.424965,1.158377,0.938066,0.026416,1.316692,-0.670617,0.025757,2.084274,-1.332824,-0.169501,-5.477837,2.553351,1.092954,-0.067824,-0.133769,0.000000,-0.131330,-0.206469,0.000000
1.970000,-1.174426,-0.656146,-1.424700,1.171647,0.931294,0.026665,1.337254,-0.683812,0.024119,2.027350,-1.305657,-0.157823,-5.906735,2.879830,1.242147,-0.069124,-0.135810,0.000000,-0.128558,-0.200729,0.000000
1.980000,-1.162642,-0.646868,-1.424432,1.185120,0.924391,0.026899,1.357225,-0.696719,0.022605,1.966144,-1.275231,-0.144669,-6.334267,3.205015,1.387911,-0.070394,-0.137792,0.000000,-0.125485,-0.194601,0.000000
1.990000,-1.150722,-0.637659,-1.424162,1.198790,0.917361,0.027118,1.376562,-0.709305,0.021230,1.900670,-1.241565,-0.130078,-6.760063,3.527689,1.529657,-0.071632,-0.139711,0.000000,-0.122115,-0.188087,-0.000000
2.000000,-1.138665,-0.628521,-1.423890,1.212649,0.910206,0.027324,1.395224,-0.721539,0.020008,1.830949,-1.204690,-0.114092,-7.183751,3.846631,1.666797,-0.072835,-0.141562,0.000000,-0.118452,-0.181190,-0.000000
2.010000,-1.126469,-0.619455,-1.423616,1.226692,0.902931,0.027519,1.413167,-0.733389,0.018953,1.757018,-1.164646,-0.096776,-7.605315,4.160551,1.799151,-0.074000,-0.143343,0.000000,-0.114502,-0.173915,-0.000000
2.020000,-1.114131,-0.610463,-1.423339,1.240910,0.895540,0.027704,1.430350,-0.744822,0.018077,1.678869,-1.121496,-0.078146,-8.023985,4.468308,1.925672,-0.075125,-0.145049,0.000000,-0.110272,-0.166261,-0.000000
2.030000,-1.101650,-0.601545,-1.423061,1.255296,0.888036,0.027881,1.446731,-0.755808,0.017394,1.596549,-1.075305,-0.058284,-8.439345,4.768694,2.045718,-0.076205,-0.146676,0.000000,-0.105768,-0.158233,0.000000
2.040000,-1.089025,-0.592702,-1.422782,1.269842,0.880425,0.028052,1.462267,-0.766318,0.016915,1.510094,-1.026151,-0.037256,-8.850980,5.060495,2.158652,-0.077239,-0.148221,0.000000,-0.100998,-0.149833,0.000000
2.050000,-1.076253,-0.583937,-1.422500,1.284538,0.872711,0.028220,1.476919,-0.776322,0.016653,1.419543,-0.974127,-0.015136,-9.258475,5.342503,2.263833,-0.078224,-0.149680,0.000000,-0.095973,-0.141066,0.000000
2.060000,-1.063333,-0.575249,-1.422217,1.299377,0.864900,0.028386,1.490645,-0.785791,0.016616,1.324971,-0.919315,0.007989,-9.662214,5.612923,2.360731,-0.079158,-0.151050,0.000000,-0.090698,-0.131936,-0.000000
2.070000,-1.050265,-0.566639,-1.421933,1.314348,0.856997,0.028553,1.503405,-0.794699,0.016815,1.226351,-0.861883,0.032043,-10.060885,5.871198,2.448585,-0.080037,-0.152326,0.000000,-0.085191,-0.122439,-0.000000
2.080000,-1.037046,-0.558109,-1.421646,1.329442,0.849008,0.028723,1.515159,-0.803021,0.017260,1.123772,-0.801935,0.056928,-10.453975,6.116190,2.526744,-0.080861,-0.153505,0.000000,-0.079461,-0.112582,0.000000
2.090000,-1.023676,-0.549659,-1.421358,1.344648,0.840939,0.028899,1.525867,-0.810730,0.017956,1.017292,-0.739608,0.082544,-10.840972,6.346757,2.594555,-0.081626,-0.154584,0.000000,-0.073519,-0.102367,-0.000000
2.100000,-1.010153,-0.541290,-1.421068,1.359955,0.832796,0.029083,1.535492,-0.817805,0.018913,0.906975,-0.675052,0.108783,-11.221363,6.561762,2.651366,-0.082330,-0.155558,0.000000,-0.067379,-0.091798,-0.000000
2.110000,-0.996476,-0.533003,-1.420777,1.375354,0.824585,0.029278,1.543993,-0.824221,0.020134,0.792793,-0.608121,0.135551,-11.592225,6.752310,2.696056,-0.082972,-0.156425,0.000000,-0.061024,-0.080867,0.000000
2.120000,-0.982645,-0.524799,-1.420483,1.390831,0.816314,0.029487,1.551336,-0.829962,0.021625,0.675047,-0.539716,0.162684,-11.955751,6.925966,2.728499,-0.083550,-0.157180,0.000000,-0.054541,-0.069600,0.000000
2.130000,-0.968659,-0.516677,-1.420187,1.406377,0.807988,0.029711,1.557482,-0.835010,0.023388,0.553703,-0.469659,0.190078,-12.311722,7.082538,2.748100,-0.084063,-0.157821,0.000000,-0.047910,-0.057989,-0.000000
2.140000,-0.954518,-0.508639,-1.419888,1.421977,0.799616,0.029955,1.562398,-0.839350,0.025427,0.428839,-0.398122,0.217601,-12.659920,7.221837,2.754264,-0.084508,-0.158343,0.000000,-0.041143,-0.046036,0.000000
2.150000,-0.940220,-0.500685,-1.419588,1.437620,0.791204,0.030221,1.566048,-0.842968,0.027740,0.300532,-0.325280,0.245116,-13.000128,7.343673,2.746396,-0.084885,-0.158744,0.000000,-0.034257,-0.033744,-0.000000
2.160000,-0.925765,-0.492815,-1.419284,1.453294,0.782759,0.030511,1.568401,-0.845856,0.030329,0.169240,-0.251666,0.272537,-13.341648,7.456912,2.722478,-0.085193,-0.159020,0.000000,-0.027299,-0.021152,-0.000000
2.170000,-0.911154,-0.485030,-1.418977,1.468984,0.774289,0.030828,1.569421,-0.847998,0.033190,0.034156,-0.176610,0.299579,-13.673577,7.551198,2.683512,-0.085431,-0.159167,0.000000,-0.020199,-0.008171,-0.000000
2.180000,-0.896385,-0.477330,-1.418667,1.484677,0.765802,0.031176,1.569074,-0.849385,0.036319,-0.104195,-0.100710,0.326155,-13.994531,7.625232,2.629079,-0.085597,-0.159182,0.000000,-0.013013,0.005151,-0.000000
2.190000,-0.881460,-0.469714,-1.418354,1.500361,0.757304,0.031556,1.567327,-0.850010,0.039711,-0.245694,-0.024177,0.352108,-14.303125,7.677715,2.558757,-0.085691,-0.159062,0.000000,-0.005757,0.018811,0.000000
2.200000,-0.866378,-0.462183,-1.418036,1.516019,0.748804,0.031971,1.564150,-0.849867,0.043359,-0.390211,0.052768,0.377276,-14.597977,7.707349,2.472127,-0.085712,-0.158804,0.000000,0.001551,0.032802,0.000000
2.210000,-0.851140,-0.454738,-1.417714,1.531639,0.740309,0.032424,1.559512,-0.848951,0.047255,-0.537662,0.130153,0.401592,-14.876211,7.706189,2.366312,-0.085659,-0.158403,0.000000,0.008918,0.047122,-0.000000
2.220000,-0.835746,-0.447377,-1.417387,1.547204,0.731827,0.032917,1.553387,-0.847264,0.051387,-0.687748,0.207106,0.424656,-15.138118,7.680394,2.243648,-0.085534,-0.157857,0.000000,0.016262,0.061752,-0.000000
2.230000,-0.820196,-0.440101,-1.417056,1.562701,0.723366,0.033452,1.545749,-0.844810,0.055743,-0.840366,0.283677,0.446408,-15.382497,7.629479,2.104015,-0.085334,-0.157162,0.000000,0.023593,0.076688,-0.000000
2.240000,-0.804492,-0.432910,-1.416718,1.578114,0.714934,0.034032,1.536572,-0.841593,0.060310,-0.995335,0.359611,0.466679,-15.608147,7.552959,1.947293,-0.085062,-0.156316,0.000000,0.030889,0.091920,-0.000000
2.250000,-0.788634,-0.425802,-1.416375,1.593428,0.706537,0.034659,1.525835,-0.837621,0.065071,-1.152462,0.434649,0.485297,-15.813866,7.450347,1.773363,-0.084717,-0.155316,0.000000,0.038128,0.107435,-0.000000
2.260000,-0.772624,-0.418779,-1.416025,1.608626,0.698184,0.035334,1.513514,-0.832898,0.070011,-1.311751,0.509065,0.502228,-15.993170,7.307609,1.578589,-0.084299,-0.154159,0.000000,0.045341,0.123239,0.000000
2.270000,-0.756462,-0.411839,-1.415668,1.623693,0.689881,0.036060,1.499594,-0.827445,0.075109,-1.472489,0.581322,0.516969,-16.150788,7.139467,1.366796,-0.083810,-0.152842,0.000000,0.052380,0.139271,-0.000000
2.280000,-0.740150,-0.404981,-1.415304,1.638612,0.681637,0.036837,1.484060,-0.821278,0.080343,-1.634693,0.651774,0.529508,-16.286167,6.947096,1.138298,-0.083252,-0.151363,0.000000,0.059282,0.155539,-0.000000
2.290000,-0.723690,-0.398206,-1.414931,1.653368,0.673458,0.037667,1.466896,-0.814416,0.085691,-1.798137,0.720187,0.539680,-16.398753,6.731669,0.893403,-0.082625,-0.149720,0.000000,0.066027,0.172023,0.000000
2.300000,-0.707084,-0.391512,-1.414550,1.667945,0.665351,0.038551,1.448093,-0.806882,0.091129,-1.962590,0.786334,0.547323,-16.487993,6.494359,0.632424,-0.081932,-0.147910,0.000000,0.072594,0.188706,0.000000
2.310000,-0.690332,-0.384898,-1.414160,1.682325,0.657323,0.039490,1.427645,-0.798702,0.096631,-2.127497,0.849620,0.552452,-16.561415,6.246046,0.351228,-0.081174,-0.145933,0.000000,0.078924,0.205535,-0.000000
2.320000,-0.673438,-0.378365,-1.413760,1.696492,0.649379,0.040484,1.405542,-0.789898,0.102168,-2.293373,0.910753,0.554496,-16.609393,5.977010,0.055112,-0.080354,-0.143785,0.000000,0.085093,0.222568,-0.000000
2.330000,-0.656403,-0.371911,-1.413350,1.710430,0.641527,0.041533,1.381777,-0.780496,0.107711,-2.459595,0.969092,0.553507,-16.630384,5.687234,-0.255068,-0.079473,-0.141466,0.000000,0.091036,0.239745,0.000000
2.340000,-0.639230,-0.365534,-1.412929,1.724122,0.633771,0.042638,1.356349,-0.770526,0.113228,-2.625885,1.024429,0.549350,-16.622842,5.376705,-0.578458,-0.078534,-0.138975,0.000000,0.096732,0.257036,0.000000
2.350000,-0.621921,-0.359235,-1.412497,1.737551,0.626118,0.043797,1.329260,-0.760018,0.118687,-2.791951,1.076556,0.541897,-16.585225,5.045407,-0.914203,-0.077539,-0.136309,0.000000,0.102160,0.274414,-0.000000
2.360000,-0.604480,-0.353011,-1.412053,1.750702,0.618572,0.045011,1.300510,-0.749001,0.124056,-2.957711,1.125714,0.531212,-16.510261,4.682043,-1.266107,-0.076491,-0.133469,0.000000,0.107342,0.291864,0.000000
2.370000,-0.586908,-0.346863,-1.411597,1.763556,0.611139,0.046278,1.270109,-0.737516,0.129299,-3.122304,1.170636,0.516749,-16.402835,4.299263,-1.628087,-0.075394,-0.130455,0.000000,0.112151,0.309305,-0.000000
2.380000,-0.569210,-0.340788,-1.411127,1.776098,0.603823,0.047597,1.238068,-0.725602,0.134379,-3.285657,1.211639,0.498622,-16.262106,3.898431,-1.998715,-0.074250,-0.127266,0.000000,0.116616,0.326720,0.000000
2.390000,-0.551388,-0.334786,-1.410645,1.788312,0.596629,0.048965,1.204401,-0.713297,0.139259,-3.447432,1.248549,0.476751,-16.087231,3.480915,-2.376568,-0.073063,-0.123903,0.000000,0.120716,0.344070,0.000000
2.400000,-0.533445,-0.328855,-1.410148,1.800181,0.589559,0.050381,1.169125,-0.700645,0.143901,-3.607285,1.281206,0.451071,-15.877367,3.048080,-2.760220,-0.071836,-0.120366,0.000000,0.124432,0.361311,-0.000000
2.410000,-0.515385,-0.322994,-1.409637,1.811689,0.582617,0.051842,1.132260,-0.687684,0.148269,-3.765076,1.309848,0.421692,-15.626223,2.591607,-3.152289,-0.070575,-0.116658,0.000000,0.127782,0.378420,0.000000
2.420000,-0.497212,-0.317202,-1.409111,1.822821,0.575806,0.053345,1.093833,-0.674463,0.152322,-3.919933,1.333433,0.388198,-15.339074,2.123735,-3.546811,-0.069282,-0.112780,0.000000,0.130660,0.395301,0.000000
2.430000,-0.478930,-0.311478,-1.408570,1.833561,0.569128,0.054887,1.053872,-0.661031,0.156020,-4.071737,1.352293,0.350754,-15.015745,1.647016,-3.941865,-0.067963,-0.108734,0.000000,0.133091,0.411928,-0.000000
2.440000,-0.460542,-0.305819,-1.408013,1.843894,0.562586,0.056464,1.012410,-0.647433,0.159324,-4.220126,1.366352,0.309365,-14.656060,1.164002,-4.335533,-0.066622,-0.104523,0.000000,0.135064,0.428250,0.000000
2.450000,-0.442054,-0.300226,-1.407440,1.853804,0.556180,0.058072,0.969482,-0.633720,0.162194,-4.364736,1.375561,0.264054,-14.259846,0.677246,-4.725892,-0.065263,-0.100151,0.000000,0.136567,0.444214,0.000000
2.460000,-0.423468,-0.294695,-1.406852,1.863279,0.549911,0.059707,0.925127,-0.619937,0.164593,-4.505390,1.379989,0.214959,-13.822165,0.186882,-5.113410,-0.063892,-0.095621,0.000000,0.137602,0.459786,0.000000
2.470000,-0.404789,-0.289227,-1.406246,1.872302,0.543781,0.061362,0.879389,-0.606136,0.166481,-4.641271,1.379412,0.161917,-13.348187,-0.301823,-5.493488,-0.062513,-0.090938,0.000000,0.138141,0.474867,0.000000
2.480000,-0.386023,-0.283819,-1.405624,1.880862,0.537789,0.063034,0.832318,-0.592365,0.167819,-4.772234,1.373968,0.105122,-12.838321,-0.786021,-5.863911,-0.061131,-0.086107,0.000000,0.138192,0.489422,-0.000000
2.490000,-0.367174,-0.278471,-1.404985,1.888944,0.531934,0.064717,0.783962,-0.578673,0.168571,-4.897920,1.363716,0.044679,-12.292975,-1.262862,-6.222468,-0.059751,-0.081133,0.000000,0.137755,0.503397,0.000000
2.500000,-0.348246,-0.273180,-1.404330,1.896537,0.526215,0.066404,0.734378,-0.565107,0.168701,-5.017976,1.348744,-0.019281,-11.712558,-1.729498,-6.566945,-0.058377,-0.076023,0.000000,0.136834,0.516734,-0.000000
2.510000,-0.329245,-0.267946,-1.403657,1.903628,0.520631,0.068089,0.683623,-0.551727,0.168174,-5.132054,1.327935,-0.086617,-11.097499,-2.151913,-6.894842,-0.057017,-0.070783,0.000000,0.135308,0.529380,-0.000000
2.520000,-0.310175,-0.262767,-1.402968,1.910206,0.515180,0.069765,0.631758,-0.538562,0.166958,-5.239811,1.304355,-0.157129,-10.448183,-2.562242,-7.204269,-0.055673,-0.065421,0.000000,0.133489,0.541278,-0.000000
2.530000,-0.291042,-0.257642,-1.402262,1.916260,0.509859,0.071425,0.578849,-0.525653,0.165021,-5.340905,1.276728,-0.230634,-9.765014,-2.961454,-7.493048,-0.054349,-0.059944,0.000000,0.131241,0.552376,-0.000000
2.540000,-0.271852,-0.252569,-1.401540,1.921780,0.504666,0.073063,0.524963,-0.513041,0.162336,-5.435000,1.245160,-0.306914,-9.048397,-3.350515,-7.759002,-0.053049,-0.054360,0.000000,0.128572,0.562619,0.000000
2.550000,-0.252609,-0.247548,-1.400801,1.926756,0.499597,0.074670,0.470173,-0.500763,0.158875,-5.521763,1.209748,-0.385730,-8.298740,-3.730394,-7.999953,-0.051779,-0.048678,0.000000,0.125488,0.571957,-0.000000
2.560000,-0.233318,-0.242577,-1.400046,1.931180,0.494649,0.076238,0.414547,-0.488847,0.154612,-5.601462,1.171588,-0.466962,-7.501375,-4.127528,-8.210183,-0.050540,-0.042908,0.000000,0.122100,0.580402,-0.000000
2.570000,-0.213987,-0.237655,-1.399276,1.935045,0.489818,0.077759,0.358171,-0.477344,0.149529,-5.672362,1.128369,-0.549996,-6.673625,-4.514296,-8.391489,-0.049338,-0.037059,0.000000,0.118168,0.587758,-0.000000
2.580000,-0.194619,-0.232780,-1.398491,1.938342,0.485101,0.079225,0.301128,-0.466293,0.143607,-5.734841,1.081343,-0.634690,-5.817741,-4.888548,-8.542126,-0.048178,-0.031142,0.000000,0.113820,0.594054,-0.000000
2.590000,-0.175222,-0.227953,-1.397692,1.941065,0.480491,0.080628,0.243503,-0.455730,0.136831,-5.788630,1.030647,-0.720730,-4.935973,-5.248133,-8.660350,-0.047063,-0.025168,0.000000,0.109069,0.599252,0.000000
2.600000,-0.155800,-0.223170,-1.396879,1.943210,0.475984,0.081959,0.185385,-0.445691,0.129189,-5.833482,0.976437,-0.807783,-4.030572,-5.590899,-8.744417,-0.045998,-0.019147,0.000000,0.103933,0.603320,-0.000000
2.610000,-0.136360,-0.218433,-1.396053,1.944772,0.471575,0.083209,0.126860,-0.436208,0.120670,-5.869566,0.919260,-0.895756,-3.093807,-5.923986,-8.786075,-0.044985,-0.013092,0.000000,0.098470,0.606269,-0.000000
2.620000,-0.116907,-0.213738,-1.395215,1.945746,0.467258,0.084370,0.068025,-0.427317,0.111273,-5.895744,0.858446,-0.983672,-2.139133,-6.234815,-8.790884,-0.044030,-0.007014,0.000000,0.092610,0.607980,-0.000000
2.630000,-0.097447,-0.209087,-1.394366,1.946131,0.463027,0.085432,0.008977,-0.419049,0.100997,-5.912300,0.794649,-1.071448,-1.170023,-6.520098,-8.757897,-0.043134,-0.000925,0.000000,0.086424,0.608485,-0.000000
2.640000,-0.077986,-0.204478,-1.393507,1.945925,0.458875,0.086387,-0.050188,-0.411433,0.089846,-5.919108,0.728140,-1.158701,-0.189950,-6.776544,-8.686167,-0.042302,0.005163,0.000000,0.079945,0.607776,-0.000000
2.650000,-0.058530,-0.199909,-1.392639,1.945128,0.454796,0.087226,-0.109372,-0.404494,0.077826,-5.916074,0.659225,-1.245039,0.797612,-7.000867,-8.574746,-0.041536,0.011238,0.000000,0.073206,0.605851,-0.000000
2.660000,-0.039085,-0.195381,-1.391763,1.943738,0.450783,0.087941,-0.168474,-0.398271,0.064945,-5.902903,0.586756,-1.330408,1.783148,-7.152282,-8.413915,-0.040840,0.017286,0.000000,0.066096,0.602690,-0.000000
2.670000,-0.019657,-0.190893,-1.390880,1.941759,0.446829,0.088522,-0.227398,-0.392764,0.051224,-5.880137,0.514619,-1.413574,2.769967,-7.269586,-8.212573,-0.040215,0.023298,0.000000,0.059014,0.598364,-0.000000
2.680000,-0.000252,-0.186445,-1.389993,1.939191,0.442925,0.088962,-0.286044,-0.387982,0.036681,-5.847508,0.441474,-1.494525,3.755337,-7.354083,-7.970847,-0.039660,0.029259,0.000000,0.051827,0.592863,-0.000000
2.690000,0.019124,-0.182035,-1.389102,1.936039,0.439066,0.089253,-0.344315,-0.383936,0.021342,-5.805045,0.367643,-1.572857,4.736523,-7.407075,-7.688864,-0.039178,0.035160,0.000000,0.044574,0.586210,-0.000000
2.700000,0.038467,-0.177663,-1.388208,1.932306,0.435244,0.089387,-0.402112,-0.380631,0.005234,-5.752801,0.293433,-1.648168,5.710793,-7.429863,-7.366751,-0.038769,0.040989,0.000000,0.037288,0.578433,0.000000
2.710000,0.057769,-0.173330,-1.387315,1.927999,0.431451,0.089355,-0.459337,-0.378055,-0.011614,-5.690679,0.220338,-1.720453,6.670809,-7.453975,-6.994659,-0.038431,0.046734,0.000000,0.030125,0.569544,0.000000
2.720000,0.077025,-0.169034,-1.386422,1.923122,0.427680,0.089152,-0.515894,-0.376224,-0.029162,-5.619219,0.145807,-1.788378,7.619007,-7.446789,-6.583913,-0.038166,0.052385,0.000000,0.022827,0.559630,-0.000000
2.730000,0.096229,-0.164776,-1.385532,1.917683,0.423924,0.088770,-0.571690,-0.375138,-0.047367,-5.538345,0.071515,-1.852007,8.553216,-7.405906,-6.135861,-0.037975,0.057931,0.000000,0.015568,0.548709,-0.000000
2.740000,0.115377,-0.160556,-1.384647,1.911691,0.420175,0.088203,-0.626630,-0.374792,-0.066186,-5.448208,-0.002190,-1.910975,9.471269,-7.328927,-5.651850,-0.037855,0.063364,0.000000,0.008386,0.536827,-0.000000
2.750000,0.134461,-0.156373,-1.383769,1.905154,0.416426,0.087444,-0.680624,-0.375179,-0.085570,-5.348981,-0.074935,-1.964929,10.370994,-7.213456,-5.133230,-0.037806,0.068672,0.000000,0.001318,0.524030,-0.000000
2.760000,0.153478,-0.152227,-1.382899,1.898082,0.412669,0.086490,-0.733583,-0.376303,-0.105471,-5.241103,-0.147875,-2.013871,11.256453,-7.017909,-4.572723,-0.037830,0.073849,0.000000,-0.005747,0.510391,0.000000
2.770000,0.172421,-0.148119,-1.382040,1.890486,0.408898,0.085334,-0.785416,-0.378129,-0.125828,-5.124208,-0.216915,-2.056666,12.118484,-6.783870,-3.981360,-0.037921,0.078885,0.000000,-0.012404,0.495910,-0.000000
2.780000,0.191286,-0.144049,-1.381193,1.882378,0.405105,0.083972,-0.836039,-0.380633,-0.146584,-4.998821,-0.283432,-2.093403,12.954155,-6.513739,-3.361544,-0.038077,0.083772,0.000000,-0.018791,0.480667,0.000000
2.790000,0.210067,-0.140017,-1.380361,1.873770,0.401283,0.082401,-0.885366,-0.383788,-0.167675,-4.865222,-0.347077,-2.123810,13.760534,-6.209915,-2.715682,-0.038295,0.088503,0.000000,-0.024876,0.464720,0.000000
2.800000,0.228760,-0.136024,-1.379546,1.864675,0.397427,0.080617,-0.933317,-0.387564,-0.189038,-4.723718,-0.407526,-2.147638,14.534689,-5.874799,-2.046177,-0.038573,0.093071,0.000000,-0.030630,0.448128,-0.000000
2.810000,0.247359,-0.132069,-1.378749,1.855108,0.393530,0.078619,-0.979811,-0.391928,-0.210608,-4.574329,-0.464596,-2.164902,15.265691,-5.507786,-1.349384,-0.038907,0.097470,0.000000,-0.036038,0.430918,-0.000000
2.820000,0.265860,-0.128153,-1.377974,1.845084,0.389586,0.076405,-1.024780,-0.396843,-0.232313,-4.418171,-0.517728,-2.174835,15.959583,-5.114648,-0.634498,-0.039293,0.101694,0.000000,-0.041052,0.413230,0.000000
2.830000,0.284259,-0.124277,-1.377222,1.834618,0.385591,0.073973,-1.068152,-0.402269,-0.254081,-4.255268,-0.566811,-2.177542,16.614415,-4.698150,0.095334,-0.039727,0.105739,0.000000,-0.045665,0.395087,0.000000
2.840000,0.302551,-0.120442,-1.376495,1.823726,0.381539,0.071323,-1.109864,-0.408165,-0.275839,-4.086019,-0.611623,-2.172889,17.228232,-4.261061,0.836968,-0.040205,0.109601,0.000000,-0.049863,0.376549,-0.000000
