time,x,y,z,vx,vy,vz,ax,ay,az,jx,jy,jz,sx,sy,sz,roll,pitch,yaw,p,q,r
0.000000,-2.786134,-2.169263,-1.479956,-0.009497,0.001672,-0.003084,0.223819,-0.363358,0.008522,-8.511234,8.957311,-0.018477,239.080861,-109.481732,-7.006965,-0.037045,-0.022831,0.000000,0.911718,0.867357,0.000000
0.010000,-2.786220,-2.169263,-1.479986,-0.007646,-0.001532,-0.003001,0.150023,-0.278942,0.007997,-6.310171,7.956536,-0.085514,201.799036,-91.012699,-6.402368,-0.028447,-0.015304,0.000000,0.810942,0.643486,0.000000
0.020000,-2.786290,-2.169291,-1.480016,-0.006429,-0.003938,-0.002926,0.096439,-0.203645,0.006831,-4.462251,7.130435,-0.146565,168.417857,-74.530132,-5.809815,-0.020769,-0.009837,0.000000,0.727229,0.455189,0.000000
0.030000,-2.786350,-2.169339,-1.480045,-0.005661,-0.005629,-0.002866,0.059727,-0.135816,0.005085,-2.929500,6.459649,-0.201752,138.730958,-59.932757,-5.229735,-0.013851,-0.006091,0.000000,0.658939,0.298864,-0.000000
0.040000,-2.786404,-2.169401,-1.480073,-0.005188,-0.006674,-0.002826,0.036918,-0.073995,0.002815,-1.676006,5.925833,-0.251203,112.531977,-47.119301,-4.662557,-0.007545,-0.003764,0.000000,0.604384,0.170985,-0.000000
0.050000,-2.786454,-2.169470,-1.480101,-0.004885,-0.007125,-0.002812,0.025389,-0.016901,0.000080,-0.667922,5.511654,-0.295048,89.614548,-35.988489,-4.108708,-0.001723,-0.002588,0.000000,0.561893,0.068164,-0.000000
0.060000,-2.786502,-2.169542,-1.480130,-0.004651,-0.007024,-0.002826,0.022848,0.036582,-0.003067,0.126536,5.200792,-0.333423,69.772308,-26.439048,-3.568616,0.003728,-0.002328,0.000000,0.529851,-0.012815,0.000000
0.070000,-2.786547,-2.169609,-1.480158,-0.004405,-0.006402,-0.002874,0.027307,0.087409,-0.006571,0.737087,4.977940,-0.366467,52.798892,-18.369704,-3.042711,0.008904,-0.002782,0.000000,0.506719,-0.074979,-0.000000
0.080000,-2.786589,-2.169668,-1.480187,-0.004087,-0.005282,-0.002959,0.037069,0.136387,-0.010379,1.191388,4.828802,-0.394326,38.487937,-11.679181,-2.531421,0.013887,-0.003775,0.000000,0.491050,-0.121153,-0.000000
0.090000,-2.786628,-2.169713,-1.480217,-0.003651,-0.003678,-0.003083,0.050700,0.184186,-0.014441,1.515033,4.740098,-0.417146,26.633078,-6.266208,-2.035173,0.018745,-0.005161,0.000000,0.481494,-0.153960,-0.000000
0.100000,-2.786662,-2.169740,-1.480249,-0.003064,-0.001600,-0.003248,0.067013,0.231349,-0.018706,1.731549,4.699557,-0.435081,17.027951,-2.029509,-1.554396,0.023533,-0.006818,0.000000,0.476801,-0.175814,-0.000000
0.110000,-2.786689,-2.169744,-1.480282,-0.002305,0.000948,-0.003457,0.085045,0.278300,-0.023127,1.862403,4.695924,-0.448287,9.466193,1.132190,-1.089519,0.028294,-0.008649,0.000000,0.475826,-0.188917,0.000000
0.120000,-2.786707,-2.169720,-1.480318,-0.001360,0.003966,-0.003711,0.104040,0.325356,-0.027656,1.926996,4.718955,-0.456925,3.741438,3.320161,-0.640969,0.033059,-0.010575,0.000000,0.477529,-0.195260,0.000000
0.130000,-2.786716,-2.169663,-1.480357,-0.000223,0.007456,-0.004011,0.123422,0.372737,-0.032251,1.942667,4.759419,-0.461162,-0.352676,4.635681,-0.209175,0.037850,-0.012539,0.000000,0.480975,-0.196621,-0.000000
0.140000,-2.786711,-2.169569,-1.480399,0.001109,0.011422,-0.004356,0.142781,0.420575,-0.036866,1.924690,4.809098,-0.461166,-3.022515,5.180021,0.205435,0.042681,-0.014499,0.000000,0.485331,-0.194565,-0.000000
0.150000,-2.786693,-2.169433,-1.480444,0.002632,0.015869,-0.004748,0.161848,0.468926,-0.041460,1.886277,4.860787,-0.457112,-4.474442,5.054457,0.602432,0.047557,-0.016427,0.000000,0.489874,-0.190442,-0.000000
0.160000,-2.786658,-2.169250,-1.480494,0.004344,0.020802,-0.005185,0.180476,0.517777,-0.045995,1.838573,4.908292,-0.449178,-4.914822,4.360261,0.981388,0.052477,-0.018309,0.000000,0.493982,-0.185391,0.000000
0.170000,-2.786605,-2.169015,-1.480548,0.006240,0.026226,-0.005667,0.198619,0.567060,-0.050432,1.790664,4.946434,-0.437546,-4.550018,3.198710,1.341876,0.057434,-0.020140,0.000000,0.497139,-0.180336,-0.000000
0.180000,-2.786533,-2.168724,-1.480607,0.008315,0.032145,-0.006193,0.216312,0.616660,-0.054734,1.749569,4.971046,-0.422403,-3.586395,1.671075,1.683466,0.062415,-0.021924,0.000000,0.498933,-0.175989,-0.000000
0.190000,-2.786438,-2.168371,-1.480672,0.010565,0.038560,-0.006761,0.233650,0.666425,-0.058869,1.720245,4.978973,-0.403941,-2.230316,-0.121369,2.005730,0.067407,-0.023671,0.000000,0.499057,-0.172851,0.000000
0.200000,-2.786321,-2.167951,-1.480743,0.012987,0.045473,-0.007370,0.250766,0.716177,-0.062803,1.705583,4.968073,-0.382354,-0.688147,-2.077347,2.308240,0.072390,-0.025394,0.000000,0.497306,-0.171212,-0.000000
0.210000,-2.786178,-2.167459,-1.480820,0.015561,0.052890,-0.008017,0.268543,0.765451,-0.066508,1.773606,4.912449,-0.358000,-0.863380,-3.469978,2.594527,0.077319,-0.027183,0.000000,0.491072,-0.177928,-0.000000
0.220000,-2.786009,-2.166891,-1.480903,0.018335,0.060790,-0.008699,0.286232,0.814379,-0.069953,1.764017,4.870620,-0.330711,-1.057439,-4.900202,2.859719,0.082207,-0.028963,0.000000,0.486291,-0.176827,0.000000
0.230000,-2.785811,-2.166242,-1.480994,0.021285,0.069176,-0.009415,0.303816,0.862816,-0.073113,1.752400,4.814402,-0.300879,-1.268876,-6.343348,3.102903,0.087040,-0.030731,0.000000,0.480119,-0.175543,-0.000000
0.240000,-2.785583,-2.165506,-1.481091,0.024411,0.078044,-0.010160,0.321273,0.910619,-0.075963,1.738587,4.743792,-0.268729,-1.496242,-7.774749,3.323165,0.091805,-0.032486,0.000000,0.472567,-0.174060,-0.000000
0.250000,-2.785322,-2.164679,-1.481197,0.027710,0.087386,-0.010933,0.338580,0.957645,-0.078481,1.722427,4.659029,-0.234495,-1.738090,-9.169734,3.519592,0.096487,-0.034226,0.000000,0.463669,-0.172365,0.000000
0.260000,-2.785028,-2.163757,-1.481310,0.031181,0.097196,-0.011729,0.355728,1.003679,-0.080645,1.705162,4.553693,-0.198265,-2.027837,-10.329165,3.687359,0.101066,-0.035951,0.000000,0.452792,-0.170584,-0.000000
0.270000,-2.784698,-2.162734,-1.481432,0.034823,0.107458,-0.012545,0.372674,1.048681,-0.082441,1.683402,4.444871,-0.160657,-2.324900,-11.424207,3.829944,0.105540,-0.037655,0.000000,0.441649,-0.168376,0.000000
0.280000,-2.784331,-2.161606,-1.481561,0.038634,0.118165,-0.013377,0.389386,1.092541,-0.083854,1.658659,4.325435,-0.121751,-2.623565,-12.451555,3.946914,0.109896,-0.039336,0.000000,0.429534,-0.165896,0.000000
0.290000,-2.783925,-2.160369,-1.481699,0.042610,0.129305,-0.014220,0.405837,1.135156,-0.084873,1.630944,4.196077,-0.081806,-2.918113,-13.407904,4.037835,0.114127,-0.040992,0.000000,0.416517,-0.163144,-0.000000
0.300000,-2.783478,-2.159019,-1.481846,0.046750,0.140864,-0.015073,0.421996,1.176432,-0.085488,1.600329,4.057524,-0.041083,-3.202828,-14.289948,4.102272,0.118224,-0.042619,0.000000,0.402675,-0.160127,0.000000
0.310000,-2.782989,-2.157551,-1.482001,0.051050,0.152829,-0.015929,0.437817,1.216260,-0.085690,1.565316,3.908803,0.000403,-3.430989,-15.050588,4.133387,0.122176,-0.044214,0.000000,0.387913,-0.156698,0.000000
0.320000,-2.782457,-2.155961,-1.482164,0.055505,0.165185,-0.016785,0.453295,1.254584,-0.085479,1.529933,3.754809,0.041782,-3.642905,-15.735677,4.137936,0.125980,-0.045776,0.000000,0.372710,-0.153254,0.000000
0.330000,-2.781879,-2.154246,-1.482336,0.060114,0.177916,-0.017637,0.468408,1.291335,-0.084854,1.492515,3.594334,0.083075,-3.837879,-16.347270,4.116268,0.129629,-0.047303,0.000000,0.356944,-0.149631,0.000000
0.340000,-2.781254,-2.152401,-1.482517,0.064872,0.191006,-0.018481,0.483139,1.326451,-0.083819,1.453234,3.428102,0.124021,-4.015214,-16.887425,4.068735,0.133117,-0.048794,0.000000,0.340684,-0.145843,0.000000
0.350000,-2.780581,-2.150424,-1.482706,0.069776,0.204439,-0.019312,0.497468,1.359880,-0.082376,1.412271,3.256817,0.164364,-4.174216,-17.358200,3.995687,0.136441,-0.050246,0.000000,0.323994,-0.141906,-0.000000
0.360000,-2.779858,-2.148312,-1.482903,0.074820,0.218198,-0.020127,0.511374,1.391571,-0.080531,1.369372,3.080964,0.204120,-4.303033,-17.756632,3.890683,0.139596,-0.051657,0.000000,0.306920,-0.137794,0.000000
0.370000,-2.779084,-2.146059,-1.483108,0.080002,0.232265,-0.020922,0.524851,1.421487,-0.078298,1.325774,2.901676,0.242401,-4.413490,-18.090413,3.761696,0.142578,-0.053028,0.000000,0.289556,-0.133626,0.000000
0.380000,-2.778257,-2.143665,-1.483321,0.085316,0.246622,-0.021692,0.537886,1.449594,-0.075688,1.281161,2.719362,0.279278,-4.506257,-18.362215,3.609909,0.145386,-0.054357,0.000000,0.271939,-0.129368,-0.000000
0.390000,-2.777377,-2.141126,-1.483542,0.090758,0.261251,-0.022434,0.550471,1.475866,-0.072717,1.235706,2.534629,0.314528,-4.582004,-18.574708,3.436503,0.148016,-0.055643,0.000000,0.254120,-0.125035,0.000000
0.400000,-2.776442,-2.138439,-1.483770,0.096324,0.276133,-0.023145,0.562598,1.500281,-0.069403,1.189575,2.348057,0.347940,-4.641401,-18.730566,3.242662,0.150468,-0.056885,0.000000,0.236145,-0.120641,-0.000000
0.410000,-2.775450,-2.135603,-1.484005,0.102009,0.291250,-0.023821,0.574261,1.522824,-0.065763,1.142909,2.160281,0.379519,-4.684603,-18.834574,3.024456,0.152739,-0.058083,0.000000,0.218073,-0.116197,0.000000
0.420000,-2.774401,-2.132614,-1.484246,0.107807,0.306583,-0.024459,0.585455,1.543484,-0.061821,1.095910,1.971631,0.408599,-4.712858,-18.887032,2.788804,0.154829,-0.059236,0.000000,0.199916,-0.111718,0.000000
0.430000,-2.773294,-2.129470,-1.484494,0.113716,0.322113,-0.025057,0.596178,1.562255,-0.057599,1.048700,1.782704,0.435243,-4.726898,-18.890351,2.537514,0.156737,-0.060344,0.000000,0.181729,-0.107215,0.000000
0.440000,-2.772127,-2.126171,-1.484747,0.119729,0.337822,-0.025610,0.606429,1.579139,-0.053124,1.001417,1.593980,0.459303,-4.727459,-18.846946,2.272394,0.158464,-0.061407,0.000000,0.163549,-0.102698,0.000000
0.450000,-2.770899,-2.122713,-1.485006,0.125843,0.353690,-0.026118,0.616207,1.594137,-0.048422,0.954193,1.405913,0.480651,-4.715271,-18.759229,1.995251,0.160008,-0.062424,0.000000,0.145411,-0.098178,-0.000000
0.460000,-2.769609,-2.119097,-1.485269,0.132052,0.369698,-0.026578,0.625514,1.607261,-0.043520,0.907199,1.219026,0.499262,-4.692270,-18.631912,1.705671,0.161372,-0.063396,0.000000,0.127359,-0.093670,0.000000
0.470000,-2.768257,-2.115319,-1.485537,0.138352,0.385829,-0.026988,0.634352,1.618523,-0.038447,0.860439,1.033510,0.514836,-4.657841,-18.464828,1.407956,0.162556,-0.064323,0.000000,0.109401,-0.089169,0.000000
0.480000,-2.766842,-2.111380,-1.485809,0.144738,0.402063,-0.027347,0.642724,1.627938,-0.033233,0.814079,0.849855,0.527401,-4.612569,-18.260107,1.104187,0.163561,-0.065203,0.000000,0.091579,-0.084691,0.000000
0.490000,-2.765362,-2.107277,-1.486084,0.151205,0.418381,-0.027653,0.650635,1.635527,-0.027909,0.768222,0.668426,0.536907,-4.557039,-18.019882,0.796443,0.164388,-0.066039,0.000000,0.073922,-0.080245,0.000000
0.500000,-2.763818,-2.103012,-1.486362,0.157749,0.434767,-0.027905,0.658091,1.641315,-0.022505,0.722970,0.489569,0.543324,-4.491839,-17.746285,0.486805,0.165040,-0.066830,0.000000,0.056460,-0.075838,0.000000
0.510000,-2.762207,-2.098582,-1.486642,0.164365,0.451202,-0.028102,0.665097,1.645329,-0.017053,0.678448,0.313666,0.546605,-4.418371,-17.442981,0.178331,0.165518,-0.067577,0.000000,0.039223,-0.071481,-0.000000
0.520000,-2.760530,-2.093988,-1.486924,0.171049,0.467668,-0.028246,0.671662,1.647599,-0.011584,0.634668,0.140875,0.546854,-4.336303,-17.110380,-0.127998,0.165825,-0.068280,0.000000,0.022226,-0.067175,0.000000
0.530000,-2.758786,-2.089229,-1.487207,0.177797,0.484148,-0.028334,0.677794,1.648158,-0.006126,0.591749,-0.028451,0.544058,-4.246122,-16.750423,-0.430221,0.165964,-0.068940,0.000000,0.005500,-0.062929,0.000000
0.540000,-2.756974,-2.084305,-1.487490,0.184604,0.500625,-0.028368,0.683500,1.647042,-0.000712,0.549771,-0.194049,0.538270,-4.148313,-16.365056,-0.726377,0.165936,-0.069556,0.000000,-0.010931,-0.058753,-0.000000
0.550000,-2.755094,-2.079216,-1.487774,0.191465,0.517083,-0.028349,0.688792,1.644290,0.004629,0.508807,-0.355674,0.529558,-4.043362,-15.956220,-1.014507,0.165746,-0.070131,0.000000,-0.027044,-0.054652,0.000000
0.560000,-2.753145,-2.073963,-1.488057,0.198378,0.533506,-0.028276,0.693680,1.639943,0.009868,0.468937,-0.513057,0.517864,-3.932035,-15.526982,-1.288900,0.165396,-0.070665,0.000000,-0.042814,-0.050633,-0.000000
0.570000,-2.751126,-2.068546,-1.488339,0.205338,0.549877,-0.028152,0.698175,1.634044,0.014978,0.430199,-0.666098,0.503651,-3.814504,-15.078025,-1.551805,0.164891,-0.071158,0.000000,-0.058225,-0.046703,0.000000
0.580000,-2.749038,-2.062966,-1.488620,0.212340,0.566182,-0.027977,0.702288,1.626637,0.019932,0.392666,-0.814558,0.486871,-3.691219,-14.611156,-1.801721,0.164233,-0.071612,0.000000,-0.073252,-0.042868,0.000000
0.590000,-2.746879,-2.057223,-1.488899,0.219382,0.582405,-0.027754,0.706032,1.617768,0.024707,0.356392,-0.958267,0.467664,-3.562632,-14.128181,-2.037146,0.163427,-0.072028,0.000000,-0.087877,-0.039135,0.000000
0.600000,-2.744650,-2.051318,-1.489175,0.226460,0.598532,-0.027484,0.709420,1.607488,0.029278,0.321429,-1.097074,0.446182,-3.429194,-13.630906,-2.256579,0.162477,-0.072406,0.000000,-0.102080,-0.035509,0.000000
0.610000,-2.742350,-2.045253,-1.489448,0.233570,0.614550,-0.027169,0.712466,1.595844,0.033621,0.287823,-1.230794,0.422370,-3.291363,-13.122382,-2.452933,0.161387,-0.072748,0.000000,-0.115842,-0.031996,0.000000
0.620000,-2.739978,-2.039027,-1.489718,0.240708,0.630445,-0.026812,0.715182,1.582889,0.037719,0.255616,-1.359429,0.396935,-3.149583,-12.603017,-2.630976,0.160162,-0.073054,0.000000,-0.129150,-0.028604,0.000000
0.630000,-2.737536,-2.032644,-1.489984,0.247872,0.646204,-0.026415,0.717583,1.568673,0.041554,0.224843,-1.482824,0.369814,-3.004305,-12.074466,-2.789891,0.158806,-0.073328,0.000000,-0.141986,-0.025337,-0.000000
0.640000,-2.735021,-2.026104,-1.490246,0.255059,0.661814,-0.025982,0.719683,1.553250,0.045110,0.195540,-1.600894,0.341204,-2.855979,-11.538381,-2.928861,0.157324,-0.073568,0.000000,-0.154336,-0.022200,-0.000000
0.650000,-2.732434,-2.019408,-1.490504,0.262265,0.677265,-0.025514,0.721498,1.536673,0.048374,0.167733,-1.713572,0.311306,-2.705055,-10.996415,-3.047068,0.155721,-0.073778,0.000000,-0.166187,-0.019199,-0.000000
0.660000,-2.729776,-2.012559,-1.490756,0.269488,0.692544,-0.025015,0.723043,1.518998,0.051330,0.141446,-1.820738,0.280087,-2.551999,-10.451989,-3.137442,0.154002,-0.073957,0.000000,-0.177524,-0.016335,0.000000
0.670000,-2.727044,-2.005558,-1.491004,0.276725,0.707641,-0.024488,0.724332,1.500277,0.053973,0.116699,-1.922523,0.248350,-2.397246,-9.904774,-3.206184,0.152172,-0.074109,0.000000,-0.188343,-0.013617,0.000000
0.680000,-2.724241,-1.998407,-1.491246,0.283974,0.722546,-0.023937,0.725382,1.480565,0.056295,0.093506,-2.018829,0.216035,-2.241242,-9.356207,-3.253243,0.150237,-0.074233,0.000000,-0.198632,-0.011046,0.000000
0.690000,-2.721365,-1.991108,-1.491483,0.291232,0.737250,-0.023364,0.726208,1.459918,0.058293,0.071877,-2.109648,0.183358,-2.084436,-8.807725,-3.278566,0.148201,-0.074333,0.000000,-0.208384,-0.008627,0.000000
0.700000,-2.718416,-1.983663,-1.491713,0.298497,0.751742,-0.022772,0.726825,1.438391,0.059962,0.051818,-2.194988,0.150536,-1.927276,-8.260766,-3.282102,0.146071,-0.074408,0.000000,-0.217593,-0.006361,0.000000
0.710000,-2.715395,-1.976074,-1.491938,0.305768,0.766015,-0.022165,0.727249,1.416038,0.061301,0.033340,-2.274778,0.117560,-1.770431,-7.719172,-3.258026,0.143851,-0.074462,0.000000,-0.226248,-0.004251,-0.000000
0.720000,-2.712301,-1.968343,-1.492157,0.313041,0.780060,-0.021547,0.727497,1.392913,0.062314,0.016418,-2.349278,0.085189,-1.614102,-7.181681,-3.212766,0.141548,-0.074495,0.000000,-0.234361,-0.002300,0.000000
0.730000,-2.709134,-1.960473,-1.492369,0.320317,0.793870,-0.020920,0.727583,1.369070,0.063007,0.001054,-2.418429,0.053373,-1.458712,-6.649435,-3.146978,0.139166,-0.074509,0.000000,-0.241924,-0.000509,0.000000
0.740000,-2.705895,-1.952467,-1.492575,0.327593,0.807439,-0.020288,0.727523,1.344562,0.063384,-0.012761,-2.482288,0.022316,-1.304682,-6.123578,-3.061316,0.136711,-0.074506,0.000000,-0.248938,0.001122,-0.000000
0.750000,-2.702582,-1.944325,-1.492775,0.334867,0.820760,-0.019653,0.727333,1.319442,0.063456,-0.025045,-2.540926,-0.007789,-1.152434,-5.605251,-2.956436,0.134189,-0.074487,0.000000,-0.255404,0.002591,-0.000000
0.760000,-2.699197,-1.936052,-1.492968,0.342139,0.833826,-0.019020,0.727028,1.293762,0.063231,-0.035798,-2.594308,-0.036925,-1.002882,-5.098476,-2.828612,0.131605,-0.074454,0.000000,-0.261318,0.003899,0.000000
0.770000,-2.695740,-1.927650,-1.493155,0.349407,0.846633,-0.018390,0.726622,1.267572,0.062722,-0.045089,-2.642798,-0.064499,-0.855895,-4.601165,-2.683416,0.128964,-0.074409,0.000000,-0.266705,0.005049,-0.000000
0.780000,-2.692209,-1.919120,-1.493336,0.356671,0.859176,-0.017766,0.726131,1.240922,0.061946,-0.052925,-2.686366,-0.090539,-0.711835,-4.114109,-2.522041,0.126272,-0.074352,0.000000,-0.271563,0.006039,-0.000000
0.790000,-2.688606,-1.910467,-1.493511,0.363930,0.871450,-0.017152,0.725568,1.213861,0.060917,-0.059337,-2.725117,-0.114890,-0.571063,-3.638097,-2.345679,0.123535,-0.074287,0.000000,-0.275900,0.006872,-0.000000
0.800000,-2.684931,-1.901692,-1.493679,0.371182,0.883452,-0.016549,0.724949,1.186436,0.059654,-0.064359,-2.759167,-0.137407,-0.433941,-3.173921,-2.155522,0.120756,-0.074215,0.000000,-0.279725,0.007551,0.000000
0.810000,-2.681183,-1.892799,-1.493842,0.378428,0.895178,-0.015959,0.724286,1.158694,0.058174,-0.068007,-2.788519,-0.158055,-0.301398,-2.725366,-1.950317,0.117942,-0.074136,0.000000,-0.283038,0.008076,0.000000
0.820000,-2.677362,-1.883790,-1.493998,0.385668,0.906625,-0.015386,0.723593,1.130680,0.056500,-0.070376,-2.813584,-0.176485,-0.173159,-2.289860,-1.734000,0.115097,-0.074052,0.000000,-0.285877,0.008455,0.000000
0.830000,-2.673469,-1.874667,-1.494149,0.392900,0.917791,-0.014830,0.722882,1.102437,0.054652,-0.071485,-2.834361,-0.192703,-0.049514,-1.867827,-1.508062,0.112226,-0.073966,0.000000,-0.288242,0.008689,-0.000000
0.840000,-2.669504,-1.865435,-1.494295,0.400125,0.928673,-0.014293,0.722167,1.074007,0.052654,-0.071382,-2.850987,-0.206619,0.069244,-1.459690,-1.273993,0.109334,-0.073878,0.000000,-0.290148,0.008782,0.000000
0.850000,-2.665467,-1.856095,-1.494435,0.407344,0.939270,-0.013777,0.721459,1.045431,0.050528,-0.070118,-2.863603,-0.218161,0.182823,-1.065873,-1.033285,0.106424,-0.073790,0.000000,-0.291610,0.008739,0.000000
0.860000,-2.661357,-1.846650,-1.494571,0.414555,0.949581,-0.013283,0.720769,1.016749,0.048298,-0.067699,-2.872249,-0.227282,0.289793,-0.689435,-0.787065,0.103503,-0.073703,0.000000,-0.292633,0.008561,0.000000
0.870000,-2.657176,-1.837104,-1.494701,0.421759,0.959605,-0.012812,0.720108,0.987998,0.045990,-0.064290,-2.877323,-0.233906,0.391141,-0.327842,-0.537233,0.100573,-0.073618,0.000000,-0.293258,0.008264,-0.000000
0.880000,-2.652922,-1.827459,-1.494827,0.428957,0.969341,-0.012363,0.719486,0.959214,0.043628,-0.059895,-2.878856,-0.238020,0.486713,0.018807,-0.285324,0.097639,-0.073537,0.000000,-0.293490,0.007848,0.000000
0.890000,-2.648597,-1.817718,-1.494948,0.436149,0.978789,-0.011939,0.718913,0.930432,0.041238,-0.054575,-2.876997,-0.239611,0.576358,0.350410,-0.032873,0.094705,-0.073461,0.000000,-0.293347,0.007319,-0.000000
0.900000,-2.644199,-1.807884,-1.495066,0.443335,0.987950,-0.011539,0.718398,0.901685,0.038845,-0.048389,-2.871898,-0.238681,0.659924,0.666866,0.218583,0.091773,-0.073390,0.000000,-0.292847,0.006684,0.000000
0.910000,-2.639730,-1.797960,-1.495179,0.450517,0.996823,-0.011162,0.717948,0.873005,0.036474,-0.041372,-2.863631,-0.235188,0.736624,0.966054,0.466001,0.088849,-0.073327,0.000000,-0.291999,0.005945,-0.000000
0.920000,-2.635189,-1.787949,-1.495289,0.457695,1.005410,-0.010809,0.717573,0.844422,0.034149,-0.033649,-2.852537,-0.229306,0.807017,1.250142,0.709539,0.085934,-0.073271,0.000000,-0.290841,0.005117,0.000000
0.930000,-2.630576,-1.777853,-1.495395,0.464869,1.013712,-0.010479,0.717278,0.815964,0.031896,-0.025253,-2.838678,-0.221015,0.871029,1.519276,0.947844,0.083033,-0.073224,0.000000,-0.289383,0.004203,-0.000000
0.940000,-2.625891,-1.767676,-1.495499,0.472040,1.021730,-0.010171,0.717070,0.787657,0.029737,-0.016250,-2.822201,-0.210372,0.928585,1.773603,1.179567,0.080148,-0.073187,0.000000,-0.287641,0.003211,0.000000
0.950000,-2.621135,-1.757419,-1.495599,0.479211,1.029466,-0.009884,0.716955,0.759528,0.027696,-0.006703,-2.803255,-0.197450,0.979611,2.013269,1.403354,0.077281,-0.073160,0.000000,-0.285635,0.002147,-0.000000
0.960000,-2.616307,-1.747087,-1.495696,0.486380,1.036921,-0.009616,0.716937,0.731600,0.025796,0.003340,-2.781936,-0.182220,1.023543,2.237219,1.614947,0.074436,-0.073144,0.000000,-0.283376,0.001015,0.000000
0.970000,-2.611408,-1.736682,-1.495791,0.493550,1.044099,-0.009367,0.717023,0.703896,0.024058,0.013767,-2.758504,-0.165055,1.060855,2.446949,1.816259,0.071614,-0.073140,0.000000,-0.280896,-0.000170,-0.000000
0.980000,-2.606436,-1.726206,-1.495884,0.500721,1.051000,-0.009135,0.717214,0.676437,0.022502,0.024535,-2.733044,-0.145933,1.091532,2.642754,2.006295,0.068819,-0.073148,0.000000,-0.278205,-0.001403,-0.000000
0.990000,-2.601393,-1.715663,-1.495974,0.507894,1.057628,-0.008917,0.717514,0.649242,0.021146,0.035576,-2.705694,-0.124970,1.115560,2.824927,2.184062,0.066051,-0.073168,0.000000,-0.275319,-0.002678,-0.000000
1.000000,-2.596278,-1.705054,-1.496062,0.515071,1.063986,-0.008711,0.717926,0.622329,0.020008,0.046824,-2.676590,-0.102296,1.132924,2.993763,2.348564,0.063313,-0.073202,0.000000,-0.272255,-0.003987,0.000000
1.010000,-2.591092,-1.694384,-1.496148,0.522253,1.070076,-0.008516,0.718452,0.595716,0.019107,0.058246,-2.645847,-0.077899,1.142742,3.149170,2.495090,0.060606,-0.073248,0.000000,-0.269027,-0.005327,0.000000
1.020000,-2.585833,-1.683654,-1.496233,0.529441,1.075901,-0.008328,0.719091,0.569417,0.018455,0.069695,-2.613632,-0.052277,1.145973,3.291875,2.626816,0.057933,-0.073308,0.000000,-0.265655,-0.006679,-0.000000
1.030000,-2.580503,-1.672867,-1.496315,0.536635,1.081465,-0.008146,0.719846,0.543448,0.018065,0.081144,-2.580051,-0.025414,1.142707,3.422219,2.743203,0.055294,-0.073382,0.000000,-0.262152,-0.008040,0.000000
1.040000,-2.575100,-1.662025,-1.496395,0.543838,1.086771,-0.007966,0.720714,0.517820,0.017950,0.092528,-2.545227,0.002534,1.133036,3.540543,2.843712,0.052690,-0.073469,0.000000,-0.258531,-0.009404,-0.000000
1.050000,-2.569626,-1.651132,-1.496474,0.551050,1.091823,-0.007786,0.721696,0.492547,0.018119,0.103784,-2.509279,0.031405,1.117051,3.647188,2.927802,0.050123,-0.073570,0.000000,-0.254806,-0.010763,-0.000000
1.060000,-2.564079,-1.640190,-1.496551,0.558272,1.096623,-0.007603,0.722789,0.467638,0.018582,0.114861,-2.472326,0.061189,1.094538,3.742628,2.991010,0.047594,-0.073685,0.000000,-0.250990,-0.012112,-0.000000
1.070000,-2.558461,-1.629201,-1.496626,0.565506,1.101177,-0.007413,0.723992,0.443103,0.019345,0.125668,-2.434469,0.091344,1.065931,3.827056,3.037201,0.045104,-0.073813,0.000000,-0.247096,-0.013438,-0.000000
1.080000,-2.552769,-1.618167,-1.496699,0.572753,1.105487,-0.007215,0.725301,0.418951,0.020410,0.136159,-2.395821,0.121876,1.031359,3.900796,3.066316,0.042653,-0.073954,0.000000,-0.243135,-0.014737,0.000000
1.090000,-2.547005,-1.607092,-1.496770,0.580013,1.109557,-0.007004,0.726714,0.395189,0.021783,0.146276,-2.356488,0.152613,0.990950,3.964174,3.078296,0.040241,-0.074108,0.000000,-0.239119,-0.016000,-0.000000
1.100000,-2.541169,-1.595977,-1.496839,0.587287,1.113392,-0.006778,0.728226,0.371823,0.023463,0.155959,-2.316571,0.183385,0.944834,4.017516,3.073082,0.037870,-0.074274,0.000000,-0.235059,-0.017223,0.000000
1.110000,-2.535260,-1.584825,-1.496906,0.594577,1.116995,-0.006534,0.729832,0.348859,0.025452,0.165167,-2.276185,0.214160,0.892812,4.061541,3.047015,0.035540,-0.074452,0.000000,-0.230965,-0.018399,0.000000
1.120000,-2.529277,-1.573638,-1.496970,0.601884,1.120370,-0.006268,0.731527,0.326301,0.027745,0.173812,-2.235389,0.244429,0.835380,4.096130,3.004077,0.033251,-0.074642,0.000000,-0.226845,-0.019517,0.000000
1.130000,-2.523222,-1.562418,-1.497031,0.609208,1.123522,-0.005978,0.733306,0.304152,0.030338,0.181857,-2.194293,0.274186,0.772705,4.121562,2.944648,0.031003,-0.074843,0.000000,-0.222709,-0.020572,0.000000
1.140000,-2.517093,-1.551168,-1.497089,0.616550,1.126455,-0.005660,0.735162,0.282416,0.033226,0.189249,-2.152988,0.303269,0.704958,4.138112,2.869110,0.028797,-0.075053,0.000000,-0.218566,-0.021559,0.000000
1.150000,-2.510891,-1.539890,-1.497144,0.623912,1.129172,-0.005312,0.737089,0.261093,0.036401,0.195940,-2.111560,0.331516,0.632305,4.146056,2.777845,0.026632,-0.075274,0.000000,-0.214425,-0.022470,-0.000000
1.160000,-2.504615,-1.528585,-1.497196,0.631292,1.131678,-0.004931,0.739078,0.240185,0.039855,0.201891,-2.070109,0.358888,0.554626,4.146040,2.668367,0.024509,-0.075503,0.000000,-0.210294,-0.023302,0.000000
1.170000,-2.498265,-1.517257,-1.497243,0.638693,1.133977,-0.004514,0.741124,0.219691,0.043575,0.207030,-2.028682,0.384963,0.472414,4.137927,2.544276,0.022426,-0.075740,0.000000,-0.206178,-0.024045,-0.000000
1.180000,-2.491841,-1.505906,-1.497286,0.646115,1.136073,-0.004059,0.743216,0.199611,0.047549,0.211325,-1.987376,0.409727,0.385875,4.121950,2.406303,0.020385,-0.075984,0.000000,-0.202085,-0.024694,0.000000
1.190000,-2.485343,-1.494536,-1.497324,0.653558,1.137971,-0.003563,0.745347,0.179942,0.051765,0.214734,-1.946269,0.433045,0.295212,4.098339,2.255182,0.018384,-0.076233,0.000000,-0.198022,-0.025243,-0.000000
1.200000,-2.478770,-1.483147,-1.497357,0.661022,1.139673,-0.003023,0.747508,0.160684,0.056205,0.217216,-1.905434,0.454789,0.200631,4.067327,2.091645,0.016424,-0.076488,0.000000,-0.193996,-0.025689,-0.000000
1.210000,-2.472122,-1.471743,-1.497384,0.668508,1.141186,-0.002438,0.749688,0.141833,0.060856,0.218745,-1.864951,0.474913,0.102043,4.029268,1.914550,0.014504,-0.076747,0.000000,-0.190013,-0.026027,-0.000000
1.220000,-2.465399,-1.460324,-1.497405,0.676016,1.142511,-0.001805,0.751879,0.123384,0.065697,0.219258,-1.824878,0.493128,-0.000020,3.984256,1.726732,0.012624,-0.077008,0.000000,-0.186078,-0.026248,-0.000000
1.230000,-2.458602,-1.448893,-1.497420,0.683546,1.143655,-0.001123,0.754070,0.105333,0.070712,0.218734,-1.785288,0.509415,-0.105318,3.932508,1.529156,0.010783,-0.077271,0.000000,-0.182198,-0.026349,0.000000
1.240000,-2.451728,-1.437452,-1.497428,0.691097,1.144619,-0.000391,0.756250,0.087676,0.075879,0.217142,-1.746249,0.523682,-0.213610,3.874240,1.322784,0.008980,-0.077535,0.000000,-0.178377,-0.026327,0.000000
1.250000,-2.444780,-1.426002,-1.497428,0.698671,1.145409,0.000395,0.758409,0.070406,0.081178,0.214453,-1.707824,0.535845,-0.324658,3.809671,1.108576,0.007215,-0.077798,0.000000,-0.174620,-0.026177,0.000000
1.260000,-2.437755,-1.414544,-1.497420,0.706265,1.146029,0.001233,0.760536,0.053518,0.086589,0.210653,-1.670065,0.545861,-0.438541,3.738745,0.886723,0.005487,-0.078058,0.000000,-0.170932,-0.025897,-0.000000
1.270000,-2.430654,-1.403082,-1.497403,0.713881,1.146481,0.002127,0.762619,0.037003,0.092088,0.205689,-1.633057,0.553595,-0.554660,3.661983,0.659055,0.003796,-0.078315,0.000000,-0.167320,-0.025479,0.000000
1.280000,-2.423477,-1.391615,-1.497377,0.721518,1.146770,0.003075,0.764646,0.020854,0.097653,0.199553,-1.596844,0.559027,-0.672736,3.579636,0.426627,0.002141,-0.078567,0.000000,-0.163787,-0.024923,-0.000000
1.290000,-2.416224,-1.380147,-1.497341,0.729174,1.146899,0.004080,0.766606,0.005063,0.103261,0.192229,-1.561482,0.562115,-0.792490,3.491953,0.190498,0.000520,-0.078813,0.000000,-0.160337,-0.024226,0.000000
1.300000,-2.408894,-1.368678,-1.497295,0.736849,1.146872,0.005141,0.768486,-0.010379,0.108887,0.183699,-1.527022,0.562828,-0.913642,3.399185,-0.048276,-0.001067,-0.079051,0.000000,-0.156975,-0.023385,0.000000
1.310000,-2.401487,-1.357210,-1.497238,0.744543,1.146693,0.006258,0.770276,-0.025481,0.114509,0.173962,-1.493498,0.561132,-1.036172,3.301157,-0.288348,-0.002620,-0.079280,0.000000,-0.153702,-0.022399,0.000000
1.320000,-2.394003,-1.345744,-1.497170,0.752255,1.146364,0.007431,0.771961,-0.040252,0.120102,0.162984,-1.460995,0.557046,-1.159510,3.198595,-0.528987,-0.004141,-0.079499,0.000000,-0.150527,-0.021265,0.000000
1.330000,-2.386442,-1.334283,-1.497089,0.759982,1.145889,0.008660,0.773531,-0.054704,0.125642,0.150770,-1.429540,0.550554,-1.283345,3.091803,-0.769172,-0.005631,-0.079705,0.000000,-0.147451,-0.019981,0.000000
1.340000,-2.378803,-1.322827,-1.496996,0.767725,1.145271,0.009943,0.774973,-0.068847,0.131105,0.137317,-1.399172,0.541667,-1.407367,2.981080,-1.007881,-0.007090,-0.079898,0.000000,-0.144477,-0.018549,0.000000
1.350000,-2.371087,-1.311378,-1.496890,0.775481,1.144513,0.011281,0.776273,-0.082691,0.136467,0.122623,-1.369930,0.530405,-1.531265,2.866730,-1.244094,-0.008521,-0.080076,0.000000,-0.141608,-0.016966,-0.000000
1.360000,-2.363293,-1.299937,-1.496771,0.783250,1.143618,0.012672,0.777421,-0.096249,0.141705,0.106695,-1.341826,0.516749,-1.654773,2.748493,-1.475578,-0.009923,-0.080237,0.000000,-0.138844,-0.015234,0.000000
1.370000,-2.355422,-1.288506,-1.496637,0.791029,1.142589,0.014115,0.778403,-0.109532,0.146795,0.089533,-1.314945,0.500854,-1.777530,2.627301,-1.702672,-0.011298,-0.080380,0.000000,-0.136194,-0.013353,-0.000000
1.380000,-2.347473,-1.277086,-1.496488,0.798817,1.141428,0.015608,0.779208,-0.122552,0.151715,0.071148,-1.289289,0.482713,-1.899218,2.503524,-1.924502,-0.012647,-0.080503,0.000000,-0.133657,-0.011324,0.000000
1.390000,-2.339446,-1.265678,-1.496324,0.806612,1.140139,0.017149,0.779822,-0.135322,0.156442,0.051553,-1.264882,0.462384,-2.019521,2.377535,-2.140196,-0.013971,-0.080606,0.000000,-0.131235,-0.009149,-0.000000
1.400000,-2.331341,-1.254284,-1.496145,0.814413,1.138723,0.018736,0.780235,-0.147854,0.160955,0.030763,-1.241744,0.439933,-2.138122,2.249703,-2.348881,-0.015272,-0.080686,0.000000,-0.128930,-0.006829,-0.000000
1.410000,-2.323157,-1.242904,-1.495950,0.822216,1.137182,0.020367,0.780434,-0.160161,0.165233,0.008802,-1.219870,0.415358,-2.254825,2.119815,-2.547796,-0.016550,-0.080742,0.000000,-0.126740,-0.004368,-0.000000
1.420000,-2.314896,-1.231540,-1.495738,0.830021,1.135520,0.022040,0.780407,-0.172255,0.169256,-0.014320,-1.199326,0.388921,-2.369179,1.988898,-2.738187,-0.017807,-0.080773,0.000000,-0.124673,-0.001768,-0.000000
1.430000,-2.306557,-1.220194,-1.495509,0.837824,1.133738,0.023751,0.780143,-0.184151,0.173005,-0.038573,-1.180094,0.360625,-2.480852,1.857394,-2.919413,-0.019044,-0.080777,0.000000,-0.122725,0.000967,0.000000
1.440000,-2.298140,-1.208866,-1.495262,0.845623,1.131838,0.025499,0.779632,-0.195862,0.176462,-0.063927,-1.162178,0.330565,-2.589514,1.725746,-3.090833,-0.020262,-0.080753,0.000000,-0.120898,0.003833,0.000000
1.450000,-2.289645,-1.197558,-1.494999,0.853416,1.129821,0.027279,0.778861,-0.207399,0.179611,-0.090352,-1.145578,0.298843,-2.694832,1.594395,-3.251804,-0.021463,-0.080700,0.000000,-0.119190,0.006826,0.000000
1.460000,-2.281072,-1.186270,-1.494717,0.861199,1.127690,0.029090,0.777821,-0.218777,0.182433,-0.117809,-1.130279,0.265477,-2.796535,1.463559,-3.399430,-0.022646,-0.080616,0.000000,-0.117601,0.009941,0.000000
1.470000,-2.272421,-1.175004,-1.494417,0.868971,1.125446,0.030927,0.776502,-0.230009,0.184916,-0.146267,-1.116293,0.230792,-2.894225,1.333934,-3.535600,-0.023815,-0.080500,0.000000,-0.116132,0.013172,0.000000
1.480000,-2.263692,-1.163761,-1.494098,0.876728,1.123091,0.032787,0.774893,-0.241108,0.187045,-0.175679,-1.103595,0.194804,-2.987565,1.205988,-3.659950,-0.024969,-0.080352,0.000000,-0.114781,0.016514,-0.000000
1.490000,-2.254886,-1.152543,-1.493761,0.884468,1.120624,0.034667,0.772985,-0.252085,0.188808,-0.206002,-1.092166,0.157634,-3.076216,1.080192,-3.772112,-0.026111,-0.080170,0.000000,-0.113544,0.019959,0.000000
1.500000,-2.246003,-1.141349,-1.493405,0.892187,1.118049,0.036562,0.770770,-0.262955,0.190194,-0.237187,-1.081982,0.119404,-3.159840,0.957015,-3.871723,-0.027241,-0.079952,0.000000,-0.112421,0.023502,-0.000000
1.510000,-2.237043,-1.130182,-1.493030,0.899882,1.115366,0.038469,0.768238,-0.273729,0.191192,-0.269211,-1.073023,0.080151,-3.237345,0.837129,-3.956108,-0.028360,-0.079699,0.000000,-0.111409,0.027138,0.000000
1.520000,-2.228005,-1.119042,-1.492635,0.907551,1.112575,0.040384,0.765383,-0.284419,0.191794,-0.301949,-1.065237,0.040222,-3.309239,0.720778,-4.027493,-0.029469,-0.079409,0.000000,-0.110503,0.030852,-0.000000
1.530000,-2.218892,-1.107931,-1.492222,0.915189,1.109678,0.042304,0.762197,-0.295038,0.191994,-0.335376,-1.058594,-0.000355,-3.375275,0.608406,-4.085794,-0.030570,-0.079082,0.000000,-0.109700,0.034639,0.000000
1.540000,-2.209702,-1.096849,-1.491789,0.922793,1.106674,0.044223,0.758674,-0.305595,0.191785,-0.369434,-1.053054,-0.041450,-3.435208,0.500459,-4.130928,-0.031664,-0.078716,0.000000,-0.108997,0.038491,0.000000
1.550000,-2.200436,-1.085798,-1.491337,0.930361,1.103566,0.046138,0.754807,-0.316102,0.191164,-0.404059,-1.048569,-0.082930,-3.488791,0.397381,-4.162812,-0.032750,-0.078311,0.000000,-0.108388,0.042400,-0.000000
1.560000,-2.191095,-1.074778,-1.490867,0.937888,1.100352,0.048045,0.750590,-0.326570,0.190125,-0.439211,-1.045113,-0.124744,-3.535196,0.300246,-4.179281,-0.033832,-0.077867,0.000000,-0.107872,0.046359,0.000000
1.570000,-2.181678,-1.063791,-1.490377,0.945372,1.097035,0.049939,0.746021,-0.337008,0.188669,-0.474767,-1.042573,-0.166564,-3.574832,0.208793,-4.182588,-0.034908,-0.077383,0.000000,-0.107437,0.050354,-0.000000
1.580000,-2.172187,-1.052838,-1.489868,0.952808,1.093612,0.051817,0.741094,-0.347424,0.186794,-0.510684,-1.040917,-0.208353,-3.607522,0.123392,-4.172907,-0.035981,-0.076859,0.000000,-0.107081,0.054377,0.000000
1.590000,-2.162622,-1.041919,-1.489340,0.960192,1.090086,0.053674,0.735806,-0.357829,0.184502,-0.546893,-1.040084,-0.249980,-3.633094,0.044410,-4.150409,-0.037050,-0.076295,0.000000,-0.106797,0.058421,0.000000
1.600000,-2.152984,-1.031036,-1.488794,0.967523,1.086456,0.055505,0.730155,-0.368229,0.181795,-0.583322,-1.040006,-0.291319,-3.651372,-0.027784,-4.115266,-0.038117,-0.075690,0.000000,-0.106579,0.062474,0.000000
1.610000,-2.143272,-1.020190,-1.488230,0.974794,1.082722,0.057308,0.724139,-0.378632,0.178676,-0.619914,-1.040656,-0.332309,-3.661725,-0.091804,-4.066004,-0.039182,-0.075045,0.000000,-0.106425,0.066531,-0.000000
1.620000,-2.133488,-1.009382,-1.487648,0.982004,1.078883,0.059078,0.717757,-0.389044,0.175151,-0.656552,-1.041863,-0.372672,-3.664492,-0.148426,-4.004642,-0.040245,-0.074359,0.000000,-0.106318,0.070576,-0.000000
1.630000,-2.123632,-0.998613,-1.487049,0.989148,1.074941,0.060810,0.711008,-0.399471,0.171225,-0.693178,-1.043599,-0.412362,-3.659553,-0.197404,-3.931553,-0.041308,-0.073632,0.000000,-0.106255,0.074601,-0.000000
1.640000,-2.113705,-0.987884,-1.486432,0.996223,1.070894,0.062501,0.703894,-0.409917,0.166906,-0.729717,-1.045785,-0.451265,-3.646790,-0.238495,-3.847112,-0.042371,-0.072865,0.000000,-0.106230,0.078599,0.000000
1.650000,-2.103708,-0.977196,-1.485799,1.003225,1.066742,0.064147,0.696414,-0.420388,0.162203,-0.766088,-1.048342,-0.489268,-3.626085,-0.271457,-3.751692,-0.043433,-0.072059,0.000000,-0.106234,0.082558,0.000000
1.660000,-2.093641,-0.966549,-1.485150,1.010150,1.062486,0.065744,0.688572,-0.430886,0.157124,-0.802247,-1.051239,-0.526307,-3.596407,-0.294703,-3.644579,-0.044496,-0.071213,0.000000,-0.106265,0.086473,0.000000
1.670000,-2.083505,-0.955946,-1.484484,1.016995,1.058124,0.067288,0.680371,-0.441413,0.151680,-0.838029,-1.054267,-0.562175,-3.558661,-0.309496,-3.527366,-0.045558,-0.070328,0.000000,-0.106302,0.090325,0.000000
1.680000,-2.073301,-0.945387,-1.483804,1.023756,1.053657,0.068776,0.671813,-0.451971,0.145884,-0.873394,-1.057401,-0.596822,-3.512840,-0.315757,-3.400561,-0.046622,-0.069405,0.000000,-0.106345,0.094110,0.000000
1.690000,-2.063030,-0.934873,-1.483109,1.030430,1.049085,0.070205,0.662904,-0.462561,0.139748,-0.908259,-1.060554,-0.630155,-3.458936,-0.313405,-3.264670,-0.047685,-0.068444,0.000000,-0.106383,0.097819,0.000000
1.700000,-2.052693,-0.924406,-1.482400,1.037013,1.044406,0.071570,0.653650,-0.473182,0.133286,-0.942545,-1.063640,-0.662087,-3.396943,-0.302361,-3.120201,-0.048749,-0.067446,0.000000,-0.106411,0.101441,-0.000000
1.710000,-2.042290,-0.913986,-1.481678,1.043502,1.039621,0.072869,0.644055,-0.483834,0.126511,-0.976201,-1.066630,-0.692553,-3.326103,-0.281080,-2.967140,-0.049813,-0.066413,0.000000,-0.106425,0.104972,0.000000
1.720000,-2.031823,-0.903614,-1.480943,1.049893,1.034729,0.074099,0.634128,-0.494514,0.119440,-1.009074,-1.069298,-0.721428,-3.247251,-0.251127,-2.806578,-0.050878,-0.065345,0.000000,-0.106404,0.108396,0.000000
1.730000,-2.021293,-0.893291,-1.480196,1.056184,1.029731,0.075257,0.623877,-0.505219,0.112088,-1.041120,-1.071624,-0.748662,-3.160473,-0.212604,-2.639083,-0.051941,-0.064242,0.000000,-0.106346,0.111707,0.000000
1.740000,-2.010700,-0.883020,-1.479438,1.062370,1.024625,0.076340,0.613309,-0.515945,0.104473,-1.072258,-1.073522,-0.774188,-3.065852,-0.165610,-2.465226,-0.053004,-0.063108,0.000000,-0.106244,0.114899,0.000000
1.750000,-2.000046,-0.872799,-1.478670,1.068449,1.019412,0.077346,0.602435,-0.526688,0.096610,-1.102411,-1.074908,-0.797947,-2.963474,-0.110246,-2.285578,-0.054066,-0.061942,0.000000,-0.106090,0.117962,-0.000000
1.760000,-1.989331,-0.862632,-1.477891,1.074418,1.014091,0.078272,0.591264,-0.537442,0.088520,-1.131529,-1.075756,-0.819883,-2.852742,-0.045185,-2.100686,-0.055126,-0.060746,0.000000,-0.105884,0.120892,0.000000
1.770000,-1.978558,-0.852518,-1.477104,1.080273,1.008663,0.079115,0.579808,-0.548200,0.080219,-1.159471,-1.075849,-0.839946,-2.734506,0.027872,-1.911146,-0.056184,-0.059521,0.000000,-0.105603,0.123676,-0.000000
1.780000,-1.967726,-0.842459,-1.476309,1.086013,1.003127,0.079875,0.568079,-0.558956,0.071727,-1.186194,-1.075173,-0.858092,-2.608934,0.108648,-1.717530,-0.057238,-0.058269,0.000000,-0.105248,0.126310,-0.000000
1.790000,-1.956838,-0.832456,-1.475507,1.091634,0.997484,0.080549,0.556088,-0.569701,0.063064,-1.211626,-1.073651,-0.874285,-2.476195,0.196869,-1.520409,-0.058288,-0.056991,0.000000,-0.104812,0.128787,0.000000
1.800000,-1.945894,-0.822509,-1.474699,1.097134,0.991733,0.081136,0.543851,-0.580426,0.054248,-1.235695,-1.071211,-0.888491,-2.336457,0.292259,-1.320358,-0.059334,-0.055689,0.000000,-0.104290,0.131101,0.000000
1.810000,-1.934896,-0.812621,-1.473885,1.102510,0.985875,0.081634,0.531379,-0.591123,0.045301,-1.258355,-1.067831,-0.900671,-2.189314,0.395764,-1.118293,-0.060374,-0.054365,0.000000,-0.103680,0.133249,0.000000
1.820000,-1.923844,-0.802792,-1.473066,1.107761,0.979911,0.082042,0.518689,-0.601779,0.036241,-1.279485,-1.063329,-0.910835,-2.035580,0.505739,-0.914400,-0.061407,-0.053020,0.000000,-0.102964,0.135219,-0.000000
1.830000,-1.912741,-0.793023,-1.472244,1.112883,0.973840,0.082358,0.505795,-0.612385,0.027091,-1.299045,-1.057696,-0.918954,-1.875493,0.621760,-0.709210,-0.062433,-0.051656,0.000000,-0.102145,0.137009,-0.000000
1.840000,-1.901587,-0.783316,-1.471419,1.117876,0.967663,0.082583,0.492713,-0.622929,0.017869,-1.316974,-1.050875,-0.925017,-1.709292,0.743401,-0.503254,-0.063450,-0.050275,0.000000,-0.101216,0.138615,0.000000
1.850000,-1.890384,-0.773671,-1.470593,1.122737,0.961382,0.082716,0.479461,-0.633399,0.008597,-1.333212,-1.042811,-0.929018,-1.537216,0.870238,-0.297062,-0.064457,-0.048879,0.000000,-0.100175,0.140032,0.000000
1.860000,-1.879133,-0.764089,-1.469765,1.127465,0.954996,0.082755,0.466054,-0.643782,-0.000704,-1.347717,-1.033493,-0.930937,-1.359063,1.002816,-0.091717,-0.065453,-0.047469,0.000000,-0.099020,0.141257,0.000000
1.870000,-1.867835,-0.754571,-1.468938,1.132058,0.948506,0.082702,0.452512,-0.654064,-0.010015,-1.360395,-1.022784,-0.930831,-1.175568,1.139623,0.112871,-0.066437,-0.046048,0.000000,-0.097740,0.142283,-0.000000
1.880000,-1.856492,-0.745119,-1.468112,1.136514,0.941915,0.082555,0.438853,-0.664233,-0.019314,-1.371212,-1.010688,-0.928684,-0.987021,1.280115,0.316237,-0.067407,-0.044618,0.000000,-0.096336,0.143109,0.000000
1.890000,-1.845105,-0.735733,-1.467287,1.140834,0.935222,0.082315,0.425095,-0.674273,-0.028582,-1.380119,-0.997171,-0.924512,-0.793717,1.423749,0.517921,-0.068363,-0.043180,0.000000,-0.094806,0.143731,-0.000000
1.900000,-1.833676,-0.726415,-1.466466,1.145016,0.928430,0.081983,0.411257,-0.684171,-0.037797,-1.387071,-0.982204,-0.918333,-0.595948,1.569983,0.717457,-0.069303,-0.041737,0.000000,-0.093149,0.144146,-0.000000
1.910000,-1.822205,-0.717165,-1.465648,1.149059,0.921539,0.081560,0.397360,-0.693912,-0.046941,-1.392038,-0.965784,-0.910147,-0.393673,1.718763,0.913767,-0.070226,-0.040291,0.000000,-0.091364,0.144355,-0.000000
1.920000,-1.810695,-0.707984,-1.464835,1.152963,0.914552,0.081045,0.383423,-0.703482,-0.055994,-1.394947,-0.947846,-0.900040,-0.187559,1.868995,1.107079,-0.071130,-0.038844,0.000000,-0.089446,0.144350,0.000000
1.930000,-1.799147,-0.698874,-1.464027,1.156728,0.907470,0.080440,0.369468,-0.712864,-0.064936,-1.395777,-0.928401,-0.888016,0.022061,2.020078,1.297007,-0.072014,-0.037397,0.000000,-0.087398,0.144133,-0.000000
1.940000,-1.787561,-0.689835,-1.463226,1.160352,0.900296,0.079747,0.355514,-0.722045,-0.073748,-1.394495,-0.907444,-0.874112,0.234852,2.171406,1.483164,-0.072877,-0.035954,0.000000,-0.085220,0.143702,0.000000
1.950000,-1.775940,-0.680868,-1.462433,1.163838,0.893030,0.078966,0.341585,-0.731008,-0.082412,-1.391071,-0.884974,-0.858367,0.450481,2.322378,1.665162,-0.073718,-0.034516,0.000000,-0.082912,0.143056,0.000000
1.960000,-1.764285,-0.671975,-1.461647,1.167184,0.885676,0.078099,0.327700,-0.739739,-0.090909,-1.385485,-0.860994,-0.840801,0.668822,2.472253,1.842034,-0.074535,-0.033086,0.000000,-0.080476,0.142194,-0.000000
1.970000,-1.752597,-0.663155,-1.460871,1.170392,0.878236,0.077148,0.313882,-0.748223,-0.099222,-1.377696,-0.835528,-0.821517,0.889310,2.620582,2.014043,-0.075327,-0.031665,0.000000,-0.077914,0.141114,-0.000000
1.980000,-1.740877,-0.654410,-1.460105,1.173462,0.870713,0.076115,0.300154,-0.756445,-0.107334,-1.367693,-0.808590,-0.800538,1.111584,2.766778,2.180873,-0.076093,-0.030256,0.000000,-0.075228,0.139818,0.000000
1.990000,-1.729128,-0.645741,-1.459349,1.176396,0.863108,0.075002,0.286536,-0.764390,-0.115227,-1.355460,-0.780202,-0.777917,1.335286,2.910254,2.342208,-0.076831,-0.028861,0.000000,-0.072421,0.138305,0.000000
2.000000,-1.717350,-0.637148,-1.458605,1.179193,0.855426,0.073811,0.273052,-0.772044,-0.122887,-1.340984,-0.750396,-0.753713,1.560057,3.050424,2.497730,-0.077541,-0.027483,0.000000,-0.069495,0.136575,-0.000000
2.010000,-1.705544,-0.628633,-1.457873,1.181857,0.847668,0.072545,0.259724,-0.779393,-0.130296,-1.324256,-0.719186,-0.727964,1.785532,3.186187,2.646630,-0.078221,-0.026122,0.000000,-0.066454,0.134629,-0.000000
2.020000,-1.693713,-0.620195,-1.457154,1.184389,0.839839,0.071206,0.246574,-0.786424,-0.137441,-1.305272,-0.686664,-0.700780,2.011358,3.317533,2.789146,-0.078870,-0.024783,0.000000,-0.063305,0.132468,0.000000
2.030000,-1.681857,-0.611836,-1.456449,1.186789,0.831941,0.069797,0.233626,-0.793122,-0.144307,-1.284029,-0.652852,-0.672203,2.237179,3.443939,2.925020,-0.079487,-0.023466,0.000000,-0.060051,0.130093,0.000000
2.040000,-1.669978,-0.603557,-1.455758,1.189062,0.823978,0.068321,0.220901,-0.799476,-0.150881,-1.260529,-0.617803,-0.642302,2.462637,3.564881,3.053997,-0.080070,-0.022173,0.000000,-0.056696,0.127505,0.000000
2.050000,-1.658076,-0.595357,-1.455083,1.191208,0.815953,0.066781,0.208423,-0.805474,-0.157149,-1.234778,-0.581574,-0.611147,2.687374,3.679836,3.175820,-0.080620,-0.020908,0.000000,-0.053246,0.124706,-0.000000
2.060000,-1.646154,-0.587238,-1.454423,1.193231,0.807869,0.065179,0.196213,-0.811104,-0.163100,-1.206789,-0.544204,-0.578794,2.911130,3.787681,3.289813,-0.081135,-0.019672,0.000000,-0.049704,0.121697,-0.000000
2.070000,-1.634212,-0.579200,-1.453779,1.195133,0.799732,0.063520,0.184295,-0.816355,-0.168721,-1.176565,-0.505817,-0.545357,3.133437,3.888565,3.396191,-0.081614,-0.018467,0.000000,-0.046082,0.118481,-0.000000
2.080000,-1.622252,-0.571243,-1.453153,1.196918,0.791544,0.061806,0.172689,-0.821217,-0.174003,-1.144127,-0.466458,-0.510896,3.353924,3.982036,3.494750,-0.082056,-0.017295,0.000000,-0.042383,0.115058,0.000000
2.090000,-1.610274,-0.563369,-1.452544,1.198588,0.783309,0.060041,0.161419,-0.825681,-0.178936,-1.109494,-0.426203,-0.475489,3.572222,4.067644,3.585287,-0.082461,-0.016158,0.000000,-0.038613,0.111432,0.000000
2.100000,-1.598280,-0.555577,-1.451952,1.200148,0.775031,0.058228,0.150507,-0.829738,-0.183510,-1.072691,-0.385133,-0.439218,3.787959,4.144939,3.667595,-0.082828,-0.015059,0.000000,-0.034781,0.107606,0.000000
2.110000,-1.586272,-0.547869,-1.451379,1.201600,0.766715,0.056372,0.139971,-0.833378,-0.187718,-1.033897,-0.343045,-0.402150,4.004611,4.206182,3.741081,-0.083156,-0.013999,0.000000,-0.030863,0.103597,-0.000000
2.120000,-1.574249,-0.540243,-1.450825,1.202948,0.758365,0.054475,0.129836,-0.836597,-0.191551,-0.992783,-0.300711,-0.364407,4.217492,4.259103,3.805979,-0.083445,-0.012981,0.000000,-0.026936,0.099372,0.000000
2.130000,-1.562213,-0.532701,-1.450290,1.204198,0.749985,0.052542,0.120122,-0.839391,-0.195004,-0.949562,-0.257889,-0.326059,4.425761,4.304143,3.862131,-0.083695,-0.012006,0.000000,-0.022974,0.094953,0.000000
2.140000,-1.550165,-0.525244,-1.449774,1.205352,0.741579,0.050577,0.110851,-0.841754,-0.198070,-0.904286,-0.214653,-0.287194,4.628577,4.341745,3.909381,-0.083905,-0.011076,0.000000,-0.018983,0.090343,-0.000000
2.150000,-1.538106,-0.517870,-1.449278,1.206416,0.733151,0.048582,0.102043,-0.843683,-0.200746,-0.857012,-0.171077,-0.247902,4.825099,4.372350,3.947572,-0.084075,-0.010193,0.000000,-0.014969,0.085549,-0.000000
2.160000,-1.526037,-0.510581,-1.448803,1.207395,0.724707,0.046563,0.093721,-0.845179,-0.203027,-0.807500,-0.127626,-0.208252,5.006723,4.406448,3.976012,-0.084205,-0.009360,0.000000,-0.010976,0.080546,-0.000000
2.170000,-1.513959,-0.503376,-1.448347,1.208292,0.716249,0.044523,0.085899,-0.846234,-0.204910,-0.756554,-0.083421,-0.168389,5.181321,4.433203,3.995146,-0.084294,-0.008577,0.000000,-0.006914,0.075413,0.000000
2.180000,-1.501871,-0.496256,-1.447912,1.209114,0.707783,0.042466,0.078596,-0.846846,-0.206394,-0.703897,-0.038989,-0.128381,5.349003,4.451825,4.004883,-0.084343,-0.007847,0.000000,-0.002835,0.070121,-0.000000
2.190000,-1.489776,-0.489220,-1.447498,1.209866,0.699314,0.040396,0.071827,-0.847013,-0.207478,-0.649597,0.005585,-0.088323,5.509880,4.461526,4.005131,-0.084351,-0.007170,0.000000,0.001255,0.064675,-0.000000
2.200000,-1.477674,-0.482269,-1.447104,1.210553,0.690845,0.038318,0.065609,-0.846734,-0.208161,-0.593721,0.050209,-0.048310,5.664061,4.461517,3.995800,-0.084318,-0.006549,0.000000,0.005348,0.059083,-0.000000
2.210000,-1.465566,-0.475403,-1.446731,1.211180,0.682380,0.036234,0.059956,-0.846007,-0.208444,-0.536461,0.094980,-0.008412,5.814789,4.445978,3.976122,-0.084244,-0.005984,0.000000,0.009457,0.053361,0.000000
2.220000,-1.453451,-0.468622,-1.446380,1.211754,0.673926,0.034150,0.054885,-0.844836,-0.208330,-0.477588,0.139318,0.031210,5.958656,4.419768,3.946765,-0.084129,-0.005478,0.000000,0.013525,0.047484,0.000000
2.230000,-1.441331,-0.461925,-1.446048,1.212280,0.665485,0.032069,0.050409,-0.843222,-0.207821,-0.417312,0.183339,0.070491,6.095389,4.382715,3.907721,-0.083973,-0.005032,0.000000,0.017567,0.041474,-0.000000
2.240000,-1.429205,-0.455312,-1.445738,1.212764,0.657063,0.029995,0.046543,-0.841170,-0.206922,-0.355705,0.226935,0.109333,6.224714,4.334645,3.858983,-0.083777,-0.004646,0.000000,0.021572,0.035335,0.000000
2.250000,-1.417076,-0.448783,-1.445449,1.213213,0.648663,0.027932,0.043299,-0.838685,-0.205636,-0.292843,0.269995,0.147638,6.346357,4.275386,3.800542,-0.083542,-0.004323,0.000000,0.025533,0.029073,0.000000
2.260000,-1.404941,-0.442339,-1.445179,1.213632,0.640290,0.025884,0.040687,-0.835768,-0.203971,-0.229049,0.312850,0.185348,6.466228,4.193523,3.731445,-0.083267,-0.004063,0.000000,0.029483,0.022718,0.000000
2.270000,-1.392803,-0.435977,-1.444931,1.214029,0.631949,0.023854,0.038722,-0.832431,-0.201932,-0.163825,0.354333,0.222277,6.577112,4.101503,3.652746,-0.082952,-0.003868,0.000000,0.033309,0.016221,0.000000
2.280000,-1.380661,-0.429700,-1.444702,1.214409,0.623643,0.021846,0.037414,-0.828684,-0.199528,-0.097541,0.394850,0.258372,6.677978,4.000530,3.564550,-0.082601,-0.003738,0.000000,0.037053,0.009615,0.000000
2.290000,-1.368515,-0.423504,-1.444494,1.214779,0.615377,0.019864,0.036774,-0.824537,-0.196767,-0.030302,0.434318,0.293537,6.767794,3.891807,3.466966,-0.082212,-0.003675,0.000000,0.040708,0.002910,0.000000
2.300000,-1.356365,-0.417392,-1.444305,1.215147,0.607154,0.017912,0.036811,-0.820002,-0.193661,0.037775,0.472665,0.327680,6.845529,3.776539,3.360102,-0.081787,-0.003680,0.000000,0.044268,-0.003884,-0.000000
2.310000,-1.344212,-0.411361,-1.444135,1.215518,0.598978,0.015992,0.037536,-0.815094,-0.190217,0.106907,0.509334,0.360761,6.901502,3.668496,3.242736,-0.081327,-0.003753,0.000000,0.047678,-0.010790,-0.000000
2.320000,-1.332055,-0.405412,-1.443985,1.215900,0.590853,0.014109,0.038951,-0.809819,-0.186449,0.176148,0.545455,0.392564,6.944390,3.554778,3.116466,-0.080833,-0.003896,0.000000,0.051054,-0.017716,-0.000000
2.330000,-1.319894,-0.399544,-1.443853,1.216299,0.582783,0.012264,0.041060,-0.804188,-0.182370,0.245752,0.580409,0.423062,6.974224,3.435048,2.981565,-0.080306,-0.004109,0.000000,0.054334,-0.024688,-0.000000
2.340000,-1.307729,-0.393756,-1.443740,1.216723,0.574771,0.010462,0.043867,-0.798215,-0.177993,0.315589,0.614135,0.452168,6.991031,3.308974,2.838301,-0.079747,-0.004392,0.000000,0.057513,-0.031694,-0.000000
2.350000,-1.295559,-0.388048,-1.443644,1.217179,0.566820,0.008706,0.047372,-0.791910,-0.173332,0.385529,0.646566,0.479801,6.994840,3.176220,2.686945,-0.079157,-0.004745,0.000000,0.060585,-0.038723,-0.000000
2.360000,-1.283385,-0.382420,-1.443565,1.217673,0.558933,0.006997,0.051576,-0.785284,-0.168401,0.455322,0.677960,0.505938,6.988708,3.028247,2.526315,-0.078535,-0.005169,0.000000,0.063577,-0.045750,0.000000
2.370000,-1.271206,-0.376869,-1.443504,1.218213,0.551115,0.005338,0.056478,-0.778356,-0.163218,0.525123,0.707476,0.530367,6.969264,2.873930,2.358312,-0.077885,-0.005663,0.000000,0.066405,-0.052792,0.000000
2.380000,-1.259021,-0.371397,-1.443458,1.218805,0.543367,0.003733,0.062077,-0.771140,-0.157800,0.594662,0.735420,0.553081,6.936163,2.713939,2.183383,-0.077208,-0.006228,0.000000,0.069101,-0.059823,-0.000000
2.390000,-1.246829,-0.366002,-1.443429,1.219456,0.535693,0.002183,0.068370,-0.763653,-0.152163,0.663800,0.761738,0.574013,6.889065,2.548943,2.001977,-0.076504,-0.006863,0.000000,0.071659,-0.066828,-0.000000
2.400000,-1.234631,-0.360683,-1.443414,1.220175,0.528095,0.000690,0.075352,-0.755911,-0.146326,0.732396,0.786385,0.593101,6.827625,2.379614,1.814542,-0.075775,-0.007568,0.000000,0.074074,-0.073795,0.000000
2.410000,-1.222426,-0.355440,-1.443415,1.220966,0.520576,-0.000743,0.083016,-0.747928,-0.140306,0.800295,0.809588,0.610341,6.751727,2.199801,1.620114,-0.075023,-0.008343,0.000000,0.076369,-0.080708,-0.000000
2.420000,-1.210212,-0.350271,-1.443429,1.221837,0.513137,-0.002115,0.091355,-0.739725,-0.134125,0.867370,0.830678,0.625549,6.660775,2.017830,1.420727,-0.074248,-0.009187,0.000000,0.078477,-0.087553,-0.000000
2.430000,-1.197989,-0.345177,-1.443457,1.222795,0.505782,-0.003425,0.100360,-0.731320,-0.127802,0.933459,0.849943,0.638741,6.554399,1.835205,1.216999,-0.073454,-0.010098,0.000000,0.080427,-0.094315,0.000000
2.440000,-1.185755,-0.340155,-1.443497,1.223846,0.498511,-0.004671,0.110020,-0.722732,-0.121357,0.998405,0.867385,0.649877,6.432228,1.653431,1.009553,-0.072640,-0.011078,0.000000,0.082217,-0.100976,-0.000000
2.450000,-1.173511,-0.335206,-1.443550,1.224998,0.491328,-0.005852,0.120323,-0.713979,-0.114812,1.062049,0.883019,0.658922,6.293893,1.474014,0.799009,-0.071810,-0.012123,0.000000,0.083849,-0.107521,-0.000000
2.460000,-1.161255,-0.330328,-1.443614,1.226255,0.484232,-0.006967,0.131257,-0.705078,-0.108185,1.124343,0.896888,0.665893,6.136110,1.298215,0.584869,-0.070964,-0.013233,0.000000,0.085325,-0.113943,0.000000
2.470000,-1.148986,-0.325521,-1.443689,1.227625,0.477227,-0.008015,0.142805,-0.696047,-0.101501,1.184847,0.909013,0.670664,5.961778,1.127812,0.369009,-0.070104,-0.014407,0.000000,0.086647,-0.120197,-0.000000
2.480000,-1.136702,-0.320784,-1.443774,1.229113,0.470312,-0.008997,0.154948,-0.686903,-0.094779,1.243524,0.919467,0.673270,5.770884,0.964340,0.152189,-0.069231,-0.015643,0.000000,0.087821,-0.126277,-0.000000
2.490000,-1.124403,-0.316115,-1.443869,1.230726,0.463489,-0.009911,0.167669,-0.677663,-0.088043,1.300209,0.928328,0.673707,5.563415,0.809334,-0.064835,-0.068348,-0.016938,0.000000,0.088853,-0.132166,-0.000000
2.500000,-1.112087,-0.311514,-1.443972,1.232468,0.456759,-0.010758,0.180945,-0.668341,-0.081312,1.354737,0.935687,0.671975,5.339356,0.664328,-0.281304,-0.067455,-0.018291,0.000000,0.089753,-0.137845,0.000000
2.510000,-1.099753,-0.306979,-1.444084,1.234346,0.450123,-0.011537,0.194760,-0.658967,-0.074610,1.407312,0.940379,0.668105,5.089325,0.563016,-0.496956,-0.066555,-0.019701,0.000000,0.090399,-0.143332,0.000000
2.520000,-1.087400,-0.302511,-1.444203,1.236365,0.443580,-0.012250,0.209083,-0.649537,-0.067958,1.456890,0.945542,0.662066,4.823824,0.470836,-0.710476,-0.065647,-0.021163,0.000000,0.091108,-0.148520,-0.000000
2.530000,-1.075026,-0.298107,-1.444329,1.238530,0.437132,-0.012897,0.223888,-0.640060,-0.061376,1.503740,0.949818,0.653905,4.543988,0.385386,-0.921046,-0.064733,-0.022677,0.000000,0.091741,-0.153435,-0.000000
2.540000,-1.062629,-0.293768,-1.444461,1.240844,0.430779,-0.013478,0.239148,-0.630543,-0.054886,1.547726,0.953264,0.643657,4.250951,0.304261,-1.127847,-0.063812,-0.024238,0.000000,0.092303,-0.158059,-0.000000
2.550000,-1.050208,-0.289491,-1.444598,1.243314,0.424521,-0.013995,0.254833,-0.620997,-0.048510,1.588719,0.955910,0.631363,3.945846,0.225060,-1.330061,-0.062887,-0.025843,0.000000,0.092795,-0.162377,-0.000000
2.560000,-1.037762,-0.285277,-1.444740,1.245942,0.418359,-0.014448,0.270910,-0.611417,-0.042266,1.626373,0.958798,0.617054,3.635689,0.119245,-1.526355,-0.061956,-0.027490,0.000000,0.093321,-0.166352,-0.000000
2.570000,-1.025289,-0.281124,-1.444887,1.248733,0.412293,-0.014840,0.287350,-0.601824,-0.036175,1.661135,0.959463,0.600834,3.315012,0.013747,-1.716487,-0.061021,-0.029176,0.000000,0.093630,-0.170027,0.000000
2.580000,-1.012787,-0.277031,-1.445037,1.251690,0.406322,-0.015172,0.304121,-0.592231,-0.030256,1.692640,0.959077,0.582747,2.984228,-0.090637,-1.899701,-0.060083,-0.030896,0.000000,0.093839,-0.173363,-0.000000
2.590000,-1.000254,-0.272997,-1.445190,1.254817,0.400448,-0.015446,0.321191,-0.582646,-0.024526,1.720788,0.957656,0.562866,2.643750,-0.193110,-2.075242,-0.059144,-0.032648,0.000000,0.093948,-0.176346,0.000000
2.600000,-0.987690,-0.269022,-1.445346,1.258115,0.394669,-0.015664,0.338526,-0.573081,-0.019004,1.745484,0.955224,0.541270,2.293991,-0.292875,-2.242354,-0.058205,-0.034428,0.000000,0.093958,-0.178965,0.000000
2.610000,-0.975092,-0.265103,-1.445503,1.261588,0.388986,-0.015827,0.356088,-0.563540,-0.013707,1.766529,0.952276,0.517990,1.938121,-0.400895,-2.398795,-0.057265,-0.036232,0.000000,0.093919,-0.181198,0.000000
2.620000,-0.962458,-0.261242,-1.445662,1.265238,0.383398,-0.015939,0.373844,-0.554039,-0.008649,1.784094,0.947750,0.493261,1.573460,-0.503173,-2.545479,-0.056327,-0.038057,0.000000,0.093719,-0.183061,-0.000000
2.630000,-0.949786,-0.257435,-1.445822,1.269066,0.377905,-0.016001,0.391758,-0.544588,-0.003846,1.797969,0.942239,0.467115,1.200084,-0.597473,-2.681830,-0.055391,-0.039898,0.000000,0.093417,-0.184529,0.000000
2.640000,-0.937076,-0.253683,-1.445982,1.273073,0.372506,-0.016016,0.409791,-0.535197,0.000689,1.808067,0.935835,0.439660,0.818069,-0.681557,-2.807275,-0.054459,-0.041751,0.000000,0.093023,-0.185594,0.000000
2.650000,-0.924324,-0.249985,-1.446142,1.277262,0.367201,-0.015988,0.427906,-0.525874,0.004943,1.814302,0.928650,0.411008,0.427490,-0.753188,-2.921239,-0.053531,-0.043614,0.000000,0.092546,-0.186244,-0.000000
2.660000,-0.911530,-0.246339,-1.446301,1.281631,0.361989,-0.015918,0.446068,-0.516641,0.008904,1.816992,0.919484,0.381188,0.018221,-0.776393,-3.020940,-0.052609,-0.045481,0.000000,0.091862,-0.186511,0.000000
2.670000,-0.898691,-0.242745,-1.446460,1.286183,0.356868,-0.015811,0.464232,-0.507485,0.012564,1.815098,0.911658,0.350532,-0.398210,-0.786803,-3.108283,-0.051694,-0.047348,0.000000,0.091308,-0.186290,-0.000000
2.680000,-0.885806,-0.239201,-1.446618,1.290916,0.351839,-0.015668,0.482356,-0.498408,0.015912,1.809009,0.903784,0.319065,-0.820478,-0.786311,-3.182967,-0.050783,-0.049210,0.000000,0.090742,-0.185618,0.000000
2.690000,-0.872872,-0.235708,-1.446773,1.295830,0.346900,-0.015494,0.500398,-0.489409,0.018943,1.798673,0.895962,0.286916,-1.247256,-0.776812,-3.244687,-0.049879,-0.051063,0.000000,0.090173,-0.184491,0.000000
2.700000,-0.859888,-0.232263,-1.446927,1.300923,0.342050,-0.015290,0.518315,-0.480488,0.021649,1.784053,0.888272,0.254215,-1.677220,-0.760198,-3.293140,-0.048980,-0.052903,0.000000,0.089608,-0.182905,-0.000000
2.710000,-0.846853,-0.228866,-1.447079,1.306195,0.337290,-0.015062,0.536067,-0.471628,0.024024,1.765294,0.882137,0.220982,-2.113384,-0.772741,-3.325102,-0.048085,-0.054724,0.000000,0.089192,-0.180875,0.000000
2.720000,-0.833764,-0.225517,-1.447228,1.311644,0.332617,-0.014811,0.553607,-0.462846,0.026068,1.741979,0.874377,0.187628,-2.549551,-0.777749,-3.343548,-0.047196,-0.056523,0.000000,0.088600,-0.178359,0.000000
2.730000,-0.820619,-0.222214,-1.447375,1.317267,0.328032,-0.014542,0.570892,-0.454141,0.027777,1.714310,0.866614,0.154156,-2.983865,-0.772907,-3.348534,-0.046313,-0.058294,0.000000,0.087996,-0.175381,-0.000000
2.740000,-0.807418,-0.218956,-1.447519,1.323061,0.323534,-0.014257,0.587879,-0.445513,0.029151,1.682314,0.858959,0.120702,-3.414468,-0.755898,-3.340115,-0.045436,-0.060033,0.000000,0.087391,-0.171943,-0.000000
2.750000,-0.794158,-0.215743,-1.447660,1.329023,0.319122,-0.013960,0.604524,-0.436961,0.030191,1.646039,0.851545,0.087398,-3.839503,-0.724408,-3.318345,-0.044565,-0.061735,0.000000,0.086798,-0.168053,0.000000
2.760000,-0.780837,-0.212573,-1.447798,1.335150,0.314795,-0.013654,0.620780,-0.428496,0.030899,1.605100,0.843127,0.054279,-4.245777,-0.640765,-3.280745,-0.043702,-0.063395,0.000000,0.086091,-0.163671,-0.000000
2.770000,-0.767454,-0.209446,-1.447933,1.341437,0.310552,-0.013343,0.636612,-0.420095,0.031278,1.560643,0.837200,0.021713,-4.644158,-0.542339,-3.230213,-0.042843,-0.065010,0.000000,0.085625,-0.158920,0.000000
2.780000,-0.754008,-0.206362,-1.448065,1.347881,0.306393,-0.013029,0.651980,-0.411749,0.031335,1.512244,0.832323,-0.010284,-5.034178,-0.431144,-3.167115,-0.041989,-0.066575,0.000000,0.085252,-0.153757,0.000000
2.790000,-0.740496,-0.203318,-1.448194,1.354475,0.302317,-0.012717,0.666844,-0.403445,0.031075,1.459989,0.828613,-0.041588,-5.415368,-0.309195,-3.091817,-0.041138,-0.068087,0.000000,0.084986,-0.148194,0.000000
2.800000,-0.726918,-0.200315,-1.448320,1.361216,0.298324,-0.012409,0.681167,-0.395172,0.030506,1.403968,0.826168,-0.072080,-5.787260,-0.178505,-3.004682,-0.040289,-0.069540,0.000000,0.084834,-0.142243,0.000000
2.810000,-0.713271,-0.197352,-1.448442,1.368097,0.294414,-0.012108,0.694911,-0.386917,0.029635,1.344255,0.825071,-0.101728,-6.148852,-0.041217,-2.903946,-0.039441,-0.070932,0.000000,0.084808,-0.135913,0.000000
2.820000,-0.699555,-0.194427,-1.448562,1.375112,0.290586,-0.011817,0.708041,-0.378666,0.028475,1.281001,0.825365,-0.130218,-6.500274,0.100799,-2.792364,-0.038592,-0.072259,0.000000,0.084909,-0.129224,-0.000000
2.830000,-0.685769,-0.191540,-1.448679,1.382255,0.286840,-0.011539,0.720520,-0.370405,0.027035,1.214285,0.827096,-0.157541,-6.841124,0.245545,-2.670564,-0.037742,-0.073518,0.000000,0.085143,-0.122186,0.000000
2.840000,-0.671910,-0.188690,-1.448793,1.389520,0.283178,-0.011277,0.732315,-0.362119,0.025328,1.144215,0.830279,-0.183598,-7.170997,0.391021,-2.539170,-0.036889,-0.074704,0.000000,0.085512,-0.114813,-0.000000
