time,x,y,z,vx,vy,vz,ax,ay,az,jx,jy,jz,sx,sy,sz,roll,pitch,yaw,p,q,r
0.000000,-2.781310,-2.167609,-1.479341,-0.008519,0.000014,-0.003143,0.071613,-0.132675,0.000043,2.297641,-4.855379,0.032535,-107.917650,169.742653,1.612871,-0.013523,-0.007300,0.000000,-0.494862,-0.234205,0.000000
0.010000,-2.781395,-2.167609,-1.479372,-0.007803,-0.001313,-0.003143,0.094589,-0.181228,0.000368,1.218464,-3.157952,0.048664,-200.727105,368.708802,0.278115,-0.018472,-0.009642,0.000000,-0.321868,-0.124226,0.000000
0.020000,-2.781466,-2.167635,-1.479404,-0.006627,-0.003611,-0.003136,0.095982,-0.195834,0.001016,-1.716901,2.518797,0.038097,-205.770525,469.730521,-4.331195,-0.019961,-0.009785,0.000000,0.256558,0.174944,0.000000
0.030000,-2.781527,-2.167681,-1.479435,-0.005883,-0.005230,-0.003122,0.060251,-0.130852,0.001130,-2.896946,6.236658,-0.037960,2.273181,162.567829,-8.379751,-0.013339,-0.006142,0.000000,0.635721,0.295326,-0.000000
0.040000,-2.781583,-2.167740,-1.479466,-0.005422,-0.006228,-0.003113,0.038043,-0.071100,0.000257,-1.671438,5.770154,-0.129498,110.664273,-41.380072,-8.465536,-0.007248,-0.003878,0.000000,0.588262,0.170430,0.000000
0.050000,-2.781636,-2.167805,-1.479497,-0.005122,-0.006652,-0.003117,0.026822,-0.015449,-0.001460,-0.683661,5.409057,-0.207271,88.424148,-31.560361,-7.148533,-0.001575,-0.002734,0.000000,0.551329,0.069737,0.000000
0.060000,-2.781686,-2.167873,-1.479528,-0.004886,-0.006537,-0.003142,0.024370,0.037081,-0.003888,0.097045,5.138947,-0.272468,69.150540,-23.138164,-5.947207,0.003778,-0.002483,0.000000,0.523526,-0.009819,-0.000000
0.070000,-2.781733,-2.167936,-1.479560,-0.004635,-0.005910,-0.003195,0.028763,0.087330,-0.006909,0.699350,4.946293,-0.326215,52.644332,-16.024469,-4.855189,0.008896,-0.002930,0.000000,0.503515,-0.071139,-0.000000
0.080000,-2.781778,-2.167991,-1.479592,-0.004310,-0.004790,-0.003280,0.038357,0.136007,-0.010413,1.149932,4.818457,-0.369572,38.706380,-10.130245,-3.866109,0.013848,-0.003906,0.000000,0.490032,-0.116936,0.000000
0.090000,-2.781820,-2.168032,-1.479626,-0.003868,-0.003190,-0.003403,0.051762,0.183699,-0.014300,1.473478,4.743689,-0.403537,27.137587,-5.366489,-2.973587,0.018696,-0.005269,0.000000,0.481895,-0.149736,-0.000000
0.100000,-2.781856,-2.168055,-1.479660,-0.003275,-0.001116,-0.003566,0.067827,0.230880,-0.018483,1.692684,4.711127,-0.429044,17.738866,-1.644204,-2.171239,0.023486,-0.006901,0.000000,0.478006,-0.171865,-0.000000
0.110000,-2.781885,-2.168054,-1.479697,-0.002511,0.001428,-0.003773,0.085616,0.277921,-0.022881,1.828255,4.710804,-0.446962,10.311079,1.125649,-1.452706,0.028256,-0.008707,0.000000,0.477357,-0.185449,0.000000
0.120000,-2.781906,-2.168026,-1.479736,-0.001563,0.004442,-0.004024,0.104392,0.325096,-0.027423,1.898905,4.733640,-0.458098,4.655031,3.032066,-0.811627,0.033033,-0.010611,0.000000,0.479031,-0.192408,-0.000000
0.130000,-2.781916,-2.167966,-1.479778,-0.000423,0.007929,-0.004321,0.123594,0.372594,-0.032043,1.921356,4.771446,-0.463194,0.571639,4.164050,-0.241617,0.037836,-0.012557,0.000000,0.482199,-0.194458,-0.000000
0.140000,-2.781914,-2.167868,-1.479822,0.000909,0.011894,-0.004665,0.142819,0.420525,-0.036686,1.910338,4.816921,-0.462930,-2.138000,4.610700,0.263729,0.042677,-0.014503,0.000000,0.486127,-0.193110,0.000000
0.150000,-2.781898,-2.167728,-1.479871,0.002433,0.016340,-0.005055,0.161801,0.468933,-0.041302,1.878596,4.863660,-0.457920,-3.673179,4.460969,0.710754,0.047559,-0.016423,0.000000,0.490170,-0.189666,0.000000
0.160000,-2.781866,-2.167541,-1.479923,0.004145,0.021273,-0.005491,0.180391,0.517799,-0.045845,1.836874,4.906141,-0.448715,-4.233265,3.803767,1.105792,0.052480,-0.018301,0.000000,0.493774,-0.185223,0.000000
0.170000,-2.781815,-2.167302,-1.479981,0.006041,0.026696,-0.005972,0.198538,0.567055,-0.050276,1.793930,4.939735,-0.435804,-4.048110,2.738192,1.456396,0.057434,-0.020132,0.000000,0.496480,-0.180673,-0.000000
0.180000,-2.781745,-2.167007,-1.480043,0.008116,0.032614,-0.006497,0.216269,0.616593,-0.054561,1.755912,4.960905,-0.419587,-3.859255,1.527321,1.788735,0.062410,-0.021920,0.000000,0.497936,-0.176640,-0.000000
0.190000,-2.781653,-2.166650,-1.480111,0.010366,0.039028,-0.007063,0.233656,0.666274,-0.058668,1.716745,4.970282,-0.400029,-3.678439,0.199896,2.102303,0.067393,-0.023672,0.000000,0.498220,-0.172510,0.000000
0.200000,-2.781538,-2.166226,-1.480184,0.012789,0.045939,-0.007670,0.250604,0.715999,-0.062562,1.682343,4.964903,-0.377541,0.298394,-2.439147,2.257564,0.072374,-0.025378,0.000000,0.497040,-0.168883,-0.000000
0.210000,-2.781397,-2.165731,-1.480264,0.015378,0.053348,-0.008314,0.267303,0.765572,-0.066219,1.722713,4.921499,-0.354878,7.443256,-6.163179,2.276544,0.077334,-0.027059,0.000000,0.492033,-0.172813,0.000000
0.220000,-2.781230,-2.165159,-1.480350,0.018135,0.061251,-0.008994,0.285058,0.814429,-0.069659,1.831209,4.841639,-0.332010,6.078256,-7.198060,2.583887,0.082215,-0.028845,0.000000,0.483368,-0.183606,-0.000000
0.230000,-2.781035,-2.164506,-1.480444,0.021080,0.069636,-0.009708,0.303927,0.862404,-0.072859,1.844278,4.777537,-0.303200,-4.210597,-5.331735,3.191997,0.087001,-0.030743,0.000000,0.476390,-0.184793,-0.000000
0.240000,-2.780809,-2.163767,-1.480545,0.024214,0.078499,-0.010451,0.321944,0.909980,-0.075723,1.746997,4.735004,-0.268170,-7.684496,-5.606304,3.526970,0.091743,-0.032555,0.000000,0.471706,-0.174911,0.000000
0.250000,-2.780550,-2.162936,-1.480653,0.027518,0.087836,-0.011222,0.338867,0.957104,-0.078222,1.690588,4.665411,-0.232661,-2.817259,-8.885528,3.545519,0.096436,-0.034256,0.000000,0.464353,-0.169174,-0.000000
0.260000,-2.780258,-2.162010,-1.480769,0.030991,0.097641,-0.012016,0.355756,1.003288,-0.080376,1.690651,4.557294,-0.197260,-0.393434,-11.642122,3.638408,0.101030,-0.035954,0.000000,0.453184,-0.169135,0.000000
0.270000,-2.779930,-2.160983,-1.480893,0.034634,0.107902,-0.012830,0.372680,1.048250,-0.082168,1.682720,4.432569,-0.159893,-1.576470,-12.331601,3.809182,0.105499,-0.037656,0.000000,0.440445,-0.168316,0.000000
0.280000,-2.779565,-2.159852,-1.481026,0.038445,0.118606,-0.013659,0.389410,1.091939,-0.083574,1.659122,4.310662,-0.121076,-2.637304,-12.085864,3.918747,0.109839,-0.039340,0.000000,0.428085,-0.165950,0.000000
0.290000,-2.779162,-2.158611,-1.481166,0.042422,0.129741,-0.014501,0.405863,1.134464,-0.084589,1.629973,4.190852,-0.081518,-3.001874,-12.660037,3.998394,0.114061,-0.040996,0.000000,0.416019,-0.163053,0.000000
0.300000,-2.778717,-2.157257,-1.481316,0.046562,0.141295,-0.015351,0.422010,1.175756,-0.085205,1.599085,4.057461,-0.041108,-3.240902,-14.148572,4.085456,0.118160,-0.042622,0.000000,0.402687,-0.160008,0.000000
0.310000,-2.778230,-2.155785,-1.481473,0.050862,0.153256,-0.016205,0.437844,1.215613,-0.085411,1.565155,3.907880,0.000191,-3.597304,-15.378364,4.151801,0.122115,-0.044218,0.000000,0.387836,-0.156686,-0.000000
0.320000,-2.777700,-2.154192,-1.481640,0.055319,0.165607,-0.017059,0.453313,1.253914,-0.085201,1.527138,3.749894,0.041928,-3.797600,-15.941168,4.149737,0.125917,-0.045779,0.000000,0.372241,-0.152981,-0.000000
0.330000,-2.777124,-2.152473,-1.481815,0.059928,0.178334,-0.017909,0.468387,1.290611,-0.084573,1.489203,3.589057,0.083186,-3.748060,-16.222958,4.085145,0.129560,-0.047302,0.000000,0.356440,-0.149306,0.000000
0.340000,-2.776501,-2.150625,-1.481998,0.064687,0.191420,-0.018751,0.483097,1.325695,-0.083537,1.452177,3.425435,0.123630,-3.838037,-16.672072,4.021093,0.133046,-0.048791,0.000000,0.340431,-0.145741,0.000000
0.350000,-2.775830,-2.148645,-1.482190,0.069590,0.204848,-0.019580,0.497431,1.359119,-0.082100,1.412443,3.255615,0.163608,-4.140967,-17.287254,3.978846,0.136369,-0.050243,0.000000,0.323880,-0.141924,0.000000
0.360000,-2.775109,-2.146528,-1.482390,0.074635,0.218602,-0.020393,0.511346,1.390807,-0.080265,1.369358,3.079689,0.203207,-4.384029,-17.778127,3.914925,0.139524,-0.051656,0.000000,0.306795,-0.137793,0.000000
0.370000,-2.774338,-2.144273,-1.482597,0.079817,0.232664,-0.021185,0.524818,1.420713,-0.078036,1.324762,2.900053,0.241906,-4.465269,-18.087006,3.778410,0.142506,-0.053026,0.000000,0.289402,-0.133527,-0.000000
0.380000,-2.773513,-2.141875,-1.482813,0.085131,0.247016,-0.021953,0.537841,1.448808,-0.075427,1.280053,2.717949,0.278776,-4.475558,-18.315390,3.581568,0.145312,-0.054354,0.000000,0.271805,-0.129260,-0.000000
0.390000,-2.772635,-2.139332,-1.483037,0.090574,0.261640,-0.022694,0.550419,1.475072,-0.072460,1.235251,2.533745,0.313538,-4.528726,-18.520265,3.392351,0.147942,-0.055639,0.000000,0.254029,-0.124989,-0.000000
0.400000,-2.771702,-2.136642,-1.483267,0.096140,0.276518,-0.023403,0.562546,1.499483,-0.069156,1.189478,2.347544,0.346623,-4.623798,-18.689993,3.228458,0.150393,-0.056881,0.000000,0.236084,-0.120628,0.000000
0.410000,-2.770712,-2.133802,-1.483505,0.101825,0.291630,-0.024077,0.574208,1.522023,-0.065528,1.142775,2.159945,0.378107,-4.687178,-18.793988,3.044893,0.152664,-0.058079,0.000000,0.218026,-0.116180,0.000000
0.420000,-2.769665,-2.130810,-1.483749,0.107624,0.306958,-0.024713,0.585401,1.542682,-0.061594,1.095734,1.971664,0.407520,-4.709681,-18.846960,2.803153,0.154753,-0.059232,0.000000,0.199910,-0.111698,-0.000000
0.430000,-2.768560,-2.127663,-1.483999,0.113533,0.322483,-0.025309,0.596123,1.561456,-0.057378,1.048581,1.783006,0.434170,-4.717636,-18.863990,2.518487,0.156662,-0.060340,0.000000,0.181748,-0.107201,0.000000
0.440000,-2.767394,-2.124360,-1.484255,0.119546,0.338187,-0.025861,0.606373,1.578342,-0.052910,1.001382,1.594384,0.457890,-4.718200,-18.827654,2.243035,0.158389,-0.061403,0.000000,0.163571,-0.102690,-0.000000
0.450000,-2.766169,-2.120899,-1.484516,0.125660,0.354050,-0.026367,0.616151,1.593344,-0.048220,0.954217,1.406453,0.479031,-4.706155,-18.731342,1.986430,0.159933,-0.062420,0.000000,0.145441,-0.098174,0.000000
0.460000,-2.764881,-2.117279,-1.484782,0.131870,0.370054,-0.026825,0.625457,1.606471,-0.043330,0.907259,1.219758,0.497619,-4.678976,-18.591878,1.716140,0.161297,-0.063392,0.000000,0.127407,-0.093668,0.000000
0.470000,-2.763531,-2.113498,-1.485053,0.138169,0.386180,-0.027234,0.634296,1.617739,-0.038267,0.860638,1.034615,0.513353,-4.645549,-18.429001,1.415537,0.162482,-0.064318,0.000000,0.109487,-0.089182,0.000000
0.480000,-2.762118,-2.109555,-1.485327,0.144555,0.402409,-0.027590,0.642670,1.627164,-0.033063,0.814348,0.851178,0.525930,-4.608171,-18.241129,1.098087,0.163487,-0.065199,0.000000,0.091686,-0.084711,-0.000000
0.490000,-2.760640,-2.105450,-1.485604,0.151023,0.418723,-0.027895,0.650583,1.634763,-0.027749,0.768474,0.669793,0.535315,-4.555877,-18.007823,0.787850,0.164315,-0.066035,0.000000,0.074031,-0.080262,-0.000000
0.500000,-2.759097,-2.101181,-1.485885,0.157567,0.435104,-0.028145,0.658040,1.640560,-0.022356,0.723230,0.491021,0.541687,-4.486055,-17.726090,0.484888,0.164968,-0.066826,0.000000,0.056575,-0.075855,-0.000000
0.510000,-2.757489,-2.096748,-1.486167,0.164184,0.451534,-0.028342,0.665048,1.644583,-0.016915,0.678753,0.315271,0.545013,-4.407394,-17.413633,0.176815,0.165447,-0.067573,0.000000,0.039353,-0.071502,0.000000
0.520000,-2.755814,-2.092150,-1.486452,0.170868,0.467996,-0.028484,0.671615,1.646865,-0.011456,0.635082,0.142749,0.545223,-4.326882,-17.084662,-0.128617,0.165755,-0.068276,0.000000,0.022381,-0.067206,-0.000000
0.530000,-2.754071,-2.087388,-1.486737,0.177616,0.484472,-0.028571,0.677749,1.647438,-0.006011,0.592216,-0.026422,0.542441,-4.242551,-16.736650,-0.422902,0.165894,-0.068936,0.000000,0.005670,-0.062966,0.000000
0.540000,-2.752261,-2.082461,-1.487023,0.184423,0.500945,-0.028604,0.683459,1.646336,-0.000607,0.550231,-0.191984,0.536765,-4.146850,-16.356324,-0.713592,0.165868,-0.069553,0.000000,-0.010756,-0.058790,-0.000000
0.550000,-2.750383,-2.077369,-1.487309,0.191285,0.517398,-0.028583,0.688754,1.643598,0.004725,0.509279,-0.353549,0.528169,-4.039271,-15.942248,-1.009451,0.165679,-0.070128,0.000000,-0.026862,-0.054690,-0.000000
0.560000,-2.748436,-2.072113,-1.487595,0.198198,0.533816,-0.028509,0.693645,1.639266,0.009956,0.469446,-0.510829,0.516576,-3.925713,-15.506811,-1.301124,0.165331,-0.070662,0.000000,-0.042620,-0.050675,0.000000
0.570000,-2.746419,-2.066693,-1.487879,0.205158,0.550184,-0.028384,0.698143,1.633382,0.015056,0.430764,-0.663685,0.502146,-3.809128,-15.060687,-1.559720,0.164827,-0.071155,0.000000,-0.058016,-0.046749,0.000000
0.580000,-2.744333,-2.061109,-1.488162,0.212161,0.566484,-0.028208,0.702260,1.625992,0.019999,0.393263,-0.812043,0.485381,-3.688213,-14.602886,-1.783198,0.164170,-0.071610,0.000000,-0.073033,-0.042918,0.000000
0.590000,-2.742176,-2.055363,-1.488443,0.219203,0.582703,-0.027984,0.706008,1.617141,0.024764,0.357000,-0.955743,0.466482,-3.560420,-14.124133,-2.006842,0.163366,-0.072026,0.000000,-0.087651,-0.039188,0.000000
0.600000,-2.739948,-2.049455,-1.488722,0.226281,0.598827,-0.027713,0.709400,1.606877,0.029329,0.322055,-1.094526,0.445245,-3.426318,-13.622634,-2.245791,0.162417,-0.072404,0.000000,-0.101848,-0.035566,-0.000000
0.610000,-2.737650,-2.043386,-1.488998,0.233391,0.614841,-0.027398,0.712449,1.595250,0.033669,0.288474,-1.228195,0.421567,-3.288428,-13.107859,-2.472406,0.161329,-0.072746,0.000000,-0.115603,-0.032056,-0.000000
0.620000,-2.735281,-2.037158,-1.489270,0.240530,0.630732,-0.027040,0.715169,1.582313,0.037760,0.256286,-1.356683,0.395796,-3.147152,-12.591096,-2.643811,0.160105,-0.073054,0.000000,-0.128901,-0.028663,-0.000000
0.630000,-2.732840,-2.030772,-1.489538,0.247695,0.646487,-0.026642,0.717575,1.568117,0.041585,0.225531,-1.480017,0.368690,-3.002262,-12.072363,-2.764252,0.158751,-0.073327,0.000000,-0.141731,-0.025398,-0.000000
0.640000,-2.730327,-2.024229,-1.489803,0.254882,0.662094,-0.026208,0.719680,1.552713,0.045134,0.196241,-1.598130,0.340511,-2.854266,-11.540925,-2.887826,0.157270,-0.073568,0.000000,-0.154078,-0.022266,-0.000000
0.650000,-2.727742,-2.017530,-1.490063,0.262088,0.677541,-0.025740,0.721500,1.536154,0.048395,0.168445,-1.710836,0.310934,-2.703592,-10.993386,-3.032740,0.155669,-0.073778,0.000000,-0.165926,-0.019268,-0.000000
0.660000,-2.725085,-2.010678,-1.490318,0.269312,0.692817,-0.025240,0.723049,1.518496,0.051352,0.142169,-1.817998,0.279857,-2.550742,-10.440087,-3.159730,0.153952,-0.073958,0.000000,-0.177259,-0.016406,-0.000000
0.670000,-2.722356,-2.003674,-1.490567,0.276549,0.707911,-0.024713,0.724343,1.499794,0.053992,0.117431,-1.919638,0.247739,-2.396320,-9.895796,-3.220914,0.152124,-0.074110,0.000000,-0.188069,-0.013686,-0.000000
0.680000,-2.719554,-1.996519,-1.490812,0.283798,0.722813,-0.024160,0.725397,1.480103,0.056307,0.094243,-2.015914,0.215438,-2.240799,-9.360354,-3.225441,0.150190,-0.074235,0.000000,-0.198354,-0.011116,0.000000
0.690000,-2.716680,-1.989217,-1.491051,0.291057,0.737513,-0.023586,0.726228,1.459476,0.058301,0.072615,-2.106845,0.183230,-2.084453,-8.817784,-3.234808,0.148157,-0.074335,0.000000,-0.208110,-0.008700,0.000000
0.700000,-2.713733,-1.981769,-1.491284,0.298323,0.752003,-0.022994,0.726850,1.437966,0.059972,0.052554,-2.192270,0.150742,-1.927195,-8.262482,-3.266869,0.146028,-0.074411,0.000000,-0.217322,-0.006437,0.000000
0.710000,-2.710713,-1.974177,-1.491510,0.305594,0.766273,-0.022387,0.727279,1.415631,0.061316,0.034071,-2.272094,0.117893,-1.769628,-7.708150,-3.278785,0.143810,-0.074465,0.000000,-0.225978,-0.004328,-0.000000
0.720000,-2.707621,-1.966444,-1.491731,0.312869,0.780315,-0.021768,0.727531,1.392524,0.062330,0.017161,-2.346433,0.085166,-1.613754,-7.174129,-3.226436,0.141509,-0.074498,0.000000,-0.234080,-0.002375,0.000000
0.730000,-2.704456,-1.958571,-1.491946,0.320145,0.794123,-0.021140,0.727622,1.368702,0.063019,0.001796,-2.415577,0.053364,-1.460176,-6.659097,-3.121822,0.139129,-0.074513,0.000000,-0.241642,-0.000584,-0.000000
0.740000,-2.701218,-1.950561,-1.492154,0.327421,0.807689,-0.020508,0.727567,1.344213,0.063397,-0.012042,-2.479615,0.022730,-1.307157,-6.140509,-3.022464,0.136676,-0.074510,0.000000,-0.248667,0.001046,0.000000
0.750000,-2.697908,-1.942417,-1.492356,0.334696,0.821007,-0.019872,0.727381,1.319110,0.063474,-0.024347,-2.538387,-0.007085,-1.153725,-5.610912,-2.942857,0.134156,-0.074492,0.000000,-0.255143,0.002515,-0.000000
0.760000,-2.694524,-1.934141,-1.492552,0.341969,0.834072,-0.019238,0.727080,1.293445,0.063255,-0.035117,-2.591833,-0.036127,-1.001875,-5.088060,-2.844410,0.131573,-0.074459,0.000000,-0.261061,0.003825,-0.000000
0.770000,-2.691068,-1.925736,-1.492741,0.349238,0.846876,-0.018607,0.726679,1.267273,0.062751,-0.044385,-2.640148,-0.063973,-0.855609,-4.594666,-2.693777,0.128934,-0.074415,0.000000,-0.266435,0.004973,0.000000
0.780000,-2.687539,-1.917204,-1.492924,0.356502,0.859417,-0.017983,0.726192,1.240642,0.061976,-0.052229,-2.683726,-0.090003,-0.715098,-4.127748,-2.503368,0.126244,-0.074359,0.000000,-0.271294,0.005965,0.000000
0.790000,-2.683938,-1.908547,-1.493100,0.363762,0.871689,-0.017368,0.725634,1.213598,0.060951,-0.058687,-2.722703,-0.114041,-0.575883,-3.659778,-2.317588,0.123509,-0.074294,0.000000,-0.275649,0.006800,-0.000000
0.800000,-2.680264,-1.899770,-1.493271,0.371015,0.883689,-0.016764,0.725019,1.186188,0.059695,-0.063747,-2.756922,-0.136354,-0.436572,-3.182457,-2.145659,0.120732,-0.074222,0.000000,-0.279489,0.007481,-0.000000
0.810000,-2.676518,-1.890874,-1.493436,0.378262,0.895413,-0.016174,0.724359,1.158460,0.058224,-0.067418,-2.786352,-0.156954,-0.300906,-2.716306,-1.959198,0.117919,-0.074144,0.000000,-0.282809,0.008008,-0.000000
0.820000,-2.672699,-1.881862,-1.493595,0.385502,0.906858,-0.015600,0.723670,1.130461,0.056556,-0.069765,-2.811248,-0.175538,-0.173571,-2.284807,-1.739804,0.115075,-0.074061,0.000000,-0.285633,0.008386,-0.000000
0.830000,-2.668808,-1.872736,-1.493748,0.392735,0.918022,-0.015043,0.722964,1.102235,0.054713,-0.070890,-2.832048,-0.191750,-0.054256,-1.883476,-1.498196,0.112206,-0.073975,0.000000,-0.288001,0.008621,0.000000
0.840000,-2.664844,-1.863501,-1.493895,0.399961,0.928903,-0.014505,0.722253,1.073820,0.052721,-0.070850,-2.848917,-0.205502,0.062568,-1.483122,-1.260014,0.109315,-0.073887,0.000000,-0.289930,0.008720,-0.000000
0.850000,-2.660809,-1.854158,-1.494038,0.407180,0.939499,-0.013988,0.721547,1.045257,0.050603,-0.069638,-2.861711,-0.216950,0.179617,-1.076071,-1.028420,0.106408,-0.073799,0.000000,-0.291409,0.008682,-0.000000
0.860000,-2.656701,-1.844711,-1.494175,0.414392,0.949808,-0.013493,0.720860,1.016586,0.048382,-0.067258,-2.870439,-0.226071,0.292364,-0.683329,-0.788657,0.103487,-0.073713,0.000000,-0.292440,0.008508,0.000000
0.870000,-2.652521,-1.835162,-1.494308,0.421598,0.959830,-0.013021,0.720202,0.987848,0.046082,-0.063791,-2.875377,-0.232723,0.392427,-0.325336,-0.538327,0.100559,-0.073628,0.000000,-0.293052,0.008205,-0.000000
0.880000,-2.648269,-1.825515,-1.494436,0.428796,0.969565,-0.012572,0.719584,0.959078,0.043727,-0.059409,-2.876945,-0.236837,0.480516,0.003326,-0.284913,0.097626,-0.073548,0.000000,-0.293289,0.007790,-0.000000
0.890000,-2.643945,-1.815771,-1.494559,0.435989,0.979012,-0.012146,0.719014,0.930309,0.041345,-0.054181,-2.875311,-0.238421,0.567426,0.328407,-0.033630,0.094693,-0.073472,0.000000,-0.293169,0.007271,-0.000000
0.900000,-2.639549,-1.805934,-1.494679,0.443177,0.988171,-0.011745,0.718500,0.901572,0.038959,-0.048061,-2.870377,-0.237510,0.655414,0.656156,0.218091,0.091763,-0.073402,0.000000,-0.292686,0.006642,-0.000000
0.910000,-2.635081,-1.796008,-1.494794,0.450359,0.997043,-0.011367,0.718053,0.872901,0.036595,-0.041073,-2.862188,-0.234060,0.736675,0.968588,0.470774,0.088839,-0.073338,0.000000,-0.291846,0.005907,-0.000000
0.920000,-2.630542,-1.785993,-1.494906,0.457538,1.005629,-0.011013,0.717679,0.844328,0.034278,-0.033327,-2.851006,-0.228094,0.805949,1.249911,0.712473,0.085926,-0.073283,0.000000,-0.290680,0.005076,0.000000
0.930000,-2.625930,-1.775895,-1.495014,0.464713,1.013930,-0.010682,0.717386,0.815881,0.032033,-0.024954,-2.837190,-0.219810,0.865444,1.505358,0.939667,0.083026,-0.073236,0.000000,-0.289226,0.004164,0.000000
0.940000,-2.621247,-1.765715,-1.495119,0.471885,1.021947,-0.010372,0.717180,0.787585,0.029882,-0.016018,-2.820898,-0.209301,0.921388,1.755023,1.165765,0.080141,-0.073199,0.000000,-0.287505,0.003180,-0.000000
0.950000,-2.616493,-1.755456,-1.495222,0.479056,1.029682,-0.010084,0.717066,0.759463,0.027847,-0.006526,-2.802089,-0.196495,0.975100,2.002957,1.397967,0.077276,-0.073173,0.000000,-0.285514,0.002122,0.000000
0.960000,-2.611666,-1.745121,-1.495321,0.486227,1.037136,-0.009815,0.717049,0.731543,0.025952,0.003484,-2.780839,-0.181342,1.022190,2.235635,1.624247,0.074431,-0.073157,0.000000,-0.283263,0.000994,-0.000000
0.970000,-2.606768,-1.734713,-1.495418,0.493397,1.044312,-0.009565,0.717135,0.703847,0.024220,0.013918,-2.757376,-0.164010,1.058793,2.443616,1.821946,0.071610,-0.073153,0.000000,-0.280779,-0.000193,-0.000000
0.980000,-2.601798,-1.724235,-1.495512,0.500569,1.051213,-0.009331,0.717328,0.676395,0.022672,0.024660,-2.731967,-0.144903,1.085927,2.631376,1.991545,0.068816,-0.073161,0.000000,-0.278093,-0.001423,-0.000000
0.990000,-2.596757,-1.713689,-1.495605,0.507744,1.057840,-0.009111,0.717629,0.649207,0.021322,0.035637,-2.704749,-0.124179,1.108452,2.811110,2.160644,0.066049,-0.073181,0.000000,-0.275222,-0.002690,-0.000000
1.000000,-2.591644,-1.703078,-1.495695,0.514922,1.064197,-0.008904,0.718040,0.622300,0.020188,0.046829,-2.675745,-0.101690,1.128704,2.984458,2.339415,0.063311,-0.073215,0.000000,-0.272170,-0.003992,0.000000
1.010000,-2.586458,-1.692405,-1.495783,0.522105,1.070286,-0.008708,0.718565,0.595692,0.019288,0.058211,-2.645060,-0.077391,1.143218,3.143671,2.506721,0.060605,-0.073261,0.000000,-0.268949,-0.005327,0.000000
1.020000,-2.581201,-1.681672,-1.495869,0.529293,1.076111,-0.008519,0.719205,0.569399,0.018640,0.069693,-2.612871,-0.051555,1.145616,3.285700,2.633817,0.057932,-0.073321,0.000000,-0.265578,-0.006684,-0.000000
1.030000,-2.575873,-1.670883,-1.495953,0.536489,1.081674,-0.008335,0.719959,0.543435,0.018257,0.081123,-2.579346,-0.024714,1.136805,3.413566,2.724555,0.055293,-0.073395,0.000000,-0.262081,-0.008043,-0.000000
1.040000,-2.570472,-1.660039,-1.496036,0.543692,1.086980,-0.008154,0.720827,0.517812,0.018146,0.092429,-2.544600,0.002936,1.125303,3.531430,2.814962,0.052690,-0.073482,0.000000,-0.258470,-0.009397,0.000000
1.050000,-2.564999,-1.649143,-1.496116,0.550905,1.092031,-0.007972,0.721808,0.492543,0.018316,0.103629,-2.508717,0.031585,1.112528,3.639266,2.916444,0.050124,-0.073583,0.000000,-0.254753,-0.010749,-0.000000
1.060000,-2.559454,-1.638198,-1.496195,0.558129,1.096831,-0.007787,0.722900,0.467638,0.018778,0.114680,-2.471815,0.061264,1.092806,3.734933,3.002942,0.047595,-0.073698,0.000000,-0.250942,-0.012095,-0.000000
1.070000,-2.553836,-1.627207,-1.496272,0.565363,1.101383,-0.007596,0.724101,0.443107,0.019541,0.125485,-2.434018,0.091644,1.063614,3.819483,3.044259,0.045105,-0.073825,0.000000,-0.247053,-0.013422,-0.000000
1.080000,-2.548146,-1.616171,-1.496347,0.572611,1.105693,-0.007396,0.725409,0.418958,0.020610,0.135952,-2.395425,0.122150,1.026836,3.894252,3.046601,0.042654,-0.073966,0.000000,-0.243098,-0.014718,0.000000
1.090000,-2.542384,-1.605093,-1.496420,0.579872,1.109763,-0.007184,0.726820,0.395198,0.021984,0.146022,-2.356133,0.152576,0.985695,3.958332,3.048564,0.040243,-0.074120,0.000000,-0.239088,-0.015975,-0.000000
1.100000,-2.536549,-1.593975,-1.496491,0.587147,1.113597,-0.006957,0.728330,0.371835,0.023662,0.155666,-2.316258,0.183121,0.941130,4.010855,3.061188,0.037872,-0.074286,0.000000,-0.235032,-0.017191,0.000000
1.110000,-2.530641,-1.582821,-1.496559,0.594438,1.117199,-0.006711,0.729934,0.348873,0.025646,0.164844,-2.275916,0.213799,0.891154,4.053097,3.057574,0.035542,-0.074464,0.000000,-0.230943,-0.018364,0.000000
1.120000,-2.524660,-1.571631,-1.496625,0.601746,1.120574,-0.006444,0.731627,0.326317,0.027938,0.173489,-2.235196,0.244272,0.833431,4.088232,3.010185,0.033253,-0.074654,0.000000,-0.226830,-0.019483,-0.000000
1.130000,-2.518606,-1.560409,-1.496688,0.609071,1.123726,-0.006152,0.733403,0.304169,0.030532,0.181513,-2.194152,0.274003,0.768654,4.116456,2.926484,0.031006,-0.074854,0.000000,-0.222699,-0.020536,-0.000000
1.140000,-2.512479,-1.549157,-1.496748,0.616414,1.126658,-0.005833,0.735257,0.282433,0.033418,0.188862,-2.152867,0.302802,0.700197,4.134189,2.842311,0.028799,-0.075065,0.000000,-0.218559,-0.021516,-0.000000
1.150000,-2.506278,-1.537876,-1.496805,0.623776,1.129374,-0.005484,0.737181,0.261112,0.036588,0.195517,-2.111468,0.330849,0.629127,4.140515,2.766992,0.026635,-0.075285,0.000000,-0.214421,-0.022423,-0.000000
1.160000,-2.500003,-1.526569,-1.496858,0.631157,1.131880,-0.005101,0.739167,0.240204,0.040035,0.201445,-2.070057,0.358142,0.553389,4.138398,2.676419,0.024511,-0.075513,0.000000,-0.210294,-0.023252,0.000000
1.170000,-2.493655,-1.515239,-1.496907,0.638559,1.134178,-0.004683,0.741209,0.219711,0.043751,0.206585,-2.028700,0.384378,0.470934,4.130910,2.548833,0.022429,-0.075750,0.000000,-0.206184,-0.023996,0.000000
1.180000,-2.487232,-1.503886,-1.496951,0.645982,1.136274,-0.004226,0.743299,0.199630,0.047722,0.210863,-1.987439,0.409119,0.382533,4.117525,2.391799,0.020387,-0.075993,0.000000,-0.202096,-0.024643,0.000000
1.190000,-2.480735,-1.492513,-1.496991,0.653425,1.138171,-0.003729,0.745427,0.179962,0.051933,0.214235,-1.946349,0.432214,0.291234,4.094877,2.234314,0.018387,-0.076243,0.000000,-0.198035,-0.025187,-0.000000
1.200000,-2.474163,-1.481122,-1.497026,0.660890,1.139873,-0.003188,0.747584,0.160703,0.056367,0.216688,-1.905541,0.453805,0.198139,4.062693,2.083110,0.016427,-0.076497,0.000000,-0.194012,-0.025628,-0.000000
1.210000,-2.467517,-1.469716,-1.497055,0.668377,1.141385,-0.002601,0.749760,0.141851,0.061009,0.218198,-1.865096,0.473876,0.101484,4.023656,1.919512,0.014506,-0.076755,0.000000,-0.190032,-0.025964,0.000000
1.220000,-2.460796,-1.458295,-1.497078,0.675885,1.142710,-0.001968,0.751948,0.123401,0.065844,0.218718,-1.825068,0.492195,-0.000787,3.979062,1.729466,0.012626,-0.077016,0.000000,-0.186102,-0.026186,0.000000
1.230000,-2.453999,-1.446861,-1.497094,0.683416,1.143853,-0.001284,0.754135,0.105350,0.070853,0.218182,-1.785514,0.508465,-0.107932,3.928240,1.519728,0.010784,-0.077279,0.000000,-0.182224,-0.026286,-0.000000
1.240000,-2.447128,-1.435418,-1.497103,0.690968,1.144817,-0.000550,0.756311,0.087691,0.076014,0.216559,-1.746503,0.522590,-0.216822,3.870204,1.309787,0.008981,-0.077542,0.000000,-0.178406,-0.026260,-0.000000
1.250000,-2.440180,-1.423965,-1.497105,0.698542,1.145607,0.000236,0.758466,0.070419,0.081305,0.213846,-1.708110,0.534661,-0.326315,3.805834,1.103240,0.007216,-0.077804,0.000000,-0.174652,-0.026106,-0.000000
1.260000,-2.433157,-1.412506,-1.497099,0.706137,1.146226,0.001076,0.760588,0.053529,0.086707,0.210033,-1.670387,0.544654,-0.438143,3.736093,0.888467,0.005488,-0.078064,0.000000,-0.170968,-0.025824,-0.000000
1.270000,-2.426057,-1.401041,-1.497084,0.713754,1.146677,0.001970,0.762667,0.037012,0.092198,0.205083,-1.633388,0.552430,-0.554459,3.659360,0.659970,0.003797,-0.078321,0.000000,-0.167356,-0.025409,0.000000
1.280000,-2.418882,-1.389572,-1.497059,0.721391,1.146966,0.002920,0.764690,0.020861,0.097755,0.198944,-1.597199,0.557854,-0.674498,3.575403,0.422953,0.002141,-0.078573,0.000000,-0.163825,-0.024852,0.000000
1.290000,-2.411630,-1.378101,-1.497025,0.729048,1.147095,0.003925,0.766646,0.005068,0.103355,0.191593,-1.561880,0.560889,-0.794846,3.487102,0.186143,0.000520,-0.078818,0.000000,-0.160380,-0.024152,0.000000
1.300000,-2.404301,-1.366630,-1.496981,0.736724,1.147067,0.004987,0.768522,-0.010377,0.108973,0.183047,-1.527457,0.561577,-0.914428,3.396012,-0.050006,-0.001066,-0.079056,0.000000,-0.157021,-0.023308,0.000000
1.310000,-2.396895,-1.355160,-1.496926,0.744418,1.146887,0.006105,0.770306,-0.025481,0.114587,0.173305,-1.493960,0.559889,-1.035103,3.300501,-0.289489,-0.002620,-0.079284,0.000000,-0.153751,-0.022322,-0.000000
1.320000,-2.389412,-1.343692,-1.496859,0.752130,1.146558,0.007278,0.771988,-0.040256,0.120171,0.162345,-1.461447,0.555787,-1.158573,3.197687,-0.529622,-0.004141,-0.079502,0.000000,-0.150574,-0.021189,-0.000000
1.330000,-2.381852,-1.332229,-1.496780,0.759858,1.146082,0.008508,0.773553,-0.054710,0.125702,0.150133,-1.430006,0.549297,-1.283923,3.088188,-0.767164,-0.005631,-0.079708,0.000000,-0.147499,-0.019906,-0.000000
1.340000,-2.374215,-1.320771,-1.496689,0.767601,1.145463,0.009792,0.774990,-0.068856,0.131157,0.136666,-1.399684,0.540444,-1.408290,2.976486,-1.003908,-0.007091,-0.079900,0.000000,-0.144530,-0.018472,0.000000
1.350000,-2.366500,-1.309320,-1.496584,0.775358,1.144705,0.011131,0.776287,-0.082704,0.136511,0.121967,-1.370477,0.529219,-1.531100,2.864547,-1.242272,-0.008522,-0.080077,0.000000,-0.141664,-0.016889,0.000000
1.360000,-2.358708,-1.297877,-1.496466,0.783127,1.143809,0.012523,0.777430,-0.096266,0.141741,0.106044,-1.342393,0.515598,-1.653787,2.749729,-1.479035,-0.009925,-0.080238,0.000000,-0.138902,-0.015158,-0.000000
1.370000,-2.350838,-1.286443,-1.496334,0.790906,1.142780,0.013966,0.778408,-0.109552,0.146823,0.088892,-1.315482,0.499638,-1.776513,2.628144,-1.704493,-0.011300,-0.080380,0.000000,-0.136249,-0.013277,-0.000000
1.380000,-2.342890,-1.275021,-1.496187,0.798695,1.141618,0.015459,0.779208,-0.122575,0.151734,0.070514,-1.289830,0.481508,-1.898399,2.500800,-1.917505,-0.012649,-0.080503,0.000000,-0.133712,-0.011249,-0.000000
1.390000,-2.334864,-1.263611,-1.496024,0.806490,1.140328,0.017001,0.779818,-0.135348,0.156453,0.050924,-1.265466,0.461288,-2.018650,2.373593,-2.129087,-0.013974,-0.080605,0.000000,-0.131294,-0.009075,0.000000
1.400000,-2.326760,-1.252214,-1.495847,0.814291,1.138911,0.018588,0.780226,-0.147884,0.160960,0.030141,-1.242358,0.438927,-2.136713,2.248674,-2.343949,-0.015275,-0.080685,0.000000,-0.128992,-0.006757,0.000000
1.410000,-2.318578,-1.240833,-1.495653,0.822095,1.137370,0.020220,0.780421,-0.160196,0.165232,0.008189,-1.220493,0.414409,-2.252584,2.122564,-2.552758,-0.016554,-0.080741,0.000000,-0.126803,-0.004297,0.000000
1.420000,-2.310318,-1.229467,-1.495442,0.829899,1.135707,0.021893,0.780390,-0.172294,0.169248,-0.014911,-1.199907,0.387871,-2.366846,1.991226,-2.740695,-0.017811,-0.080771,0.000000,-0.124731,-0.001699,-0.000000
1.430000,-2.301980,-1.218119,-1.495215,0.837703,1.133924,0.023605,0.780122,-0.184194,0.172989,-0.039148,-1.180668,0.359595,-2.479114,1.856154,-2.908644,-0.019049,-0.080775,0.000000,-0.122782,0.001035,0.000000
1.440000,-2.293564,-1.206789,-1.494970,0.845502,1.132023,0.025353,0.779607,-0.195908,0.176440,-0.064493,-1.162784,0.329699,-2.587758,1.723505,-3.074520,-0.020267,-0.080750,0.000000,-0.120958,0.003899,-0.000000
1.450000,-2.285070,-1.195478,-1.494708,0.853295,1.130006,0.027134,0.778833,-0.207449,0.179583,-0.090903,-1.146198,0.298105,-2.692325,1.594606,-3.244496,-0.021468,-0.080697,0.000000,-0.119253,0.006889,-0.000000
1.460000,-2.276498,-1.184188,-1.494427,0.861079,1.127875,0.028944,0.777789,-0.218832,0.182402,-0.118340,-1.130891,0.264809,-2.793448,1.465991,-3.404910,-0.022652,-0.080612,0.000000,-0.117663,0.010002,-0.000000
1.470000,-2.267849,-1.172921,-1.494129,0.868851,1.125630,0.030782,0.776466,-0.230067,0.184879,-0.146772,-1.116878,0.230006,-2.891049,1.336214,-3.538192,-0.023821,-0.080496,0.000000,-0.116191,0.013231,0.000000
1.480000,-2.259121,-1.161676,-1.493812,0.876608,1.123273,0.032642,0.774853,-0.241169,0.187002,-0.176161,-1.104167,0.194045,-2.984233,1.207093,-3.646926,-0.024976,-0.080348,0.000000,-0.114838,0.016570,-0.000000
1.490000,-2.250316,-1.150455,-1.493476,0.884348,1.120806,0.034522,0.772943,-0.252151,0.188760,-0.206456,-1.092736,0.157068,-3.072315,1.081292,-3.752967,-0.026118,-0.080165,0.000000,-0.113602,0.020011,-0.000000
1.500000,-2.241434,-1.139260,-1.493121,0.892067,1.118230,0.036417,0.770724,-0.263024,0.190143,-0.237607,-1.082541,0.118986,-3.156754,0.958787,-3.862997,-0.027248,-0.079947,0.000000,-0.112478,0.023549,0.000000
1.510000,-2.232475,-1.128091,-1.492748,0.899762,1.115546,0.038324,0.768190,-0.273801,0.191140,-0.269591,-1.073561,0.079808,-3.237370,0.838645,-3.961159,-0.028367,-0.079694,0.000000,-0.111463,0.027180,-0.000000
1.520000,-2.223439,-1.116949,-1.492355,0.907431,1.112754,0.040240,0.765333,-0.284495,0.191740,-0.302354,-1.065768,0.039762,-3.308576,0.722633,-4.029606,-0.029477,-0.079403,0.000000,-0.110556,0.030897,0.000000
1.530000,-2.214327,-1.105836,-1.491943,0.915069,1.109856,0.042159,0.762143,-0.295117,0.191935,-0.335763,-1.059108,-0.000784,-3.369624,0.611943,-4.072116,-0.030578,-0.079076,0.000000,-0.109751,0.034682,-0.000000
1.540000,-2.205138,-1.094752,-1.491512,0.922673,1.106852,0.044079,0.758617,-0.305677,0.191724,-0.369747,-1.053530,-0.041680,-3.427563,0.505060,-4.111344,-0.031672,-0.078710,0.000000,-0.109045,0.038525,0.000000
1.550000,-2.195873,-1.083698,-1.491061,0.930241,1.103742,0.045994,0.754748,-0.316187,0.191102,-0.404314,-1.049007,-0.083011,-3.484231,0.400652,-4.153637,-0.032759,-0.078305,0.000000,-0.108433,0.042426,-0.000000
1.560000,-2.186533,-1.072677,-1.490592,0.937768,1.100528,0.047901,0.750531,-0.326657,0.190064,-0.439431,-1.045517,-0.124753,-3.534297,0.300640,-4.183127,-0.033841,-0.077861,0.000000,-0.107913,0.046382,0.000000
1.570000,-2.177118,-1.061688,-1.490103,0.945252,1.097209,0.049795,0.745960,-0.337098,0.188607,-0.475000,-1.042994,-0.166674,-3.573003,0.210003,-4.183805,-0.034917,-0.077377,0.000000,-0.107480,0.050379,-0.000000
1.580000,-2.167628,-1.050733,-1.489596,0.952688,1.093786,0.051673,0.741031,-0.347517,0.186730,-0.510891,-1.041316,-0.208429,-3.601558,0.129157,-4.160035,-0.035990,-0.076852,0.000000,-0.107121,0.054399,-0.000000
1.590000,-2.158064,-1.039812,-1.489070,0.960072,1.090259,0.053530,0.735742,-0.357924,0.184438,-0.547031,-1.040411,-0.249874,-3.625565,0.052283,-4.132513,-0.037060,-0.076288,0.000000,-0.106830,0.058434,-0.000000
1.600000,-2.148426,-1.028927,-1.488525,0.967402,1.086628,0.055362,0.730090,-0.368326,0.181733,-0.583403,-1.040271,-0.291079,-3.646265,-0.023247,-4.106546,-0.038127,-0.075683,0.000000,-0.106607,0.062480,0.000000
1.610000,-2.138716,-1.018080,-1.487963,0.974674,1.082892,0.057164,0.724074,-0.378729,0.178616,-0.619957,-1.040876,-0.332005,-3.659493,-0.092643,-4.068135,-0.039192,-0.075037,0.000000,-0.106448,0.066532,0.000000
1.620000,-2.128933,-1.007270,-1.487382,0.981884,1.079053,0.058934,0.717691,-0.389143,0.175093,-0.656593,-1.042124,-0.372442,-3.661526,-0.148010,-4.004725,-0.040256,-0.074351,0.000000,-0.106345,0.070578,0.000000
1.630000,-2.119078,-0.996499,-1.486784,0.989028,1.075109,0.060666,0.710942,-0.399572,0.171168,-0.693187,-1.043836,-0.412100,-3.653164,-0.189845,-3.920648,-0.041319,-0.073625,0.000000,-0.106280,0.074600,0.000000
1.640000,-2.109152,-0.985767,-1.486169,0.996103,1.071062,0.062357,0.703827,-0.410020,0.166851,-0.729656,-1.045921,-0.450855,-3.638860,-0.227943,-3.832516,-0.042381,-0.072858,0.000000,-0.106245,0.078589,0.000000
1.650000,-2.099156,-0.975077,-1.485537,1.003105,1.066909,0.064003,0.696349,-0.420490,0.162151,-0.765964,-1.048395,-0.488750,-3.620951,-0.266034,-3.744169,-0.043443,-0.072052,0.000000,-0.106240,0.082540,0.000000
1.660000,-2.089090,-0.964429,-1.484889,1.010030,1.062652,0.065600,0.688508,-0.430988,0.157076,-0.802075,-1.051241,-0.525738,-3.596064,-0.296799,-3.644815,-0.044506,-0.071206,0.000000,-0.106266,0.086450,-0.000000
1.670000,-2.078956,-0.953824,-1.484225,1.016875,1.058289,0.067145,0.680307,-0.441515,0.151636,-0.837886,-1.054331,-0.561646,-3.557390,-0.310024,-3.526293,-0.045569,-0.070321,0.000000,-0.106310,0.090306,-0.000000
1.680000,-2.068753,-0.943263,-1.483546,1.023636,1.053821,0.068633,0.671750,-0.452074,0.145843,-0.873223,-1.057442,-0.596264,-3.505493,-0.307128,-3.392408,-0.046632,-0.069398,0.000000,-0.106350,0.094088,-0.000000
1.690000,-2.058483,-0.932748,-1.482852,1.030310,1.049248,0.070062,0.662843,-0.462664,0.139711,-0.907995,-1.060473,-0.629495,-3.449369,-0.301143,-3.254329,-0.047696,-0.068437,0.000000,-0.106377,0.097786,-0.000000
1.700000,-2.048147,-0.922279,-1.482145,1.036893,1.044568,0.071427,0.653591,-0.473284,0.133253,-0.942210,-1.063465,-0.661351,-3.391436,-0.296496,-3.114341,-0.048760,-0.067440,0.000000,-0.106395,0.101401,0.000000
1.710000,-2.037745,-0.911857,-1.481424,1.043382,1.039782,0.072727,0.643999,-0.483933,0.126483,-0.975824,-1.066403,-0.691781,-3.325369,-0.283978,-2.965728,-0.049824,-0.066407,0.000000,-0.106404,0.104928,-0.000000
1.720000,-2.027279,-0.901483,-1.480690,1.049773,1.034890,0.073957,0.634074,-0.494612,0.119417,-1.008717,-1.069144,-0.720665,-3.245511,-0.252335,-2.804628,-0.050888,-0.065339,0.000000,-0.106391,0.108354,0.000000
1.730000,-2.016750,-0.891159,-1.479945,1.056063,1.029890,0.075115,0.623824,-0.505316,0.112070,-1.040734,-1.071450,-0.747874,-3.153646,-0.203833,-2.633910,-0.051951,-0.064237,0.000000,-0.106331,0.111662,0.000000
1.740000,-2.006158,-0.880885,-1.479188,1.062249,1.024783,0.076198,0.613259,-0.516041,0.104460,-1.071790,-1.073221,-0.773343,-3.057181,-0.153114,-2.459373,-0.053014,-0.063103,0.000000,-0.106216,0.114845,-0.000000
1.750000,-1.995505,-0.870663,-1.478421,1.068328,1.019569,0.077204,0.602389,-0.526781,0.096603,-1.101878,-1.074512,-0.797061,-2.958259,-0.104649,-2.281744,-0.054076,-0.061937,0.000000,-0.106054,0.117901,0.000000
1.760000,-1.984791,-0.860494,-1.477644,1.074297,1.014248,0.078130,0.591222,-0.537531,0.088519,-1.130956,-1.075314,-0.818978,-2.851865,-0.048445,-2.098137,-0.055135,-0.060741,0.000000,-0.105842,0.120828,-0.000000
1.770000,-1.974019,-0.850378,-1.476858,1.080153,1.008819,0.078975,0.579770,-0.548287,0.080224,-1.158915,-1.075481,-0.839024,-2.732858,0.026251,-1.908700,-0.056192,-0.059517,0.000000,-0.105570,0.123614,-0.000000
1.780000,-1.963188,-0.840317,-1.476064,1.085892,1.003282,0.079735,0.568044,-0.559041,0.071738,-1.185613,-1.074789,-0.857152,-2.602714,0.116582,-1.715281,-0.057247,-0.058265,0.000000,-0.105213,0.126245,-0.000000
1.790000,-1.952301,-0.830312,-1.475263,1.091513,0.997638,0.080409,0.556057,-0.569783,0.063081,-1.210970,-1.073149,-0.873330,-2.468361,0.208200,-1.518696,-0.058297,-0.056988,0.000000,-0.104766,0.128714,-0.000000
1.800000,-1.941358,-0.820365,-1.474456,1.097013,0.991886,0.080996,0.543824,-0.580504,0.054271,-1.234980,-1.070625,-0.887526,-2.331787,0.297041,-1.318546,-0.059342,-0.055686,0.000000,-0.104235,0.131023,-0.000000
1.810000,-1.930361,-0.810475,-1.473643,1.102390,0.986028,0.081495,0.531358,-0.591195,0.045330,-1.257605,-1.067209,-0.899701,-2.188453,0.392578,-1.115331,-0.060381,-0.054363,0.000000,-0.103621,0.133167,0.000000
1.820000,-1.919310,-0.800644,-1.472826,1.107641,0.980062,0.081903,0.518672,-0.601848,0.036277,-1.278749,-1.062773,-0.909833,-2.034088,0.503914,-0.912028,-0.061414,-0.053018,0.000000,-0.102913,0.135139,0.000000
1.830000,-1.908208,-0.790874,-1.472005,1.112763,0.973991,0.082220,0.505783,-0.612451,0.027134,-1.298287,-1.057130,-0.917941,-1.870216,0.628013,-0.709509,-0.062440,-0.051655,0.000000,-0.102093,0.136927,-0.000000
1.840000,-1.897055,-0.781164,-1.471182,1.117756,0.967813,0.082446,0.492706,-0.622990,0.017919,-1.316153,-1.050213,-0.924023,-1.702757,0.752395,-0.504926,-0.063456,-0.050274,0.000000,-0.101155,0.138527,-0.000000
1.850000,-1.885853,-0.771517,-1.470356,1.122618,0.961531,0.082579,0.479460,-0.633455,0.008653,-1.332342,-1.042082,-0.928040,-1.533332,0.873620,-0.297130,-0.064463,-0.048879,0.000000,-0.100107,0.139940,-0.000000
1.860000,-1.874602,-0.761934,-1.469530,1.127345,0.955144,0.082619,0.466059,-0.643832,-0.000642,-1.346820,-1.032741,-0.929965,-1.358247,0.999600,-0.089085,-0.065458,-0.047470,0.000000,-0.098950,0.141162,0.000000
1.870000,-1.863306,-0.752414,-1.468704,1.131939,0.948654,0.082566,0.452523,-0.654110,-0.009946,-1.359507,-1.022090,-0.929821,-1.174316,1.137399,0.114595,-0.066442,-0.046049,0.000000,-0.097677,0.142190,-0.000000
1.880000,-1.851964,-0.742961,-1.467879,1.136396,0.942062,0.082420,0.438869,-0.664274,-0.019239,-1.370306,-1.009993,-0.927674,-0.982931,1.284085,0.313915,-0.067412,-0.044620,0.000000,-0.096273,0.143014,0.000000
1.890000,-1.840578,-0.733573,-1.467056,1.140716,0.935369,0.082181,0.425117,-0.674310,-0.028500,-1.379166,-0.996409,-0.923543,-0.788741,1.429580,0.513829,-0.068367,-0.043183,0.000000,-0.094736,0.143631,-0.000000
1.900000,-1.829149,-0.724253,-1.466235,1.144898,0.928576,0.081850,0.411286,-0.684202,-0.037709,-1.386081,-0.981401,-0.917397,-0.593063,1.571678,0.715745,-0.069307,-0.041740,0.000000,-0.093074,0.144044,-0.000000
1.910000,-1.817680,-0.715002,-1.465419,1.148942,0.921685,0.081427,0.397395,-0.693938,-0.046848,-1.391027,-0.964975,-0.909228,-0.393191,1.716351,0.915418,-0.070229,-0.040295,0.000000,-0.091289,0.144250,-0.000000
1.920000,-1.806170,-0.705819,-1.464607,1.152846,0.914697,0.080913,0.383465,-0.703502,-0.055894,-1.393945,-0.947074,-0.899089,-0.186820,1.867047,1.107721,-0.071132,-0.038848,0.000000,-0.089376,0.144247,0.000000
1.930000,-1.794623,-0.696708,-1.463800,1.156611,0.907615,0.080309,0.369517,-0.712879,-0.064829,-1.394763,-0.927634,-0.887074,0.024865,2.021042,1.293169,-0.072016,-0.037403,0.000000,-0.087328,0.144029,0.000000
1.940000,-1.783038,-0.687667,-1.463000,1.160237,0.900439,0.079616,0.355570,-0.722054,-0.073636,-1.393448,-0.906653,-0.873225,0.238214,2.172851,1.477525,-0.072879,-0.035960,0.000000,-0.085147,0.143595,0.000000
1.950000,-1.771418,-0.678699,-1.462208,1.163723,0.893174,0.078836,0.341648,-0.731012,-0.082294,-1.389999,-0.884177,-0.857523,0.452245,2.322102,1.662132,-0.073719,-0.034523,0.000000,-0.082839,0.142947,0.000000
1.960000,-1.759764,-0.669804,-1.461424,1.167069,0.885819,0.077970,0.327770,-0.739738,-0.090786,-1.384403,-0.860211,-0.839983,0.668916,2.471454,1.842296,-0.074536,-0.033093,0.000000,-0.080404,0.142084,-0.000000
1.970000,-1.748077,-0.660982,-1.460649,1.170278,0.878379,0.077021,0.313960,-0.748216,-0.099094,-1.376621,-0.834748,-0.820677,0.889496,2.619557,2.013323,-0.075327,-0.031673,0.000000,-0.077843,0.141006,0.000000
1.980000,-1.736358,-0.652236,-1.459883,1.173349,0.870855,0.075989,0.300238,-0.756433,-0.107200,-1.366613,-0.807820,-0.799716,1.112908,2.764497,2.176018,-0.076093,-0.030265,0.000000,-0.075158,0.139710,0.000000
1.990000,-1.724610,-0.643565,-1.459129,1.176283,0.863250,0.074877,0.286627,-0.764373,-0.115088,-1.354363,-0.779458,-0.777157,1.336780,2.907016,2.335695,-0.076831,-0.028871,0.000000,-0.072353,0.138195,0.000000
2.000000,-1.712833,-0.634971,-1.458386,1.179081,0.855567,0.073687,0.273151,-0.772022,-0.122743,-1.339877,-0.749680,-0.753002,1.560685,3.048033,2.493579,-0.077540,-0.027493,0.000000,-0.069430,0.136465,0.000000
2.010000,-1.701028,-0.626454,-1.457655,1.181746,0.847810,0.072422,0.259830,-0.779366,-0.130148,-1.323149,-0.718498,-0.727285,1.785630,3.185949,2.645417,-0.078219,-0.026133,0.000000,-0.066392,0.134519,0.000000
2.020000,-1.689198,-0.618015,-1.456937,1.184278,0.839980,0.071084,0.246688,-0.786392,-0.137288,-1.304165,-0.685961,-0.700094,2.011324,3.316495,2.787092,-0.078868,-0.024794,0.000000,-0.063241,0.132359,0.000000
2.030000,-1.677343,-0.609654,-1.456233,1.186679,0.832082,0.069676,0.233746,-0.793086,-0.144150,-1.282922,-0.652168,-0.671544,2.236971,3.439115,2.919409,-0.079484,-0.023478,0.000000,-0.059989,0.129984,-0.000000
2.040000,-1.665464,-0.601373,-1.455544,1.188953,0.824118,0.068201,0.221029,-0.799435,-0.150719,-1.259425,-0.617178,-0.641706,2.462250,3.558344,3.046984,-0.080067,-0.022186,0.000000,-0.056640,0.127396,0.000000
2.050000,-1.653564,-0.593172,-1.454869,1.191100,0.816093,0.066662,0.208558,-0.805429,-0.156984,-1.233677,-0.581001,-0.610604,2.686598,3.675541,3.170828,-0.080617,-0.020922,0.000000,-0.053194,0.124598,-0.000000
2.060000,-1.641642,-0.585051,-1.454211,1.193124,0.808010,0.065061,0.196356,-0.811055,-0.162931,-1.205693,-0.543668,-0.578289,2.909624,3.786594,3.287314,-0.081131,-0.019686,0.000000,-0.049656,0.121590,0.000000
2.070000,-1.629701,-0.577012,-1.453568,1.195027,0.799872,0.063403,0.184444,-0.816302,-0.168550,-1.175485,-0.505269,-0.544858,3.131831,3.886295,3.392988,-0.081610,-0.018482,0.000000,-0.046032,0.118375,0.000000
2.080000,-1.617742,-0.569054,-1.452943,1.196813,0.791684,0.061690,0.172846,-0.821161,-0.173828,-1.143057,-0.465942,-0.510429,3.354181,3.972839,3.488542,-0.082052,-0.017311,0.000000,-0.042336,0.114953,0.000000
2.090000,-1.605765,-0.561178,-1.452334,1.198484,0.783449,0.059926,0.161583,-0.825621,-0.178758,-1.108401,-0.425812,-0.475087,3.574771,4.052556,3.577874,-0.082457,-0.016175,0.000000,-0.038579,0.111326,-0.000000
2.100000,-1.593772,-0.553385,-1.451744,1.200044,0.775171,0.058115,0.150678,-0.829677,-0.183330,-1.071561,-0.384890,-0.438872,3.783799,4.143021,3.661980,-0.082824,-0.015077,0.000000,-0.034760,0.107496,-0.000000
2.110000,-1.581764,-0.545675,-1.451172,1.201498,0.766855,0.056260,0.140152,-0.833319,-0.187536,-1.032725,-0.342952,-0.401847,3.982662,4.237845,3.737824,-0.083152,-0.014018,0.000000,-0.030857,0.103482,-0.000000
2.120000,-1.569742,-0.538048,-1.450619,1.202847,0.758505,0.054364,0.130023,-0.836536,-0.191367,-0.991908,-0.300134,-0.364115,4.197574,4.285843,3.802077,-0.083441,-0.013000,0.000000,-0.026882,0.099287,-0.000000
2.130000,-1.557707,-0.530505,-1.450085,1.204098,0.750125,0.052432,0.120314,-0.839322,-0.194818,-0.948774,-0.257235,-0.325806,4.425816,4.290371,3.855236,-0.083690,-0.012025,0.000000,-0.022912,0.094876,-0.000000
2.140000,-1.545660,-0.523045,-1.449570,1.205254,0.741719,0.050468,0.111048,-0.841681,-0.197883,-0.903392,-0.214326,-0.287011,4.630867,4.320136,3.901229,-0.083899,-0.011096,0.000000,-0.018953,0.090256,-0.000000
2.150000,-1.533602,-0.515670,-1.449075,1.206319,0.733291,0.048475,0.102246,-0.843608,-0.200558,-0.856157,-0.170832,-0.247781,4.827420,4.357375,3.941389,-0.084069,-0.010213,0.000000,-0.014946,0.085466,0.000000
2.160000,-1.521534,-0.508380,-1.448601,1.207299,0.724846,0.046457,0.093925,-0.845097,-0.202839,-0.806843,-0.127179,-0.208183,5.037670,4.357640,3.972700,-0.084198,-0.009380,0.000000,-0.010932,0.080483,-0.000000
2.170000,-1.509456,-0.501173,-1.448146,1.208198,0.716389,0.044418,0.086109,-0.846152,-0.204722,-0.755403,-0.083679,-0.168327,5.208937,4.387022,3.991199,-0.084288,-0.008598,0.000000,-0.006941,0.075300,0.000000
2.180000,-1.497370,-0.494052,-1.447712,1.209021,0.707923,0.042362,0.078817,-0.846771,-0.206205,-0.702664,-0.039438,-0.128359,5.331812,4.461914,3.997382,-0.084337,-0.007869,0.000000,-0.002880,0.070000,-0.000000
2.190000,-1.485275,-0.487015,-1.447299,1.209774,0.699454,0.040294,0.072056,-0.846941,-0.207289,-0.648767,0.005559,-0.088379,5.479579,4.487462,3.996176,-0.084345,-0.007193,0.000000,0.001252,0.064594,0.000000
2.200000,-1.473174,-0.480063,-1.446906,1.210462,0.690985,0.038216,0.065841,-0.846660,-0.207973,-0.593073,0.050311,-0.048435,5.652648,4.464179,3.989472,-0.084312,-0.006572,0.000000,0.005359,0.059020,-0.000000
2.210000,-1.461066,-0.473195,-1.446535,1.211091,0.682520,0.036134,0.060194,-0.845934,-0.208258,-0.535714,0.094843,-0.008590,5.801267,4.455383,3.973642,-0.084238,-0.006008,0.000000,0.009445,0.053287,0.000000
2.220000,-1.448952,-0.466412,-1.446184,1.211666,0.674066,0.034051,0.055127,-0.844763,-0.208145,-0.477048,0.139419,0.031037,5.943268,4.430443,3.943522,-0.084123,-0.005503,0.000000,0.013537,0.047432,-0.000000
2.230000,-1.436833,-0.459714,-1.445854,1.212193,0.665625,0.031971,0.050653,-0.843146,-0.207637,-0.416849,0.183451,0.070280,6.098702,4.361645,3.899783,-0.083967,-0.005056,0.000000,0.017580,0.041428,0.000000
2.240000,-1.424708,-0.453100,-1.445544,1.212679,0.657203,0.029899,0.046790,-0.841094,-0.206739,-0.355074,0.226652,0.109033,6.237617,4.296948,3.849122,-0.083771,-0.004671,0.000000,0.021547,0.035272,0.000000
2.250000,-1.412579,-0.446570,-1.445256,1.213129,0.648803,0.027837,0.043552,-0.838613,-0.205456,-0.292096,0.269390,0.147263,6.339604,4.270915,3.794337,-0.083536,-0.004348,0.000000,0.025477,0.028999,-0.000000
2.260000,-1.400446,-0.440124,-1.444988,1.213550,0.640431,0.025789,0.040948,-0.835706,-0.203794,-0.228281,0.312070,0.184920,6.426478,4.247561,3.730694,-0.083262,-0.004089,0.000000,0.029410,0.022642,-0.000000
2.270000,-1.388308,-0.433761,-1.444740,1.213948,0.632089,0.023761,0.038986,-0.832372,-0.201758,-0.163567,0.354342,0.221877,6.542496,4.146050,3.650956,-0.082948,-0.003894,0.000000,0.033314,0.016195,-0.000000
2.280000,-1.376167,-0.427482,-1.444512,1.214330,0.623783,0.021754,0.037677,-0.828619,-0.199356,-0.097432,0.394991,0.257939,6.678177,3.980374,3.556104,-0.082596,-0.003764,0.000000,0.037072,0.009604,-0.000000
2.290000,-1.364022,-0.421286,-1.444305,1.214702,0.615517,0.019774,0.037037,-0.824472,-0.196599,-0.030003,0.433949,0.292999,6.774181,3.858051,3.455849,-0.082207,-0.003701,0.000000,0.040676,0.002880,-0.000000
2.300000,-1.351873,-0.415172,-1.444117,1.215070,0.607294,0.017822,0.037077,-0.819940,-0.193496,0.038052,0.472152,0.327056,6.846058,3.758046,3.354104,-0.081782,-0.003706,0.000000,0.044223,-0.003912,0.000000
2.310000,-1.339720,-0.409140,-1.443948,1.215443,0.599118,0.015904,0.037799,-0.815029,-0.190058,0.106918,0.509110,0.360081,6.930906,3.611424,3.244234,-0.081322,-0.003780,0.000000,0.047662,-0.010792,-0.000000
2.320000,-1.327564,-0.403189,-1.443799,1.215826,0.590993,0.014021,0.039215,-0.809758,-0.186295,0.176670,0.544380,0.391941,6.970994,3.500303,3.116691,-0.080829,-0.003923,0.000000,0.050953,-0.017769,-0.000000
2.330000,-1.315404,-0.397320,-1.443668,1.216227,0.582923,0.012178,0.041332,-0.804141,-0.182219,0.246338,0.579116,0.422415,6.951325,3.449998,2.973132,-0.080303,-0.004136,0.000000,0.054211,-0.024747,0.000000
2.340000,-1.303239,-0.391531,-1.443555,1.216653,0.574910,0.010377,0.044142,-0.798176,-0.177847,0.315697,0.613380,0.451403,6.953218,3.343012,2.826598,-0.079744,-0.004420,0.000000,0.057445,-0.031706,0.000000
2.350000,-1.291071,-0.385822,-1.443460,1.217110,0.566959,0.008621,0.047646,-0.791874,-0.173191,0.385402,0.645976,0.478947,6.978705,3.184710,2.681787,-0.079154,-0.004773,0.000000,0.060534,-0.038712,0.000000
2.360000,-1.278897,-0.380192,-1.443383,1.217606,0.559073,0.006913,0.051850,-0.785256,-0.168268,0.455271,0.677075,0.505039,6.972196,3.054419,2.530025,-0.078534,-0.005196,0.000000,0.063496,-0.045747,-0.000000
2.370000,-1.266719,-0.374640,-1.443322,1.218147,0.551254,0.005256,0.056751,-0.778332,-0.163090,0.524846,0.707065,0.529547,6.950211,2.901042,2.360560,-0.077884,-0.005690,0.000000,0.066372,-0.052766,0.000000
2.380000,-1.254534,-0.369167,-1.443278,1.218741,0.543506,0.003651,0.062347,-0.771115,-0.157677,0.594275,0.735095,0.552250,6.932709,2.692704,2.175957,-0.077206,-0.006255,0.000000,0.069076,-0.059786,0.000000
2.390000,-1.242344,-0.363770,-1.443249,1.219394,0.535832,0.002102,0.068637,-0.763630,-0.152045,0.663500,0.760919,0.573066,6.891341,2.508086,1.991049,-0.076503,-0.006890,0.000000,0.071585,-0.066800,-0.000000
2.400000,-1.230146,-0.358450,-1.443236,1.220114,0.528234,0.000610,0.075617,-0.755896,-0.146215,0.732102,0.785257,0.592071,6.820031,2.375341,1.810673,-0.075775,-0.007595,0.000000,0.073970,-0.073767,0.000000
2.410000,-1.217942,-0.353205,-1.443237,1.220906,0.520714,-0.000822,0.083279,-0.747925,-0.140204,0.799901,0.808426,0.609280,6.738344,2.239455,1.625291,-0.075023,-0.008369,0.000000,0.076262,-0.080670,0.000000
2.420000,-1.205728,-0.348036,-1.443252,1.221779,0.513275,-0.002194,0.091615,-0.739728,-0.134030,0.866869,0.830046,0.624577,6.648734,2.049461,1.424506,-0.074249,-0.009213,0.000000,0.078422,-0.087504,-0.000000
2.430000,-1.193506,-0.342940,-1.443281,1.222739,0.505919,-0.003503,0.100616,-0.731324,-0.127712,0.932876,0.849415,0.637770,6.542987,1.823855,1.211537,-0.073455,-0.010124,0.000000,0.080382,-0.094257,-0.000000
2.440000,-1.181274,-0.337917,-1.443322,1.223792,0.498649,-0.004748,0.110272,-0.722740,-0.121274,0.997728,0.866523,0.648808,6.419047,1.629819,1.001002,-0.072642,-0.011103,0.000000,0.082139,-0.100909,-0.000000
2.450000,-1.169030,-0.332967,-1.443376,1.224944,0.491465,-0.005928,0.120571,-0.713994,-0.114736,1.061257,0.882011,0.657790,6.284631,1.472480,0.797017,-0.071812,-0.012148,0.000000,0.083756,-0.107442,0.000000
2.460000,-1.156775,-0.328088,-1.443441,1.226203,0.484369,-0.007043,0.131497,-0.705099,-0.108119,1.123421,0.895973,0.664748,6.139749,1.308984,0.590564,-0.070966,-0.013258,0.000000,0.085241,-0.113851,0.000000
2.470000,-1.144506,-0.323279,-1.443517,1.227574,0.477363,-0.008091,0.143039,-0.696074,-0.101441,1.184052,0.908191,0.669601,5.963019,1.136872,0.373661,-0.070107,-0.014431,0.000000,0.086572,-0.120117,-0.000000
2.480000,-1.132223,-0.318541,-1.443603,1.229064,0.470447,-0.009072,0.155179,-0.686936,-0.094727,1.242681,0.918710,0.672221,5.750303,0.983371,0.149843,-0.069235,-0.015666,0.000000,0.087752,-0.126193,0.000000
2.490000,-1.119925,-0.313871,-1.443698,1.230678,0.463624,-0.009985,0.167893,-0.677700,-0.087997,1.299058,0.927858,0.672598,5.531326,0.848410,-0.069170,-0.068352,-0.016961,0.000000,0.088814,-0.132050,-0.000000
2.500000,-1.107610,-0.309268,-1.443802,1.232422,0.456893,-0.010832,0.181160,-0.668378,-0.081275,1.353308,0.935678,0.670838,5.331004,0.654051,-0.280929,-0.067459,-0.018313,0.000000,0.089759,-0.137700,0.000000
2.510000,-1.095276,-0.304733,-1.443915,1.234301,0.450256,-0.011611,0.194959,-0.658986,-0.074580,1.405678,0.940939,0.666980,5.127297,0.409252,-0.492146,-0.066557,-0.019721,0.000000,0.090463,-0.143167,0.000000
2.520000,-1.082924,-0.300263,-1.444035,1.236321,0.443714,-0.012323,0.209273,-0.649560,-0.067935,1.455854,0.943864,0.660995,4.854856,0.337100,-0.705983,-0.065649,-0.021183,0.000000,0.090946,-0.148415,-0.000000
2.530000,-1.070550,-0.295858,-1.444161,1.238486,0.437265,-0.012969,0.224076,-0.640109,-0.061360,1.502775,0.947681,0.652860,4.521229,0.434737,-0.919076,-0.064738,-0.022696,0.000000,0.091532,-0.153336,0.000000
2.540000,-1.058154,-0.291518,-1.444294,1.240802,0.430911,-0.013550,0.239329,-0.630606,-0.054878,1.546279,0.952558,0.642613,4.214730,0.398296,-1.125961,-0.063819,-0.024256,0.000000,0.092238,-0.157911,-0.000000
2.550000,-1.045734,-0.287240,-1.444432,1.243273,0.424653,-0.014067,0.255002,-0.621058,-0.048508,1.587069,0.955647,0.630341,3.929573,0.260668,-1.326900,-0.062893,-0.025860,0.000000,0.092774,-0.162209,-0.000000
2.560000,-1.033288,-0.283025,-1.444575,1.245902,0.418490,-0.014521,0.271070,-0.611493,-0.042271,1.624870,0.957772,0.616075,3.608443,0.221271,-1.524106,-0.061963,-0.027507,0.000000,0.093222,-0.166198,0.000000
2.570000,-1.020816,-0.278870,-1.444723,1.248694,0.412423,-0.014912,0.287499,-0.601902,-0.036187,1.659238,0.960073,0.599859,3.287417,0.114272,-1.713627,-0.061029,-0.029191,0.000000,0.093697,-0.169833,0.000000
2.580000,-1.008315,-0.274776,-1.444874,1.251652,0.406452,-0.015244,0.304255,-0.592292,-0.030274,1.690618,0.960057,0.581803,2.989849,-0.141683,-1.893008,-0.060089,-0.030910,0.000000,0.093943,-0.173155,-0.000000
2.590000,-0.995783,-0.270741,-1.445027,1.254779,0.400577,-0.015518,0.321311,-0.582701,-0.024550,1.719035,0.957239,0.561998,2.662304,-0.300884,-2.066234,-0.059150,-0.032660,0.000000,0.093910,-0.176166,0.000000
2.600000,-0.983219,-0.266765,-1.445184,1.258079,0.394798,-0.015735,0.338636,-0.573147,-0.019034,1.743864,0.954039,0.540478,2.290915,-0.301803,-2.236723,-0.058211,-0.034439,0.000000,0.093842,-0.178798,0.000000
2.610000,-0.970621,-0.262845,-1.445342,1.261552,0.389114,-0.015899,0.356189,-0.563621,-0.013741,1.764854,0.951203,0.517264,1.914218,-0.316086,-2.400172,-0.057273,-0.036242,0.000000,0.093813,-0.181025,-0.000000
2.620000,-0.957988,-0.258982,-1.445502,1.265202,0.383526,-0.016010,0.373933,-0.554123,-0.008689,1.782149,0.947718,0.492475,1.554084,-0.437760,-2.545160,-0.056335,-0.038065,0.000000,0.093719,-0.182860,0.000000
2.630000,-0.945317,-0.255175,-1.445662,1.269031,0.378032,-0.016072,0.391832,-0.544666,-0.003891,1.795935,0.942448,0.466361,1.194978,-0.597768,-2.671098,-0.055399,-0.039905,0.000000,0.093442,-0.184319,-0.000000
2.640000,-0.932607,-0.251422,-1.445823,1.273039,0.372632,-0.016088,0.409851,-0.535274,0.000639,1.806048,0.935762,0.439053,0.812086,-0.683027,-2.791946,-0.054466,-0.041757,0.000000,0.093018,-0.185385,-0.000000
2.650000,-0.919856,-0.247722,-1.445984,1.277228,0.367327,-0.016060,0.427953,-0.525951,0.004890,1.812177,0.928787,0.410522,0.429272,-0.770671,-2.913701,-0.053538,-0.043618,0.000000,0.092561,-0.186025,-0.000000
2.660000,-0.907063,-0.244075,-1.446144,1.281598,0.362113,-0.015990,0.446095,-0.516698,0.008849,1.814634,0.920349,0.380779,0.061362,-0.926234,-3.025442,-0.052615,-0.045483,0.000000,0.091951,-0.186269,0.000000
2.670000,-0.894224,-0.240480,-1.446304,1.286150,0.356993,-0.015883,0.464245,-0.507544,0.012505,1.813404,0.910262,0.350013,-0.359938,-0.920992,-3.110147,-0.051699,-0.047349,0.000000,0.091168,-0.186114,-0.000000
2.680000,-0.881340,-0.236935,-1.446462,1.290883,0.351963,-0.015740,0.482363,-0.498493,0.015849,1.807435,0.901929,0.318576,-0.843198,-0.733676,-3.169362,-0.050792,-0.049210,0.000000,0.090554,-0.185454,0.000000
2.690000,-0.868407,-0.233441,-1.446619,1.295797,0.347023,-0.015566,0.500394,-0.489505,0.018877,1.796540,0.895589,0.286626,-1.291263,-0.680834,-3.224679,-0.049888,-0.051062,0.000000,0.090135,-0.184271,0.000000
2.700000,-0.855424,-0.229995,-1.446773,1.300891,0.342172,-0.015363,0.518294,-0.480581,0.021582,1.781610,0.888312,0.254082,-1.682292,-0.713783,-3.284508,-0.048989,-0.052900,0.000000,0.089611,-0.182654,-0.000000
2.710000,-0.842389,-0.226597,-1.446926,1.306163,0.337411,-0.015134,0.536026,-0.471739,0.023958,1.762894,0.881313,0.220936,-2.081679,-0.624185,-3.333131,-0.048096,-0.054720,0.000000,0.089107,-0.180629,-0.000000
2.720000,-0.829301,-0.223247,-1.447076,1.311611,0.332738,-0.014883,0.553552,-0.462955,0.026001,1.739976,0.875829,0.187420,-2.524903,-0.633707,-3.348232,-0.047207,-0.056517,0.000000,0.088747,-0.178153,-0.000000
2.730000,-0.816157,-0.219942,-1.447224,1.317234,0.328152,-0.014614,0.570826,-0.454223,0.027707,1.712396,0.868639,0.153971,-2.984799,-0.812458,-3.333329,-0.046321,-0.058287,0.000000,0.088202,-0.175184,0.000000
2.740000,-0.802956,-0.216684,-1.447368,1.323028,0.323653,-0.014329,0.587800,-0.445582,0.029080,1.680280,0.859579,0.120753,-3.416331,-0.839123,-3.317507,-0.045443,-0.060024,0.000000,0.087453,-0.171735,-0.000000
2.750000,-0.789696,-0.213469,-1.447510,1.328990,0.319240,-0.014032,0.604431,-0.437031,0.030122,1.644070,0.851857,0.087621,-3.844618,-0.757300,-3.308852,-0.044572,-0.061725,0.000000,0.086828,-0.167852,0.000000
2.760000,-0.776376,-0.210299,-1.447649,1.335117,0.314913,-0.013727,0.620681,-0.428545,0.030832,1.603388,0.844433,0.054576,-4.294465,-0.779429,-3.287240,-0.043706,-0.063385,0.000000,0.086222,-0.163498,0.000000
2.770000,-0.762994,-0.207171,-1.447785,1.341404,0.310669,-0.013416,0.636499,-0.420142,0.031213,1.558180,0.836268,0.021876,-4.686737,-0.675176,-3.233576,-0.042848,-0.064998,0.000000,0.085528,-0.158670,0.000000
2.780000,-0.749548,-0.204085,-1.447917,1.347846,0.306510,-0.013102,0.651845,-0.411819,0.031270,1.509653,0.830930,-0.010095,-5.007812,-0.360415,-3.153648,-0.041996,-0.066561,0.000000,0.085108,-0.153494,0.000000
2.790000,-0.736037,-0.201041,-1.448047,1.354440,0.302433,-0.012790,0.666692,-0.403524,0.031011,1.458024,0.829060,-0.041197,-5.365993,-0.171061,-3.072389,-0.041146,-0.068071,0.000000,0.085028,-0.147997,0.000000
2.800000,-0.722459,-0.198037,-1.448173,1.361180,0.298439,-0.012482,0.681005,-0.395238,0.030446,1.402333,0.827509,-0.071543,-5.773542,-0.150327,-2.996609,-0.040295,-0.069523,0.000000,0.084968,-0.142080,0.000000
2.810000,-0.708813,-0.195072,-1.448296,1.368061,0.294528,-0.012181,0.694739,-0.386974,0.029581,1.342553,0.826053,-0.101129,-6.155023,-0.068768,-2.909692,-0.039446,-0.070915,0.000000,0.084904,-0.135744,-0.000000
2.820000,-0.695098,-0.192146,-1.448417,1.375075,0.290700,-0.011891,0.707856,-0.378717,0.028423,1.279233,0.826133,-0.129737,-6.499881,0.089832,-2.795716,-0.038597,-0.072240,0.000000,0.084984,-0.129047,-0.000000
2.830000,-0.681312,-0.189258,-1.448534,1.382218,0.286954,-0.011613,0.720323,-0.370451,0.026986,1.212556,0.827850,-0.157043,-6.836003,0.233740,-2.659871,-0.037747,-0.073497,0.000000,0.085217,-0.122014,0.000000
2.840000,-0.667454,-0.186407,-1.448649,1.389482,0.283291,-0.011351,0.732107,-0.362160,0.025283,1.142513,0.830808,-0.182935,-7.169011,0.360613,-2.523699,-0.036893,-0.074682,0.000000,0.085562,-0.114646,-0.000000
