time,x,y,z,vx,vy,vz,ax,ay,az,jx,jy,jz,sx,sy,sz,roll,pitch,yaw,p,q,r
0.000000,-3.016481,0.792894,-1.370317,-0.016630,-0.005793,0.002043,0.614500,-0.171250,0.222153,-5.792900,1.980983,-6.498197,111.802303,-12.424555,146.343421,-0.017823,-0.064004,0.000000,0.217466,0.644878,-0.000000
0.010000,-3.016618,0.792828,-1.370287,-0.010757,-0.007408,0.003963,0.561987,-0.152051,0.164107,-4.726772,1.860028,-5.148301,101.529130,-11.772014,124.026194,-0.015735,-0.058196,0.000000,0.200378,0.519298,0.000000
0.020000,-3.016698,0.792747,-1.370240,-0.005357,-0.008838,0.005366,0.519632,-0.134029,0.118482,-3.760233,1.745434,-4.010062,91.881104,-11.152092,103.992160,-0.013809,-0.053566,0.000000,0.185217,0.408963,-0.000000
0.030000,-3.016726,0.792652,-1.370181,-0.000333,-0.010093,0.006367,0.486471,-0.117122,0.083274,-2.887136,1.636881,-3.061240,82.837259,-10.563798,86.123382,-0.012026,-0.049972,0.000000,0.171649,0.311763,0.000000
0.040000,-3.016706,0.792545,-1.370113,0.004400,-0.011184,0.007061,0.461598,-0.101272,0.056696,-2.101544,1.534056,-2.280770,74.376735,-10.006147,70.301909,-0.010371,-0.047292,0.000000,0.159407,0.226019,0.000000
0.050000,-3.016639,0.792429,-1.370040,0.008923,-0.012121,0.007525,0.444167,-0.086423,0.037164,-1.397731,1.436658,-1.648768,66.478060,-9.478212,56.410064,-0.008834,-0.045418,0.000000,0.148272,0.150373,0.000000
0.060000,-3.016528,0.792303,-1.369963,0.013306,-0.012915,0.007823,0.433389,-0.072522,0.023288,-0.770179,1.344396,-1.146530,59.120742,-8.978924,44.329624,-0.007403,-0.044255,0.000000,0.138067,0.083718,0.000000
0.070000,-3.016373,0.792171,-1.369884,0.017611,-0.013575,0.008005,0.428527,-0.059519,0.013859,-0.213582,1.256987,-0.756530,52.283614,-8.507335,33.942784,-0.006070,-0.043717,0.000000,0.128649,0.025132,-0.000000
0.080000,-3.016176,0.792032,-1.369803,0.021894,-0.014109,0.008111,0.428898,-0.047367,0.007838,0.277157,1.174160,-0.462422,45.945662,-8.062467,25.131640,-0.004828,-0.043728,0.000000,0.119902,-0.026161,-0.000000
0.090000,-3.015935,0.791889,-1.369722,0.026204,-0.014525,0.008170,0.433867,-0.036021,0.004342,0.706925,1.095652,-0.249038,40.085825,-7.643349,17.778319,-0.003670,-0.044218,0.000000,0.111731,-0.070831,-0.000000
0.100000,-3.015651,0.791742,-1.369640,0.030585,-0.014832,0.008204,0.442849,-0.025440,0.002635,1.080402,1.021212,-0.102392,34.683549,-7.248858,11.764630,-0.002591,-0.045124,0.000000,0.104060,-0.109467,-0.000000
0.110000,-3.015323,0.791593,-1.369558,0.035073,-0.015036,0.008227,0.455303,-0.015584,0.002115,1.402051,0.950596,-0.009673,29.717316,-6.878185,6.972972,-0.001587,-0.046389,0.000000,0.096829,-0.142598,0.000000
0.120000,-3.014949,0.791442,-1.369476,0.039701,-0.015146,0.008249,0.470731,-0.006416,0.002301,1.676132,0.883573,0.040748,25.166325,-6.530277,3.285312,-0.000653,-0.047959,0.000000,0.089989,-0.170706,0.000000
0.130000,-3.014528,0.791290,-1.369393,0.044496,-0.015167,0.008274,0.488680,0.002099,0.002823,1.906692,0.819918,0.059320,21.009588,-6.204150,0.583745,0.000214,-0.049788,0.000000,0.083500,-0.194237,0.000000
0.140000,-3.014059,0.791139,-1.369310,0.049481,-0.015106,0.008305,0.508733,0.009993,0.003412,2.097568,0.759420,0.055317,17.226130,-5.898815,-1.249617,0.001018,-0.051830,0.000000,0.077330,-0.213611,-0.000000
0.150000,-3.013538,0.790988,-1.369227,0.054676,-0.014969,0.008342,0.530511,0.017297,0.003882,2.252389,0.701876,0.036829,13.795046,-5.613282,-2.332632,0.001761,-0.054047,0.000000,0.071455,-0.229224,-0.000000
0.160000,-3.012964,0.790840,-1.369143,0.060096,-0.014762,0.008382,0.553672,0.024040,0.004123,2.374571,0.647092,0.010766,10.695001,-5.346601,-2.783780,0.002448,-0.056403,0.000000,0.065854,-0.241449,0.000000
0.170000,-3.012335,0.790693,-1.369059,0.065753,-0.014490,0.008424,0.577905,0.030247,0.004091,2.467323,0.594884,-0.017134,7.905348,-5.097744,-2.720265,0.003079,-0.058866,0.000000,0.060509,-0.250641,-0.000000
0.180000,-3.011649,0.790550,-1.368975,0.071657,-0.014158,0.008463,0.602930,0.035945,0.003790,2.533642,0.545081,-0.042318,5.404903,-4.865754,-2.260277,0.003659,-0.061407,0.000000,0.055406,-0.257132,0.000000
0.190000,-3.010901,0.790410,-1.368890,0.077814,-0.013772,0.008499,0.628499,0.041156,0.003265,2.576315,0.497516,-0.061411,3.172525,-4.649673,-1.521750,0.004188,-0.064001,0.000000,0.050531,-0.261232,-0.000000
0.200000,-3.010091,0.790275,-1.368805,0.084228,-0.013337,0.008528,0.654387,0.045903,0.002589,2.597928,0.452039,-0.072217,1.188326,-4.448337,-0.622547,0.004670,-0.066625,0.000000,0.045872,-0.263228,0.000000
0.210000,-3.009216,0.790144,-1.368719,0.090902,-0.012856,0.008549,0.680372,0.050200,0.001353,2.595461,0.407705,-0.187705,-0.676375,-4.276766,-1.933855,0.005106,-0.069254,0.000000,0.041275,-0.262018,-0.000000
0.220000,-3.008273,0.790018,-1.368634,0.097835,-0.012334,0.008556,0.706316,0.054074,0.000461,2.594015,0.367787,0.078094,-0.519432,-3.848363,35.169952,0.005498,-0.071879,0.000000,0.037334,-0.263640,-0.000000
0.230000,-3.007258,0.789897,-1.368548,0.105028,-0.011776,0.008567,0.732156,0.057555,0.001946,2.565974,0.327770,0.097328,-5.087229,-4.160930,-31.947850,0.005852,-0.074510,0.000000,0.033269,-0.260902,-0.000000
0.240000,-3.006171,0.789782,-1.368462,0.112477,-0.011184,0.008586,0.757541,0.060627,0.001335,2.511882,0.287364,-0.157822,-4.753806,-3.780800,1.030565,0.006163,-0.077079,0.000000,0.028989,-0.253330,0.000000
0.250000,-3.005008,0.789674,-1.368377,0.120177,-0.010564,0.008593,0.782429,0.063318,0.000341,2.463386,0.250935,-0.052942,-5.866996,-3.646657,-0.109943,0.006434,-0.079593,0.000000,0.025336,-0.249098,0.000000
0.260000,-3.003767,0.789571,-1.368291,0.128123,-0.009919,0.008594,0.806732,0.065650,-0.000228,2.394961,0.215798,-0.061756,-6.874468,-3.496194,-0.145592,0.006669,-0.082049,0.000000,0.021748,-0.241970,0.000000
0.270000,-3.002445,0.789475,-1.368205,0.136309,-0.009253,0.008589,0.830372,0.067629,-0.000773,2.334812,0.179942,-0.042001,-6.026456,-3.564205,2.632536,0.006869,-0.084438,0.000000,0.018108,-0.235926,0.000000
0.280000,-3.001040,0.789386,-1.368119,0.144729,-0.008568,0.008579,0.853359,0.069258,-0.001138,2.256103,0.146842,-0.039847,-9.723379,-3.052614,-2.248869,0.007033,-0.086760,0.000000,0.014742,-0.227870,0.000000
0.290000,-2.999550,0.789304,-1.368033,0.153373,-0.007868,0.008566,0.875425,0.070576,-0.001647,2.158778,0.116632,-0.057411,-8.822540,-3.101977,0.211450,0.007165,-0.088987,0.000000,0.011658,-0.217761,0.000000
0.300000,-2.997972,0.789229,-1.367948,0.162234,-0.007157,0.008546,0.896587,0.071587,-0.002171,2.072342,0.085755,-0.048191,-9.346764,-2.961339,0.158723,0.007265,-0.091122,0.000000,0.008529,-0.209002,-0.000000
0.310000,-2.996304,0.789161,-1.367862,0.171302,-0.006438,0.008522,0.916819,0.072302,-0.002650,1.973015,0.057479,-0.047742,-9.800778,-2.813947,0.163529,0.007336,-0.093162,0.000000,0.005660,-0.198872,-0.000000
0.320000,-2.994545,0.789100,-1.367777,0.180567,-0.005712,0.008493,0.936091,0.072732,-0.003107,1.883038,0.028377,-0.042826,-8.860359,-2.889831,0.593213,0.007378,-0.095104,0.000000,0.002713,-0.189742,-0.000000
0.330000,-2.992692,0.789047,-1.367692,0.190021,-0.004984,0.008460,0.954438,0.072880,-0.003518,1.781802,0.002132,-0.040629,-11.395963,-2.355128,-0.162234,0.007391,-0.096953,0.000000,0.000057,-0.179461,0.000000
0.340000,-2.990744,0.789000,-1.367608,0.199652,-0.004256,0.008423,0.971683,0.072785,-0.003932,1.669091,-0.021074,-0.041554,-10.449592,-2.403087,0.202557,0.007380,-0.098689,0.000000,-0.002291,-0.168003,-0.000000
0.350000,-2.988699,0.788961,-1.367524,0.209451,-0.003529,0.008382,0.987867,0.072454,-0.004332,1.567191,-0.044922,-0.038535,-10.603838,-2.249059,0.173392,0.007345,-0.100318,0.000000,-0.004699,-0.157687,0.000000
0.360000,-2.986554,0.788930,-1.367440,0.219406,-0.002807,0.008337,1.002996,0.071897,-0.004711,1.458131,-0.066156,-0.037471,-10.712237,-2.089336,0.138702,0.007287,-0.101840,0.000000,-0.006842,-0.146640,-0.000000
0.370000,-2.984310,0.788905,-1.367357,0.229507,-0.002092,0.008288,1.017067,0.071129,-0.005074,1.357596,-0.087545,-0.034863,-9.859294,-2.098633,0.283912,0.007208,-0.103254,0.000000,-0.008999,-0.136480,0.000000
0.380000,-2.981964,0.788888,-1.367275,0.239744,-0.001385,0.008235,1.030125,0.070156,-0.005414,1.251175,-0.106242,-0.033870,-11.432498,-1.637418,-0.089691,0.007108,-0.104567,0.000000,-0.010883,-0.125720,-0.000000
0.390000,-2.979515,0.788878,-1.367192,0.250106,-0.000689,0.008179,1.042066,0.069014,-0.005758,1.138643,-0.122091,-0.034705,-10.590219,-1.621911,0.020336,0.006992,-0.105766,0.000000,-0.012478,-0.114335,-0.000000
0.400000,-2.976961,0.788874,-1.367111,0.260582,-0.000006,0.008120,1.052937,0.067712,-0.006103,1.035432,-0.137901,-0.034326,-10.521010,-1.450048,-0.043734,0.006859,-0.106858,0.000000,-0.014068,-0.103910,-0.000000
0.410000,-2.974303,0.788877,-1.367030,0.271161,0.000664,0.008057,1.062760,0.066265,-0.006450,0.929071,-0.151223,-0.035336,-10.424369,-1.274237,-0.112549,0.006711,-0.107843,0.000000,-0.015407,-0.093161,-0.000000
0.420000,-2.971538,0.788887,-1.366950,0.281834,0.001319,0.007991,1.071548,0.064689,-0.006808,0.830002,-0.163932,-0.036165,-9.697125,-1.208388,-0.099304,0.006551,-0.108724,0.000000,-0.016683,-0.083154,0.000000
0.430000,-2.968666,0.788904,-1.366870,0.292589,0.001958,0.007921,1.079350,0.062995,-0.007178,0.728660,-0.174153,-0.038288,-10.576987,-0.833595,-0.327324,0.006378,-0.109505,0.000000,-0.017709,-0.072911,0.000000
0.440000,-2.965686,0.788926,-1.366791,0.303417,0.002579,0.007847,1.086111,0.061215,-0.007579,0.624855,-0.181781,-0.041807,-9.865240,-0.750751,-0.331455,0.006197,-0.110181,0.000000,-0.018472,-0.062410,0.000000
0.450000,-2.962597,0.788955,-1.366713,0.314308,0.003182,0.007769,1.091878,0.059361,-0.008014,0.528733,-0.188658,-0.045314,-9.668882,-0.565592,-0.415781,0.006009,-0.110757,0.000000,-0.019160,-0.052688,-0.000000
0.460000,-2.959399,0.788990,-1.366636,0.325251,0.003766,0.007687,1.096680,0.057450,-0.008489,0.431978,-0.193231,-0.049898,-9.459029,-0.379225,-0.499346,0.005815,-0.111234,0.000000,-0.019615,-0.042893,-0.000000
0.470000,-2.956092,0.789031,-1.366560,0.336238,0.004331,0.007599,1.100543,0.055500,-0.009014,0.341631,-0.196520,-0.055286,-8.821846,-0.248739,-0.580238,0.005617,-0.111617,0.000000,-0.019942,-0.033737,0.000000
0.480000,-2.952675,0.789077,-1.366484,0.347259,0.004876,0.007506,1.103511,0.053527,-0.009598,0.251095,-0.197581,-0.061544,-9.290051,0.037432,-0.671478,0.005417,-0.111909,0.000000,-0.020044,-0.024556,0.000000
0.490000,-2.949147,0.789128,-1.366410,0.358305,0.005401,0.007407,1.105562,0.051556,-0.010248,0.160194,-0.196369,-0.068674,-8.672496,0.175064,-0.752418,0.005217,-0.112108,0.000000,-0.019916,-0.015331,0.000000
0.500000,-2.945508,0.789185,-1.366336,0.369368,0.005907,0.007301,1.106740,0.049604,-0.010974,0.075849,-0.193827,-0.076603,-8.410874,0.363198,-0.835140,0.005019,-0.112218,0.000000,-0.019654,-0.006758,-0.000000
0.510000,-2.941759,0.789246,-1.366264,0.380438,0.006393,0.007187,1.107080,0.047687,-0.011782,-0.007574,-0.189214,-0.085244,-8.142082,0.549802,-0.913236,0.004825,-0.112243,0.000000,-0.019184,0.001727,-0.000000
0.520000,-2.937900,0.789312,-1.366192,0.391507,0.006861,0.007065,1.106609,0.045825,-0.012683,-0.085770,-0.182922,-0.095049,-7.622610,0.717562,-1.027093,0.004636,-0.112185,0.000000,-0.018545,0.009699,0.000000
0.530000,-2.933929,0.789383,-1.366122,0.402567,0.007310,0.006933,1.105368,0.044035,-0.013685,-0.162664,-0.174676,-0.105350,-7.759263,0.931592,-1.031911,0.004454,-0.112049,0.000000,-0.017708,0.017543,-0.000000
0.540000,-2.929848,0.789458,-1.366054,0.413611,0.007742,0.006791,1.103358,0.042338,-0.014791,-0.238380,-0.164482,-0.116079,-7.255387,1.097475,-1.133261,0.004282,-0.111835,0.000000,-0.016675,0.025271,-0.000000
0.550000,-2.925657,0.789538,-1.365986,0.424632,0.008157,0.006637,1.100620,0.040751,-0.016010,-0.308858,-0.152661,-0.127830,-6.965755,1.275966,-1.195305,0.004121,-0.111546,0.000000,-0.015478,0.032482,-0.000000
0.560000,-2.921356,0.789622,-1.365921,0.435621,0.008557,0.006471,1.097186,0.039291,-0.017348,-0.377447,-0.139060,-0.139877,-6.673652,1.450111,-1.248675,0.003973,-0.111186,0.000000,-0.014102,0.039504,0.000000
0.570000,-2.916945,0.789709,-1.365857,0.446573,0.008944,0.006290,1.093087,0.037976,-0.018812,-0.441607,-0.123612,-0.153108,-6.233895,1.632519,-1.361881,0.003840,-0.110757,0.000000,-0.012539,0.046092,0.000000
0.580000,-2.912424,0.789800,-1.365795,0.457481,0.009317,0.006094,1.088360,0.036824,-0.020410,-0.503714,-0.106554,-0.166369,-6.189774,1.778120,-1.288169,0.003723,-0.110265,0.000000,-0.010815,0.052471,-0.000000
0.590000,-2.907795,0.789895,-1.365735,0.468339,0.009681,0.005881,1.083019,0.035850,-0.022139,-0.563869,-0.087940,-0.179542,-5.764654,1.950306,-1.379697,0.003624,-0.109709,0.000000,-0.008933,0.058649,-0.000000
0.600000,-2.903058,0.789994,-1.365678,0.479140,0.010035,0.005651,1.077099,0.035071,-0.024005,-0.619658,-0.067619,-0.193641,-5.469717,2.106630,-1.404199,0.003545,-0.109093,0.000000,-0.006880,0.064396,-0.000000
0.610000,-2.898213,0.790096,-1.365622,0.489879,0.010383,0.005401,1.070632,0.034502,-0.026011,-0.673222,-0.045893,-0.207533,-5.178841,2.255774,-1.417663,0.003487,-0.108421,0.000000,-0.004685,0.069913,-0.000000
0.620000,-2.893261,0.790202,-1.365570,0.500550,0.010726,0.005130,1.063649,0.034159,-0.028160,-0.722661,-0.022355,-0.222385,-4.770745,2.432997,-1.507170,0.003452,-0.107696,0.000000,-0.002309,0.075021,-0.000000
0.630000,-2.888202,0.790311,-1.365520,0.511150,0.011067,0.004837,1.056186,0.034059,-0.030456,-0.769935,0.002373,-0.236718,-4.686424,2.510953,-1.356507,0.003441,-0.106922,0.000000,0.000187,0.079903,0.000000
0.640000,-2.883038,0.790423,-1.365473,0.521673,0.011408,0.004520,1.048257,0.034210,-0.032891,-0.815154,0.028200,-0.250377,-4.295606,2.671158,-1.418302,0.003456,-0.106099,0.000000,0.002792,0.084566,-0.000000
0.650000,-2.877769,0.790539,-1.365430,0.532114,0.011752,0.004179,1.039897,0.034628,-0.035467,-0.856385,0.055623,-0.264669,-4.013026,2.794004,-1.394455,0.003498,-0.105232,0.000000,0.005557,0.088831,-0.000000
0.660000,-2.872396,0.790658,-1.365390,0.542469,0.012101,0.003811,1.031136,0.035326,-0.038182,-0.895295,0.084025,-0.278242,-3.733616,2.907801,-1.359106,0.003568,-0.104323,0.000000,0.008419,0.092849,0.000000
0.670000,-2.866920,0.790781,-1.365353,0.552735,0.012459,0.003415,1.022003,0.036314,-0.041034,-0.930739,0.113961,-0.292192,-3.390517,3.056094,-1.389600,0.003667,-0.103376,0.000000,0.011434,0.096519,-0.000000
0.680000,-2.861341,0.790907,-1.365321,0.562908,0.012829,0.002989,1.012529,0.037607,-0.044022,-0.963850,0.144659,-0.305172,-3.233423,3.081344,-1.203633,0.003796,-0.102394,0.000000,0.014524,0.099939,0.000000
0.690000,-2.855662,0.791037,-1.365294,0.572985,0.013213,0.002534,1.002733,0.039210,-0.047133,-0.994716,0.176005,-0.317028,-2.905438,3.208665,-1.205485,0.003957,-0.101378,0.000000,0.017678,0.103117,-0.000000
0.700000,-2.849882,0.791172,-1.365271,0.582962,0.013614,0.002046,0.992646,0.041132,-0.050363,-1.022258,0.208612,-0.328909,-2.640122,3.289524,-1.129392,0.004150,-0.100332,0.000000,0.020956,0.105957,0.000000
0.710000,-2.844003,0.791310,-1.365253,0.592837,0.014036,0.001526,0.982296,0.043383,-0.053707,-1.047494,0.241746,-0.339585,-2.380355,3.360313,-1.041354,0.004377,-0.099260,0.000000,0.024284,0.108548,0.000000
0.720000,-2.838026,0.791452,-1.365240,0.602607,0.014483,0.000972,0.971707,0.045971,-0.057155,-1.069629,0.276015,-0.350044,-2.073832,3.468082,-1.012621,0.004637,-0.098162,0.000000,0.027724,0.110821,0.000000
0.730000,-2.831951,0.791600,-1.365234,0.612270,0.014957,0.000383,0.960910,0.048904,-0.060703,-1.089541,0.310575,-0.359045,-1.910164,3.441764,-0.784685,0.004931,-0.097044,0.000000,0.031190,0.112851,0.000000
0.740000,-2.825781,0.791752,-1.365233,0.621825,0.015462,-0.000242,0.949923,0.052183,-0.064330,-1.107311,0.345302,-0.366435,-1.617915,3.526121,-0.728221,0.005260,-0.095906,0.000000,0.034671,0.114648,-0.000000
0.750000,-2.819515,0.791909,-1.365239,0.631268,0.016002,-0.000904,0.938774,0.055814,-0.068030,-1.122141,0.380861,-0.373264,-1.375396,3.560088,-0.599790,0.005625,-0.094752,0.000000,0.038232,0.116140,0.000000
0.760000,-2.813156,0.792072,-1.365251,0.640600,0.016579,-0.001603,0.927488,0.059800,-0.071790,-1.134814,0.416466,-0.378415,-1.138074,3.583434,-0.460442,0.006025,-0.093584,0.000000,0.041795,0.117397,0.000000
0.770000,-2.806703,0.792241,-1.365271,0.649818,0.017199,-0.002340,0.916088,0.064145,-0.075596,-1.144716,0.452718,-0.382734,-0.864317,3.642068,-0.370936,0.006461,-0.092405,0.000000,0.045419,0.118365,0.000000
0.780000,-2.800160,0.792416,-1.365298,0.658921,0.017864,-0.003115,0.904600,0.068854,-0.079438,-1.152561,0.488787,-0.385155,-0.705936,3.569368,-0.110907,0.006933,-0.091217,0.000000,0.049023,0.119108,-0.000000
0.790000,-2.793525,0.792598,-1.365333,0.667909,0.018577,-0.003929,0.893043,0.073920,-0.083292,-1.158420,0.524545,-0.385545,-0.445338,3.604103,0.003271,0.007441,-0.090024,0.000000,0.052593,0.119631,0.000000
0.800000,-2.786802,0.792788,-1.365377,0.676782,0.019343,-0.004781,0.881441,0.079346,-0.087145,-1.161661,0.560634,-0.384797,-0.225117,3.589119,0.178870,0.007985,-0.088826,0.000000,0.056194,0.119881,0.000000
0.810000,-2.779990,0.792985,-1.365429,0.685538,0.020165,-0.005672,0.869816,0.085131,-0.090981,-1.162919,0.596297,-0.381956,-0.009748,3.563789,0.363853,0.008565,-0.087627,0.000000,0.059750,0.119914,0.000000
0.820000,-2.773092,0.793191,-1.365490,0.694178,0.021047,-0.006601,0.858191,0.091273,-0.094780,-1.161709,0.632080,-0.377740,0.234180,3.569917,0.506632,0.009180,-0.086428,0.000000,0.063317,0.119688,0.000000
0.830000,-2.766107,0.793406,-1.365561,0.702702,0.021992,-0.007567,0.846588,0.097770,-0.098528,-1.158603,0.667218,-0.371252,0.385735,3.455479,0.793146,0.009831,-0.085233,0.000000,0.066819,0.119255,-0.000000
0.840000,-2.759038,0.793631,-1.365642,0.711110,0.023004,-0.008571,0.835025,0.104614,-0.102197,-1.153665,0.701588,-0.362380,0.618496,3.438458,0.955948,0.010516,-0.084044,0.000000,0.070243,0.118620,-0.000000
0.850000,-2.751885,0.793867,-1.365733,0.719403,0.024085,-0.009611,0.823523,0.111802,-0.105770,-1.146391,0.735774,-0.351887,0.818622,3.375715,1.169958,0.011236,-0.082862,0.000000,0.073650,0.117741,-0.000000
0.860000,-2.744650,0.794113,-1.365834,0.727581,0.025241,-0.010686,0.812103,0.119327,-0.109227,-1.137278,0.769087,-0.338968,1.015376,3.303819,1.391356,0.011989,-0.081689,0.000000,0.076970,0.116661,-0.000000
0.870000,-2.737334,0.794372,-1.365946,0.735645,0.026473,-0.011795,0.800785,0.127183,-0.112544,-1.125978,0.802000,-0.324251,1.232128,3.258684,1.575232,0.012775,-0.080529,0.000000,0.080252,0.115353,0.000000
0.880000,-2.729938,0.794643,-1.366070,0.743597,0.027785,-0.012936,0.789589,0.135363,-0.115703,-1.112901,0.833840,-0.306977,1.382424,3.107294,1.881164,0.013594,-0.079383,0.000000,0.083431,0.113852,0.000000
0.890000,-2.722462,0.794928,-1.366205,0.751437,0.029181,-0.014108,0.778532,0.143855,-0.118675,-1.098093,0.864496,-0.287064,1.590975,3.041284,2.079473,0.014444,-0.078252,0.000000,0.086496,0.112164,-0.000000
0.900000,-2.714909,0.795227,-1.366352,0.759168,0.030664,-0.015309,0.767634,0.152651,-0.121438,-1.081195,0.894477,-0.265184,1.776073,2.935017,2.319928,0.015324,-0.077140,0.000000,0.089498,0.110258,0.000000
0.910000,-2.707279,0.795541,-1.366512,0.766791,0.032235,-0.016536,0.756914,0.161740,-0.123969,-1.062528,0.923179,-0.240667,1.959430,2.820234,2.564673,0.016233,-0.076048,0.000000,0.092379,0.108163,0.000000
0.920000,-2.699574,0.795872,-1.366683,0.774307,0.033899,-0.017788,0.746390,0.171112,-0.126245,-1.041991,0.951006,-0.214060,2.145374,2.728248,2.775883,0.017171,-0.074977,0.000000,0.095181,0.105873,0.000000
0.930000,-2.691794,0.796220,-1.366867,0.781719,0.035658,-0.019060,0.736080,0.180756,-0.128241,-1.019678,0.977387,-0.184746,2.316690,2.546097,3.088005,0.018136,-0.073930,0.000000,0.097847,0.103394,-0.000000
0.940000,-2.683940,0.796585,-1.367064,0.789029,0.037515,-0.020351,0.726002,0.190654,-0.129930,-0.995614,1.002225,-0.152677,2.498411,2.436335,3.306825,0.019127,-0.072910,0.000000,0.100370,0.100729,-0.000000
0.950000,-2.676013,0.796970,-1.367274,0.796240,0.039472,-0.021658,0.716174,0.200797,-0.131288,-0.969728,1.025955,-0.118443,2.675202,2.292707,3.558930,0.020143,-0.071916,0.000000,0.102795,0.097876,0.000000
0.960000,-2.668015,0.797375,-1.367498,0.803354,0.041532,-0.022976,0.706614,0.211168,-0.132290,-0.942057,1.048063,-0.081517,2.851462,2.142024,3.811588,0.021183,-0.070952,0.000000,0.105071,0.094835,-0.000000
0.970000,-2.659947,0.797801,-1.367734,0.810373,0.043696,-0.024302,0.697338,0.221754,-0.132911,-0.912771,1.068907,-0.042348,3.012800,2.011921,4.036346,0.022244,-0.070020,0.000000,0.107236,0.091626,-0.000000
0.980000,-2.651808,0.798249,-1.367984,0.817301,0.045968,-0.025633,0.688365,0.232540,-0.133128,-0.881651,1.087991,-0.000496,3.211170,1.803567,4.334152,0.023327,-0.069120,0.000000,0.109242,0.088226,0.000000
0.990000,-2.643601,0.798721,-1.368247,0.824142,0.048348,-0.026963,0.679711,0.243508,-0.132912,-0.848696,1.105240,0.044041,3.372421,1.659418,4.558440,0.024429,-0.068255,0.000000,0.111083,0.084633,-0.000000
1.000000,-2.635326,0.799217,-1.368523,0.830897,0.050838,-0.028290,0.671396,0.254640,-0.132240,-0.814133,1.121045,0.090791,3.546379,1.486642,4.804825,0.025548,-0.067427,0.000000,0.112799,0.080874,0.000000
1.010000,-2.626983,0.799738,-1.368812,0.837571,0.053441,-0.029607,0.663434,0.265922,-0.131087,-0.777875,1.134959,0.140149,3.717901,1.308636,5.048505,0.026684,-0.066638,0.000000,0.114347,0.076937,0.000000
1.020000,-2.618574,0.800286,-1.369115,0.844167,0.056157,-0.030910,0.655845,0.277335,-0.129430,-0.739659,1.147325,0.191586,3.913138,1.151044,5.255229,0.027835,-0.065889,0.000000,0.115762,0.072799,-0.000000
1.030000,-2.610100,0.800862,-1.369431,0.850689,0.058988,-0.032194,0.648646,0.288862,-0.127247,-0.699869,1.157700,0.245593,4.044594,0.922943,5.545631,0.028999,-0.065182,0.000000,0.117002,0.068495,-0.000000
1.040000,-2.601561,0.801466,-1.369759,0.857141,0.061935,-0.033453,0.641853,0.300482,-0.124510,-0.658516,1.166031,0.302136,4.238412,0.755659,5.744874,0.030174,-0.064519,0.000000,0.118063,0.064024,0.000000
1.050000,-2.592958,0.802101,-1.370099,0.863527,0.064998,-0.034682,0.635483,0.312177,-0.121198,-0.615210,1.172694,0.360613,4.411529,0.563666,5.966442,0.031360,-0.063901,0.000000,0.118982,0.059351,-0.000000
1.060000,-2.584291,0.802766,-1.370452,0.869852,0.068179,-0.035875,0.629555,0.323929,-0.117290,-0.569997,1.177324,0.421350,4.591252,0.369294,6.179372,0.032553,-0.063332,0.000000,0.119725,0.054477,-0.000000
1.070000,-2.575561,0.803465,-1.370817,0.876120,0.071477,-0.037026,0.624086,0.335718,-0.112764,-0.523748,1.180140,0.484171,4.697404,0.186604,6.383547,0.033754,-0.062812,0.000000,0.120314,0.049490,0.000000
1.080000,-2.566768,0.804196,-1.371193,0.882335,0.074893,-0.038128,0.619088,0.347525,-0.107600,-0.475230,1.180903,0.548994,5.007726,-0.034464,6.579443,0.034959,-0.062342,0.000000,0.120725,0.044263,0.000000
1.090000,-2.557914,0.804963,-1.371579,0.888503,0.078427,-0.039175,0.614589,0.359329,-0.101778,-0.424375,1.179590,0.615722,5.124378,-0.221025,6.764330,0.036167,-0.061927,0.000000,0.120957,0.038789,0.000000
1.100000,-2.548998,0.805765,-1.371976,0.894629,0.082080,-0.040161,0.610604,0.371110,-0.095280,-0.372403,1.176420,0.684248,5.308971,-0.420148,6.938813,0.037378,-0.061566,0.000000,0.121033,0.033189,-0.000000
1.110000,-2.540022,0.806605,-1.372382,0.900717,0.085849,-0.041079,0.607149,0.382850,-0.088088,-0.318100,1.171213,0.754386,5.498230,-0.619067,7.100039,0.038587,-0.061263,0.000000,0.120932,0.027339,0.000000
1.120000,-2.530984,0.807483,-1.372797,0.906774,0.089736,-0.041921,0.604244,0.394528,-0.080186,-0.262929,1.164062,0.826329,5.588228,-0.813181,7.273600,0.039796,-0.061019,0.000000,0.120667,0.021383,0.000000
1.130000,-2.521886,0.808400,-1.373220,0.912804,0.093740,-0.042680,0.601900,0.406125,-0.071557,-0.205238,1.154905,0.899543,5.951727,-1.018014,7.366619,0.041000,-0.060836,0.000000,0.120229,0.015156,-0.000000
1.140000,-2.512728,0.809358,-1.373651,0.918814,0.097858,-0.043349,0.600148,0.417620,-0.062191,-0.144946,1.143752,0.973875,6.054118,-1.210193,7.510323,0.042200,-0.060717,0.000000,0.119617,0.008646,-0.000000
1.150000,-2.503510,0.810357,-1.374087,0.924809,0.102092,-0.043921,0.599003,0.428993,-0.052075,-0.083706,1.130691,1.049591,6.246261,-1.404007,7.617268,0.043392,-0.060664,0.000000,0.118842,0.002014,-0.000000
1.160000,-2.494232,0.811400,-1.374529,0.930796,0.106438,-0.044388,0.598482,0.440227,-0.041197,-0.020188,1.115723,1.126132,6.437387,-1.594717,7.707463,0.044576,-0.060678,0.000000,0.117900,-0.004873,-0.000000
1.170000,-2.484894,0.812487,-1.374974,0.936781,0.110896,-0.044743,0.598604,0.451301,-0.029548,0.044858,1.098756,1.203862,6.591051,-1.792721,7.817205,0.045749,-0.060762,0.000000,0.116785,-0.011945,0.000000
1.180000,-2.475496,0.813618,-1.375423,0.942770,0.115463,-0.044977,0.599386,0.462196,-0.017118,0.112039,1.079991,1.282031,6.845638,-1.959497,7.813272,0.046911,-0.060918,0.000000,0.115510,-0.019265,0.000000
1.190000,-2.466039,0.814796,-1.375873,0.948771,0.120139,-0.045082,0.600852,0.472895,-0.003906,0.181376,1.059472,1.360444,7.002208,-2.149064,7.884921,0.048059,-0.061148,0.000000,0.114079,-0.026837,0.000000
1.200000,-2.456521,0.816021,-1.376324,0.954789,0.124920,-0.045052,0.603019,0.483379,0.010093,0.252246,1.037070,1.439510,7.190992,-2.325113,7.906732,0.049192,-0.061456,0.000000,0.112479,-0.034605,-0.000000
1.210000,-2.446943,0.817295,-1.376774,0.960833,0.129806,-0.044878,0.605905,0.493631,0.024883,0.325350,1.013087,1.518381,7.381310,-2.494350,7.906407,0.050308,-0.061842,0.000000,0.110735,-0.042640,-0.000000
1.220000,-2.437304,0.818618,-1.377221,0.966910,0.134792,-0.044552,0.609528,0.503634,0.040464,0.399388,0.986978,1.597963,7.475185,-2.703170,7.965772,0.051406,-0.062310,0.000000,0.108794,-0.050821,0.000000
1.230000,-2.427604,0.819991,-1.377665,0.973027,0.139878,-0.044066,0.613901,0.513367,0.056839,0.475882,0.959531,1.676771,7.824726,-2.784570,7.791213,0.052484,-0.062861,0.000000,0.106728,-0.059297,0.000000
1.240000,-2.417843,0.821416,-1.378102,0.979191,0.145059,-0.043412,0.619054,0.522820,0.073996,0.554872,0.930835,1.754548,7.922848,-2.977213,7.802210,0.053540,-0.063499,0.000000,0.104540,-0.068077,0.000000
1.250000,-2.408020,0.822893,-1.378532,0.985410,0.150333,-0.042583,0.625000,0.531977,0.091931,0.634746,0.900207,1.832400,8.101385,-3.123791,7.722964,0.054574,-0.064225,0.000000,0.102166,-0.077009,0.000000
1.260000,-2.398135,0.824423,-1.378953,0.991693,0.155697,-0.041571,0.631757,0.540821,0.110638,0.716947,0.868539,1.908860,8.278802,-3.259770,7.619329,0.055583,-0.065042,0.000000,0.099685,-0.086236,0.000000
1.270000,-2.388186,0.826007,-1.379363,0.998048,0.161148,-0.040368,0.639340,0.549339,0.130109,0.799760,0.834565,1.985211,8.340097,-3.484403,7.595215,0.056567,-0.065953,0.000000,0.096973,-0.095595,-0.000000
1.280000,-2.378174,0.827646,-1.379760,1.004483,0.166683,-0.038966,0.647761,0.557511,0.150336,0.884934,0.799911,2.059597,8.695416,-3.443773,7.276778,0.057522,-0.066958,0.000000,0.094183,-0.105261,0.000000
1.290000,-2.368096,0.829341,-1.380142,1.011006,0.172297,-0.037359,0.657048,0.565336,0.171293,0.972482,0.764712,2.131731,8.754988,-3.644711,7.199214,0.058450,-0.068062,0.000000,0.091323,-0.115236,0.000000
1.300000,-2.357953,0.831092,-1.380506,1.017627,0.177988,-0.035538,0.667211,0.572797,0.192969,1.060496,0.727462,2.203062,8.904402,-3.754316,7.010777,0.059348,-0.069267,0.000000,0.088244,-0.125340,-0.000000
1.310000,-2.347744,0.832901,-1.380852,1.024353,0.183752,-0.033497,0.678265,0.579885,0.215345,1.150643,0.689890,2.271884,9.049204,-3.850177,6.798697,0.060215,-0.070575,0.000000,0.085111,-0.135738,-0.000000
1.320000,-2.337466,0.834767,-1.381176,1.031195,0.189585,-0.031229,0.690222,0.586585,0.238403,1.240763,0.649641,2.339412,9.044849,-4.110155,6.656135,0.061049,-0.071987,0.000000,0.081685,-0.146220,-0.000000
1.330000,-2.327119,0.836693,-1.381475,1.038161,0.195482,-0.028727,0.703088,0.592879,0.262123,1.333011,0.609567,2.403943,9.405085,-3.900930,6.244921,0.061849,-0.073505,0.000000,0.078245,-0.157000,-0.000000
1.340000,-2.316702,0.838677,-1.381749,1.045260,0.201441,-0.025985,0.716890,0.598778,0.286470,1.427364,0.569850,2.465195,9.390565,-4.130784,6.049785,0.062614,-0.075134,0.000000,0.074807,-0.168079,-0.000000
1.350000,-2.306214,0.840722,-1.381994,1.052502,0.207457,-0.022996,0.731633,0.604266,0.311421,1.521397,0.527727,2.524463,9.485277,-4.203897,5.752548,0.063344,-0.076874,0.000000,0.071089,-0.179217,0.000000
1.360000,-2.295652,0.842827,-1.382208,1.059896,0.213525,-0.019754,0.747325,0.609336,0.336948,1.617061,0.486153,2.580356,9.567763,-4.261287,5.435815,0.064036,-0.078726,0.000000,0.067384,-0.190610,-0.000000
1.370000,-2.285015,0.844992,-1.382389,1.067452,0.219642,-0.016255,0.763971,0.613975,0.363019,1.711987,0.441122,2.633230,9.488947,-4.597681,5.122772,0.064690,-0.080694,0.000000,0.063273,-0.202014,-0.000000
1.380000,-2.274302,0.847220,-1.382533,1.075178,0.225803,-0.012492,0.781570,0.618163,0.389600,1.808343,0.397288,2.682475,9.781390,-4.164349,4.722317,0.065302,-0.082776,0.000000,0.059235,-0.213655,-0.000000
1.390000,-2.263511,0.849509,-1.382638,1.083086,0.232004,-0.008461,0.800142,0.621927,0.416655,1.906035,0.354872,2.727866,9.677930,-4.466681,4.365460,0.065875,-0.084977,0.000000,0.055290,-0.225520,0.000000
1.400000,-2.252640,0.851860,-1.382701,1.091185,0.238240,-0.004158,0.819685,0.625247,0.444146,2.002466,0.309213,2.769605,9.679623,-4.517806,3.966231,0.066406,-0.087296,0.000000,0.050946,-0.237339,0.000000
1.410000,-2.241687,0.854273,-1.382720,1.099483,0.244507,0.000423,0.840190,0.628112,0.472034,2.098525,0.263718,2.807463,9.639844,-4.579866,3.553142,0.066894,-0.089734,0.000000,0.046555,-0.249201,-0.000000
1.420000,-2.230649,0.856750,-1.382691,1.107992,0.250801,0.005284,0.861663,0.630520,0.500277,2.196207,0.217623,2.840150,9.783596,-4.641277,3.028370,0.067337,-0.092292,0.000000,0.042024,-0.261304,0.000000
1.430000,-2.219526,0.859290,-1.382613,1.116720,0.257116,0.010430,0.884107,0.632462,0.528825,2.291829,0.170845,2.868960,9.332743,-4.715049,2.731692,0.067734,-0.094972,0.000000,0.037353,-0.273265,0.000000
1.440000,-2.208314,0.861892,-1.382482,1.125677,0.263448,0.015862,0.907490,0.633934,0.557643,2.384964,0.123339,2.893755,9.399148,-4.785473,2.176140,0.068083,-0.097769,0.000000,0.032531,-0.285034,0.000000
1.450000,-2.197012,0.864559,-1.382295,1.134873,0.269793,0.021583,0.931810,0.634927,0.586680,2.478783,0.075101,2.912821,9.250351,-4.864814,1.681354,0.068384,-0.100686,0.000000,0.027543,-0.296924,0.000000
1.460000,-2.185616,0.867288,-1.382049,1.144316,0.276145,0.027596,0.957039,0.635433,0.615884,2.566203,0.025937,2.927004,8.995291,-4.953263,1.162010,0.068634,-0.103719,0.000000,0.022374,-0.308178,-0.000000
1.470000,-2.174124,0.870081,-1.381742,1.154016,0.282500,0.033901,0.983188,0.635444,0.645203,2.665665,-0.023844,2.936086,10.147591,-5.020094,0.641031,0.068831,-0.106870,0.000000,0.017040,-0.320766,-0.000000
1.480000,-2.162535,0.872938,-1.381370,1.163983,0.288852,0.040500,1.010308,0.634952,0.674586,2.753428,-0.074825,2.939549,7.377736,-5.178105,0.047821,0.068974,-0.110145,0.000000,0.011490,-0.332124,-0.000000
1.490000,-2.150844,0.875859,-1.380931,1.174225,0.295197,0.047393,1.038207,0.633943,0.703975,2.828217,-0.127127,2.937173,8.328860,-5.268474,-0.516628,0.069060,-0.113523,0.000000,0.005708,-0.342088,-0.000000
1.500000,-2.139049,0.878842,-1.380421,1.184750,0.301530,0.054579,1.066921,0.632406,0.733311,2.913551,-0.180368,2.929069,7.985468,-5.397476,-1.118102,0.069087,-0.117008,0.000000,-0.000284,-0.353189,-0.000000
1.510000,-2.127148,0.881889,-1.379838,1.195566,0.307844,0.062059,1.096466,0.630324,0.762532,2.995520,-0.236572,2.913938,7.746686,-5.568752,-1.756856,0.069053,-0.120602,0.000000,-0.006708,-0.363895,-0.000000
1.520000,-2.115137,0.884999,-1.379179,1.206682,0.314134,0.069830,1.126769,0.627692,0.791581,3.062370,-0.289240,2.895288,6.260132,-5.235473,-2.126482,0.068955,-0.124297,0.000000,-0.012817,-0.372955,-0.000000
1.530000,-2.103013,0.888172,-1.378441,1.218104,0.320396,0.077890,1.157735,0.624520,0.820408,3.134097,-0.346961,2.868194,8.102599,-6.319145,-3.300176,0.068794,-0.128081,0.000000,-0.019605,-0.382461,0.000000
1.540000,-2.090774,0.891407,-1.377621,1.229839,0.326622,0.086237,1.189475,0.620732,0.848914,3.211431,-0.410233,2.832257,6.715878,-6.066207,-3.738666,0.068560,-0.131966,0.000000,-0.027136,-0.392473,0.000000
1.550000,-2.078415,0.894704,-1.376715,1.241896,0.332808,0.094867,1.221902,0.616330,0.877042,3.273846,-0.470626,2.792081,6.407192,-6.284596,-4.451168,0.068252,-0.135942,0.000000,-0.034427,-0.400793,0.000000
1.560000,-2.065935,0.898063,-1.375722,1.254279,0.338947,0.103776,1.254960,0.611297,0.904725,3.337136,-0.536450,2.743299,6.059774,-6.535162,-5.184533,0.067868,-0.140001,0.000000,-0.042442,-0.409063,-0.000000
1.570000,-2.053329,0.901483,-1.374639,1.266997,0.345032,0.112960,1.288618,0.605621,0.931893,3.393248,-0.598170,2.689473,5.341539,-6.146682,-5.702809,0.067405,-0.144139,0.000000,-0.050088,-0.416433,0.000000
1.580000,-2.040594,0.904963,-1.373462,1.280053,0.351057,0.122412,1.322821,0.599310,0.958484,3.447724,-0.666472,2.626686,5.555568,-7.525388,-6.860472,0.066864,-0.148348,0.000000,-0.058581,-0.423428,-0.000000
1.590000,-2.027727,0.908504,-1.372190,1.293455,0.357016,0.132127,1.357569,0.592265,0.984395,3.500598,-0.741888,2.554640,4.831478,-7.218915,-7.429918,0.066230,-0.152625,0.000000,-0.067983,-0.430024,0.000000
1.600000,-2.014724,0.912103,-1.370819,1.307206,0.362900,0.142097,1.392804,0.584490,1.009560,3.545829,-0.813742,2.477028,4.394648,-7.490968,-8.214902,0.065506,-0.156963,0.000000,-0.077066,-0.435591,0.000000
1.610000,-2.001581,0.915761,-1.369347,1.321312,0.368703,0.152315,1.428457,0.575972,1.033905,3.583433,-0.890365,2.390585,3.841529,-7.751024,-9.009010,0.064687,-0.161352,0.000000,-0.086776,-0.440050,-0.000000
1.620000,-1.988296,0.919477,-1.367772,1.335777,0.374417,0.162772,1.464512,0.566680,1.057351,3.629199,-0.967997,2.297429,4.609584,-7.854738,-9.687434,0.063770,-0.165786,0.000000,-0.096689,-0.445164,-0.000000
1.630000,-1.974864,0.923249,-1.366091,1.350604,0.380034,0.173459,1.500989,0.556599,1.079824,3.660891,-1.049123,2.195473,1.703421,-8.372000,-10.706683,0.062751,-0.170266,0.000000,-0.107064,-0.448409,-0.000000
1.640000,-1.961283,0.927077,-1.364302,1.365797,0.385546,0.184365,1.537674,0.545686,1.101230,3.677324,-1.133794,2.084577,2.284791,-8.480015,-11.408365,0.061627,-0.174765,0.000000,-0.117896,-0.449620,0.000000
1.650000,-1.947547,0.930960,-1.362403,1.381358,0.390945,0.195480,1.574570,0.533922,1.121494,3.700546,-1.219376,1.966748,1.653853,-8.714908,-12.221986,0.060393,-0.179279,0.000000,-0.128890,-0.451263,-0.000000
1.660000,-1.933654,0.934896,-1.360392,1.397289,0.396222,0.206791,1.611657,0.521287,1.140534,3.716059,-1.308074,1.839898,1.091594,-8.940872,-13.043439,0.059048,-0.183802,0.000000,-0.140277,-0.451666,-0.000000
1.670000,-1.919600,0.938884,-1.358266,1.413592,0.401368,0.218286,1.648843,0.507760,1.158273,3.719069,-1.397391,1.706848,-0.147694,-8.998697,-13.667437,0.057587,-0.188321,0.000000,-0.151738,-0.450331,-0.000000
1.680000,-1.905381,0.942923,-1.356025,1.430266,0.406374,0.229952,1.686035,0.493329,1.174639,3.720284,-1.489646,1.564431,0.399210,-9.451479,-14.818333,0.056011,-0.192822,0.000000,-0.163553,-0.448368,-0.000000
1.690000,-1.890994,0.947011,-1.353667,1.447313,0.411231,0.241774,1.723247,0.477957,1.189529,3.720050,-1.584748,1.412557,-0.795539,-9.485152,-15.452728,0.054315,-0.197301,0.000000,-0.175693,-0.445794,0.000000
1.700000,-1.876434,0.951147,-1.351189,1.464731,0.415930,0.253737,1.760388,0.461635,1.202871,3.707281,-1.679945,1.254535,-1.414146,-9.629398,-16.252129,0.052498,-0.201744,0.000000,-0.187795,-0.441433,-0.000000
1.710000,-1.861698,0.955329,-1.348592,1.482520,0.420461,0.265826,1.797377,0.444354,1.214588,3.689417,-1.776375,1.087473,-2.076795,-9.731612,-17.045863,0.050559,-0.206139,0.000000,-0.199996,-0.436038,0.000000
1.720000,-1.846782,0.959555,-1.345872,1.500678,0.424814,0.278024,1.834161,0.426098,1.224604,3.666472,-1.875204,0.914702,-2.595171,-9.951787,-17.614925,0.048497,-0.210473,0.000000,-0.212387,-0.429681,-0.000000
1.730000,-1.831683,0.963825,-1.343031,1.519202,0.428979,0.290312,1.870680,0.406851,1.232851,3.635775,-1.973682,0.732936,-3.548618,-9.735623,-18.738628,0.046312,-0.214738,0.000000,-0.224651,-0.421981,-0.000000
1.740000,-1.816397,0.968134,-1.340066,1.538090,0.432948,0.302674,1.906849,0.386627,1.239232,3.597105,-2.071355,0.542208,-4.105248,-9.870498,-19.293127,0.044005,-0.218917,0.000000,-0.236713,-0.412911,0.000000
1.750000,-1.800920,0.972483,-1.336977,1.557338,0.436709,0.315091,1.942605,0.365419,1.243680,3.552942,-2.170305,0.346211,-4.810257,-9.835127,-20.011886,0.041577,-0.223001,0.000000,-0.248772,-0.402839,-0.000000
1.760000,-1.785249,0.976868,-1.333764,1.576941,0.440253,0.327541,1.977883,0.343229,1.246127,3.501457,-2.267433,0.141958,-5.515618,-9.745653,-20.711034,0.039031,-0.226977,0.000000,-0.260465,-0.391495,-0.000000
1.770000,-1.769380,0.981287,-1.330426,1.596894,0.443570,0.340006,2.012609,0.320060,1.246506,3.442350,-2.366566,-0.066779,-6.280358,-9.916283,-21.150462,0.036368,-0.230833,0.000000,-0.272191,-0.378951,-0.000000
1.780000,-1.753310,0.985738,-1.326964,1.617191,0.446651,0.352464,2.046707,0.295910,1.244764,3.376386,-2.462307,-0.283449,-6.912605,-9.219296,-22.181555,0.033589,-0.234557,0.000000,-0.283331,-0.365217,-0.000000
1.790000,-1.737035,0.990219,-1.323377,1.637826,0.449485,0.364894,2.080114,0.270829,1.240811,3.303536,-2.553979,-0.507871,-7.685510,-9.265987,-22.575863,0.030703,-0.238137,0.000000,-0.293787,-0.350310,0.000000
1.800000,-1.720552,0.994727,-1.319666,1.658791,0.452064,0.377273,2.112752,0.244826,1.234597,3.222881,-2.646116,-0.735856,-8.418942,-8.994999,-23.134282,0.027714,-0.241563,0.000000,-0.304040,-0.334261,0.000000
1.810000,-1.703858,0.999260,-1.315832,1.680078,0.454379,0.389578,2.144540,0.217935,1.226075,3.133411,-2.731221,-0.969338,-9.190410,-8.618253,-23.632475,0.024627,-0.244821,0.000000,-0.313233,-0.316936,0.000000
1.820000,-1.686950,1.003814,-1.311875,1.701678,0.456420,0.401787,2.175417,0.190166,1.215188,3.041687,-2.823842,-1.209065,-9.431594,-9.315168,-24.229175,0.021446,-0.247902,0.000000,-0.323001,-0.299060,-0.000000
1.830000,-1.669824,1.008387,-1.307796,1.723583,0.458179,0.413874,2.205335,0.161500,1.201883,2.938962,-2.905133,-1.452164,-11.122134,-6.916898,-24.379629,0.018172,-0.250798,0.000000,-0.331189,-0.279786,0.000000
1.840000,-1.652477,1.012977,-1.303598,1.745781,0.459647,0.425816,2.234156,0.132110,1.186136,2.824849,-2.973810,-1.698009,-11.420576,-7.399061,-24.856514,0.014828,-0.253494,0.000000,-0.337656,-0.259130,-0.000000
1.850000,-1.634907,1.017579,-1.299281,1.768262,0.460819,0.437588,2.261829,0.101995,1.167906,2.708183,-3.047971,-1.948456,-12.190034,-6.839317,-25.147001,0.011417,-0.255981,0.000000,-0.344437,-0.238041,0.000000
1.860000,-1.617111,1.022192,-1.294847,1.791014,0.461685,0.449166,2.288278,0.071187,1.147165,2.580059,-3.112633,-2.199917,-12.985059,-6.255206,-25.357899,0.007945,-0.258250,0.000000,-0.349842,-0.215693,0.000000
1.870000,-1.599086,1.026812,-1.290298,1.814023,0.462240,0.460523,2.313440,0.039749,1.123884,2.452638,-3.174497,-2.457458,-12.932050,-5.946826,-25.923456,0.004422,-0.260295,0.000000,-0.354629,-0.193298,-0.000000
1.880000,-1.580830,1.031436,-1.285637,1.837278,0.462478,0.471635,2.337284,0.007726,1.098022,2.312334,-3.227993,-2.713630,-15.139602,-4.740961,-25.293392,0.000857,-0.262112,0.000000,-0.358174,-0.169644,-0.000000
1.890000,-1.562340,1.036060,-1.280866,1.860764,0.462393,0.482475,2.359639,-0.024780,1.069620,2.158707,-3.272518,-2.967480,-15.143354,-4.324041,-25.683704,-0.002737,-0.263684,0.000000,-0.360434,-0.144770,0.000000
1.900000,-1.543614,1.040682,-1.275989,1.884466,0.461981,0.493019,2.380468,-0.057714,1.038656,2.005818,-3.312950,-3.225224,-15.867835,-3.591943,-25.635668,-0.006350,-0.265008,0.000000,-0.361960,-0.120044,-0.000000
1.910000,-1.524650,1.045299,-1.271007,1.908368,0.461238,0.503240,2.399744,-0.091002,1.005130,1.848807,-3.343160,-3.479643,-16.436557,-2.800130,-25.502243,-0.009971,-0.266085,0.000000,-0.362097,-0.095190,-0.000000
1.920000,-1.505446,1.049906,-1.265925,1.932455,0.460160,0.513113,2.417352,-0.124579,0.969047,1.668840,-3.372127,-3.737477,-18.672121,-2.644568,-25.794766,-0.013591,-0.266903,0.000000,-0.361850,-0.068076,-0.000000
1.930000,-1.486000,1.054501,-1.260746,1.956709,0.458745,0.522612,2.433144,-0.158400,0.930400,1.493939,-3.388741,-3.989888,-16.275642,-0.664036,-24.667416,-0.017203,-0.267450,0.000000,-0.360029,-0.041963,0.000000
1.940000,-1.466311,1.059080,-1.255474,1.981113,0.456992,0.531713,2.447260,-0.192307,0.889273,1.325621,-3.392311,-4.235799,-18.271597,-0.394640,-24.763061,-0.020786,-0.267747,0.000000,-0.356601,-0.017052,0.000000
1.950000,-1.446377,1.063640,-1.250113,2.005648,0.454899,0.540389,2.459571,-0.226245,0.845676,1.136145,-3.393631,-4.482697,-18.733231,0.479273,-24.344856,-0.024334,-0.267783,0.000000,-0.352764,0.009727,0.000000
1.960000,-1.426198,1.068177,-1.244668,2.030298,0.452467,0.548618,2.469986,-0.260134,0.799649,0.945987,-3.382374,-4.721783,-19.229689,1.384323,-23.829467,-0.027836,-0.267555,0.000000,-0.347445,0.035948,-0.000000
1.970000,-1.405771,1.072688,-1.239142,2.055042,0.449697,0.556374,2.478480,-0.293894,0.751229,0.752257,-3.369509,-4.962438,-19.575937,1.566467,-23.931773,-0.031283,-0.267064,0.000000,-0.341830,0.062152,0.000000
1.980000,-1.385097,1.077170,-1.233542,2.079861,0.446590,0.563635,2.485013,-0.327476,0.700437,0.553213,-3.343124,-5.192670,-20.230220,3.721460,-22.091752,-0.034667,-0.266312,0.000000,-0.334716,0.088152,-0.000000
1.990000,-1.364174,1.081618,-1.227871,2.104735,0.443148,0.570376,2.489526,-0.360707,0.647417,0.349042,-3.302741,-5.411280,-20.534698,3.972243,-21.979989,-0.037972,-0.265301,0.000000,-0.326118,0.113876,0.000000
2.000000,-1.343002,1.086031,-1.222136,2.129644,0.439377,0.576576,2.491985,-0.393531,0.592209,0.142062,-3.260492,-5.628977,-20.921227,4.854804,-21.187902,-0.041190,-0.264033,0.000000,-0.317307,0.139366,0.000000
2.010000,-1.321581,1.090405,-1.216342,2.154568,0.435279,0.582213,2.492340,-0.425888,0.534880,-0.072013,-3.209673,-5.835221,-21.336400,5.654271,-20.322500,-0.044315,-0.262511,0.000000,-0.307659,0.164749,-0.000000
2.020000,-1.299910,1.094736,-1.210494,2.179484,0.430861,0.587267,2.490576,-0.457670,0.475512,-0.279483,-3.144281,-6.037721,-20.688264,7.080817,-19.902814,-0.047337,-0.260740,0.000000,-0.296543,0.188850,0.000000
2.030000,-1.277991,1.099021,-1.204598,2.204372,0.426128,0.591717,2.486713,-0.488764,0.414170,-0.496921,-3.075266,-6.227524,-22.810280,6.706246,-18.039558,-0.050246,-0.258729,0.000000,-0.285195,0.213090,0.000000
2.040000,-1.255823,1.103257,-1.198662,2.229211,0.421088,0.595544,2.480599,-0.519169,0.351009,-0.724726,-3.003421,-6.403665,-22.203406,7.998488,-17.446053,-0.053041,-0.256472,0.000000,-0.273732,0.237468,-0.000000
2.050000,-1.233407,1.107442,-1.192690,2.253977,0.415748,0.598731,2.472252,-0.548782,0.286111,-0.945453,-2.918328,-6.573994,-22.474672,8.672486,-16.344631,-0.055715,-0.253979,0.000000,-0.261059,0.260470,0.000000
2.060000,-1.210744,1.111571,-1.186689,2.278649,0.410115,0.601261,2.461711,-0.577526,0.219575,-1.161877,-2.829461,-6.731230,-22.483419,9.302294,-15.197005,-0.058262,-0.251260,0.000000,-0.248215,0.282204,-0.000000
2.070000,-1.187835,1.115643,-1.180667,2.303204,0.404200,0.603117,2.448878,-0.605334,0.151517,-1.410429,-2.730520,-6.878724,-25.592623,10.275789,-14.193520,-0.060677,-0.248314,0.000000,-0.234630,0.306312,0.000000
2.080000,-1.164680,1.119655,-1.174629,2.327618,0.398012,0.604286,2.433580,-0.632127,0.082046,-1.639424,-2.628358,-7.012841,-20.150194,10.141686,-12.619311,-0.062955,-0.245133,0.000000,-0.220965,0.327672,-0.000000
2.090000,-1.141283,1.123603,-1.168583,2.351868,0.391561,0.604754,2.416177,-0.657895,0.011308,-1.846286,-2.523770,-7.133000,-22.862147,10.970992,-11.507086,-0.065096,-0.241759,0.000000,-0.207311,0.346099,-0.000000
2.100000,-1.117644,1.127485,-1.162536,2.375934,0.384858,0.604509,2.396527,-0.682571,-0.060579,-2.082633,-2.410863,-7.241991,-22.765347,11.397666,-10.183948,-0.067099,-0.238186,0.000000,-0.193171,0.366642,0.000000
2.110000,-1.093765,1.131299,-1.156496,2.399791,0.377913,0.603539,2.374504,-0.706111,-0.133479,-2.323555,-2.296681,-7.335658,-23.021578,11.743621,-8.803292,-0.068961,-0.234410,0.000000,-0.179241,0.386815,-0.000000
2.120000,-1.069648,1.135042,-1.150468,2.423416,0.370739,0.601836,2.350242,-0.728469,-0.207266,-2.520971,-2.173297,-7.420338,-18.781483,12.617288,-7.876437,-0.070681,-0.230451,0.000000,-0.164648,0.402253,-0.000000
2.130000,-1.045297,1.138713,-1.144461,2.446789,0.363348,0.599391,2.323969,-0.749583,-0.281827,-2.747889,-2.050960,-7.487816,-26.670159,11.829871,-5.607193,-0.072256,-0.226337,0.000000,-0.150567,0.419736,0.000000
2.140000,-1.020714,1.142309,-1.138483,2.469887,0.355752,0.596198,2.295158,-0.769497,-0.356961,-3.007267,-1.930733,-7.537499,-22.854082,12.513083,-4.580251,-0.073695,-0.222025,0.000000,-0.137105,0.439496,-0.000000
2.150000,-0.995900,1.145827,-1.132540,2.492685,0.347962,0.592250,2.264005,-0.788169,-0.432548,-3.224762,-1.803540,-7.577208,-22.976153,12.607121,-3.105742,-0.074996,-0.217541,0.000000,-0.123227,0.454795,0.000000
2.160000,-0.970861,1.149267,-1.126640,2.515160,0.339993,0.587546,2.230617,-0.805582,-0.508455,-3.452375,-1.679356,-7.601865,-22.865869,12.610378,-1.654012,-0.076162,-0.212901,0.000000,-0.110001,0.470430,-0.000000
2.170000,-0.945598,1.152627,-1.120792,2.537289,0.331855,0.582081,2.194935,-0.821725,-0.584523,-3.684917,-1.547951,-7.608696,-23.315200,13.279280,0.123738,-0.077194,-0.208105,0.000000,-0.096471,0.485893,0.000000
2.180000,-0.920116,1.155904,-1.115001,2.559051,0.323563,0.575855,2.156940,-0.836562,-0.660588,-3.911806,-1.421979,-7.602841,-22.042427,11.892032,1.042470,-0.078094,-0.203158,0.000000,-0.083771,0.500351,-0.000000
2.190000,-0.894419,1.159097,-1.109277,2.580421,0.315128,0.568869,2.116724,-0.850190,-0.736539,-4.131987,-1.302638,-7.584508,-22.303864,12.349015,2.790597,-0.078873,-0.198072,0.000000,-0.071985,0.513759,0.000000
2.200000,-0.868509,1.162206,-1.103626,2.601378,0.306563,0.561125,2.074285,-0.862592,-0.812216,-4.354931,-1.178482,-7.548457,-21.952550,12.088869,4.252709,-0.079533,-0.192851,0.000000,-0.060096,0.526925,-0.000000
2.210000,-0.842393,1.165228,-1.098057,2.621899,0.297880,0.552627,2.029709,-0.873793,-0.887464,-4.557900,-1.062640,-7.498685,-21.259474,11.716920,5.716515,-0.080079,-0.187508,0.000000,-0.049241,0.537918,0.000000
2.220000,-0.816073,1.168163,-1.092576,2.641965,0.289091,0.543378,1.982938,-0.883806,-0.962140,-4.804093,-0.938388,-7.434013,-25.416985,12.494835,7.199911,-0.080515,-0.182042,0.000000,-0.037973,0.552435,-0.000000
2.230000,-0.789555,1.171010,-1.087192,2.661550,0.280208,0.533386,1.933772,-0.892606,-1.036097,-5.012468,-0.826139,-7.355067,-16.169026,9.925910,8.586013,-0.080843,-0.176438,0.000000,-0.028024,0.563241,0.000000
2.240000,-0.762844,1.173767,-1.081911,2.680635,0.271242,0.522659,1.882849,-0.900378,-1.109194,-5.178924,-0.727332,-7.262035,-19.690587,10.461511,10.033085,-0.081081,-0.170756,0.000000,-0.019484,0.570091,0.000000
2.250000,-0.735944,1.176434,-1.076741,2.699201,0.262204,0.511206,1.830019,-0.907121,-1.181289,-5.384267,-0.622466,-7.154611,-18.804003,9.870754,11.431342,-0.081231,-0.164984,0.000000,-0.010690,0.580189,-0.000000
2.260000,-0.708861,1.179011,-1.071689,2.717228,0.253103,0.499037,1.775226,-0.912871,-1.252251,-5.573657,-0.528706,-7.035747,-18.151961,9.234816,12.758449,-0.081299,-0.159119,0.000000,-0.003072,0.588747,-0.000000
2.270000,-0.681601,1.181496,-1.066763,2.734699,0.243949,0.486165,1.718642,-0.917688,-1.321926,-5.738783,-0.434584,-6.895658,-15.759772,9.233378,14.845738,-0.081293,-0.153179,0.000000,0.004348,0.594961,-0.000000
2.280000,-0.654169,1.183890,-1.061968,2.751596,0.234752,0.472603,1.660432,-0.921602,-1.390140,-5.907478,-0.351506,-6.747513,-18.004061,7.365968,14.765506,-0.081216,-0.147179,0.000000,0.010639,0.601507,0.000000
2.290000,-0.626571,1.186191,-1.057313,2.767902,0.225520,0.458367,1.600470,-0.924760,-1.456855,-6.080801,-0.280277,-6.592181,-15.759414,7.228830,16.708318,-0.081084,-0.141107,0.000000,0.015766,0.608496,-0.000000
2.300000,-0.598813,1.188400,-1.052803,2.783600,0.216260,0.443472,1.538911,-0.927204,-1.521910,-6.230257,-0.210007,-6.416959,-15.026123,6.469492,17.919223,-0.080901,-0.134978,0.000000,0.020638,0.613338,-0.000000
2.310000,-0.570901,1.190516,-1.048446,2.798675,0.206978,0.427935,1.475830,-0.929002,-1.585136,-6.385741,-0.151046,-6.225363,-14.408729,5.676671,19.248662,-0.080675,-0.128797,0.000000,0.024366,0.618717,0.000000
2.320000,-0.542842,1.192540,-1.044247,2.813112,0.197681,0.411775,1.411352,-0.930223,-1.646467,-6.503118,-0.093229,-6.042656,-10.674756,5.540315,18.396732,-0.080413,-0.122575,0.000000,0.028060,0.621144,0.000000
2.330000,-0.514641,1.194470,-1.040212,2.826898,0.188375,0.395012,1.345714,-0.930909,-1.705895,-6.632996,-0.047501,-5.834252,-15.348090,3.594826,23.310222,-0.080119,-0.116330,0.000000,0.030504,0.624622,0.000000
2.340000,-0.486306,1.196307,-1.036348,2.840021,0.179064,0.377665,1.278631,-0.931217,-1.763054,-6.777426,-0.014323,-5.599112,-11.907988,3.391054,22.586257,-0.079808,-0.110037,0.000000,0.031682,0.629357,0.000000
2.350000,-0.457843,1.198051,-1.032661,2.852467,0.169752,0.359758,1.210318,-0.931195,-1.817928,-6.884875,0.017404,-5.373209,-11.197688,2.609511,23.701835,-0.079484,-0.103714,0.000000,0.032836,0.631335,0.000000
2.360000,-0.429259,1.199702,-1.029155,2.864224,0.160442,0.341314,1.140978,-0.930849,-1.870535,-6.980108,0.051992,-5.148882,-10.103082,2.112863,24.327025,-0.079149,-0.097373,0.000000,0.034261,0.632602,0.000000
2.370000,-0.400561,1.201260,-1.025836,2.875283,0.151136,0.322356,1.070569,-0.930350,-1.920628,-7.107630,0.039499,-4.857675,-13.205061,-2.475335,30.824021,-0.078818,-0.091011,0.000000,0.031263,0.636397,-0.000000
2.380000,-0.371756,1.202725,-1.022709,2.885631,0.141834,0.302912,0.998965,-0.929976,-1.967814,-7.198106,0.047330,-4.597267,-4.818434,4.110868,21.152417,-0.078516,-0.084615,0.000000,0.030259,0.637693,-0.000000
2.390000,-0.342851,1.204097,-1.019779,2.895260,0.132537,0.283007,0.926758,-0.929308,-2.012716,-7.248297,0.078603,-4.372470,-7.431072,-0.008084,26.909597,-0.078203,-0.078228,0.000000,0.031496,0.636201,0.000000
2.400000,-0.313853,1.205376,-1.017051,2.904164,0.123248,0.262666,0.853862,-0.928589,-2.055002,-7.327908,0.065485,-4.085610,-6.284360,-0.467900,27.357059,-0.077903,-0.071841,0.000000,0.028620,0.637139,-0.000000
2.410000,-0.284770,1.206562,-1.014527,2.912335,0.113965,0.241916,0.780317,-0.928022,-2.094413,-7.378619,0.045296,-3.793648,-5.139597,-1.309886,28.278607,-0.077633,-0.065455,0.000000,0.025181,0.636048,0.000000
2.420000,-0.255609,1.207655,-1.012214,2.919769,0.104687,0.220787,0.706224,-0.927528,-2.131069,-7.442533,0.060104,-3.545452,-6.404328,2.081054,24.025972,-0.077385,-0.059074,0.000000,0.024969,0.636687,0.000000
2.430000,-0.226377,1.208656,-1.010113,2.926458,0.095415,0.199303,0.631561,-0.926950,-2.165169,-7.480714,0.040932,-3.257166,-1.199033,-5.980967,33.709100,-0.077145,-0.052690,0.000000,0.021710,0.635362,0.000000
2.440000,-0.197082,1.209563,-1.008229,2.932399,0.086146,0.177495,0.556710,-0.926849,-2.196046,-7.491789,-0.015086,-2.925416,-2.278370,-3.004688,29.938333,-0.076963,-0.046336,0.000000,0.015178,0.632060,-0.000000
2.450000,-0.167732,1.210378,-1.006564,2.937591,0.076877,0.155393,0.481660,-0.927102,-2.223864,-7.515819,-0.037857,-2.635648,-1.287918,-3.749760,30.694954,-0.076828,-0.040004,0.000000,0.011699,0.630444,0.000000
2.460000,-0.138333,1.211101,-1.005122,2.942032,0.067603,0.133027,0.406384,-0.927704,-2.248656,-7.539932,-0.084155,-2.321092,-0.755122,-4.430400,31.326062,-0.076738,-0.033688,0.000000,0.006153,0.629184,0.000000
2.470000,-0.108893,1.211731,-1.003904,2.945719,0.058321,0.110430,0.331105,-0.928720,-2.270338,-7.505484,-0.116424,-2.017433,4.923955,-3.052843,30.249338,-0.076699,-0.027402,0.000000,0.001872,0.623566,0.000000
2.480000,-0.079421,1.212267,-1.002914,2.948655,0.049028,0.087631,0.256163,-0.930100,-2.288947,-7.498569,-0.166816,-1.698394,-3.637931,-7.045683,33.572762,-0.076706,-0.021169,0.000000,-0.003985,0.620633,-0.000000
2.490000,-0.049923,1.212711,-1.002152,2.950841,0.039717,0.064662,0.181005,-0.932127,-2.304246,-7.523693,-0.236034,-1.363536,1.335274,-5.733558,32.521794,-0.076785,-0.014940,0.000000,-0.011470,0.620770,0.000000
2.500000,-0.020407,1.213062,-1.001621,2.952276,0.030383,0.041557,0.105915,-0.934752,-2.316273,-7.495324,-0.290083,-1.040932,1.601124,-6.105504,32.843156,-0.076930,-0.008734,0.000000,-0.017616,0.616978,0.000000
2.510000,0.009120,1.213319,-1.001321,2.952960,0.021021,0.018347,0.030906,-0.937782,-2.325189,-7.509874,-0.311158,-0.746179,1.330452,-5.489342,32.324647,-0.077124,-0.002547,0.000000,-0.020886,0.617164,0.000000
2.520000,0.038650,1.213482,-1.001254,2.952895,0.011625,-0.004936,-0.043817,-0.941554,-2.330709,-7.415025,-0.467616,-0.337378,11.958572,-18.612547,43.376156,-0.077398,0.003609,0.000000,-0.035974,0.608821,0.000000
2.530000,0.068176,1.213551,-1.001420,2.952087,0.002184,-0.028253,-0.117669,-0.946776,-2.332238,-7.389929,-0.532498,-0.005835,-7.116383,5.870023,22.734625,-0.077813,0.009691,0.000000,-0.043094,0.606710,-0.000000
2.540000,0.097689,1.213525,-1.001819,2.950540,-0.007309,-0.051572,-0.191919,-0.951807,-2.331161,-7.442450,-0.495250,0.239510,2.348904,-5.660306,32.434332,-0.078225,0.015806,0.000000,-0.041319,0.611277,0.000000
2.550000,0.127184,1.213405,-1.002452,2.948249,-0.016853,-0.074866,-0.266073,-0.957228,-2.326988,-7.391442,-0.584120,0.590953,2.151781,-4.891337,31.768028,-0.078687,0.021919,0.000000,-0.050586,0.607889,-0.000000
2.560000,0.156652,1.213188,-1.003316,2.945220,-0.026456,-0.098101,-0.339687,-0.963511,-2.319311,-7.325604,-0.677753,0.949310,3.261391,-5.511919,32.332667,-0.079239,0.027998,0.000000,-0.060343,0.603775,-0.000000
2.570000,0.186086,1.212875,-1.004413,2.941456,-0.036125,-0.121242,-0.413178,-0.970128,-2.308598,-7.397397,-0.617783,1.167952,-10.067667,9.428722,18.741696,-0.079836,0.034081,0.000000,-0.056625,0.611038,0.000000
2.580000,0.215479,1.212465,-1.005741,2.936954,-0.045857,-0.144265,-0.487244,-0.976263,-2.295592,-7.368404,-0.658752,1.478367,16.115268,-17.872256,43.568061,-0.080407,0.040228,0.000000,-0.061826,0.610621,0.000000
2.590000,0.244822,1.211958,-1.007298,2.931716,-0.055655,-0.167140,-0.560113,-0.983740,-2.278633,-7.227343,-0.811727,1.890596,4.498284,-4.561846,31.454667,-0.081112,0.046301,0.000000,-0.077006,0.601828,0.000000
2.600000,0.274110,1.211352,-1.009083,2.925753,-0.065533,-0.189827,-0.632348,-0.991870,-2.258351,-7.213601,-0.819080,2.170293,5.845939,-5.028472,31.869204,-0.081892,0.052349,0.000000,-0.079398,0.603460,-0.000000
2.610000,0.303335,1.210647,-1.011094,2.919070,-0.075494,-0.212297,-0.704106,-1.000264,-2.235118,-7.134576,-0.858206,2.474204,7.073911,-4.693707,31.461430,-0.082712,0.058389,0.000000,-0.084656,0.600211,-0.000000
2.620000,0.332489,1.209842,-1.013328,2.911673,-0.085540,-0.234519,-0.775233,-1.009177,-2.208674,-7.098642,-0.930244,2.822824,2.919428,-7.845215,35.764654,-0.083598,0.064413,0.000000,-0.093006,0.601167,-0.000000
2.630000,0.361566,1.208936,-1.015783,2.903567,-0.095680,-0.256459,-0.845907,-1.018767,-2.178795,-7.017300,-0.975876,3.137052,13.434726,-1.206712,26.989193,-0.084564,0.070441,0.000000,-0.099072,0.598646,-0.000000
2.640000,0.390558,1.207928,-1.018456,2.894759,-0.105916,-0.278086,-0.915392,-1.028579,-2.146081,-6.886771,-0.991529,3.412588,9.833256,-3.776994,30.611786,-0.085569,0.076414,0.000000,-0.102515,0.592200,0.000000
2.650000,0.419459,1.206817,-1.021344,2.885263,-0.116252,-0.299371,-0.983827,-1.038723,-2.110367,-6.796756,-1.035152,3.727689,10.981812,-3.063105,29.892906,-0.086626,0.082347,0.000000,-0.108640,0.589738,0.000000
2.660000,0.448261,1.205603,-1.024443,2.875086,-0.126691,-0.320283,-1.051406,-1.049055,-2.071690,-6.722588,-1.025213,4.004422,11.078641,-1.616641,28.867607,-0.087722,0.088260,0.000000,-0.110139,0.588717,0.000000
2.670000,0.476959,1.204283,-1.027748,2.864239,-0.137234,-0.340795,-1.117688,-1.059721,-2.030036,-6.508820,-1.128681,4.336327,24.640584,-12.575484,34.175068,-0.088872,0.094120,0.000000,-0.121703,0.576856,-0.000000
2.680000,0.505544,1.202857,-1.031257,2.852739,-0.147889,-0.360873,-1.181909,-1.071274,-1.985155,-6.377448,-1.140265,4.617864,1.405004,10.471677,22.018664,-0.090126,0.099870,0.000000,-0.125348,0.571819,-0.000000
2.690000,0.534011,1.201325,-1.034964,2.840602,-0.158657,-0.380490,-1.245602,-1.082137,-1.937890,-6.338789,-1.050335,4.843827,13.411025,0.970347,26.525149,-0.091345,0.105633,0.000000,-0.120066,0.574396,0.000000
2.700000,0.562354,1.199684,-1.038865,2.827832,-0.169531,-0.399622,-1.308125,-1.092744,-1.888054,-6.169549,-1.065179,5.119732,13.364652,2.590196,25.303603,-0.092569,0.111362,0.000000,-0.124142,0.566785,0.000000
2.710000,0.590566,1.197934,-1.042955,2.814444,-0.180512,-0.418242,-1.369072,-1.103382,-1.835510,-6.017026,-1.064324,5.390110,14.091861,3.165738,24.722428,-0.093823,0.117025,0.000000,-0.126966,0.560833,-0.000000
2.720000,0.618641,1.196073,-1.047228,2.800455,-0.191598,-0.436324,-1.428689,-1.113558,-1.780600,-5.915771,-0.950520,5.576885,9.113238,14.170571,16.554986,-0.095065,0.122644,0.000000,-0.119588,0.558642,-0.000000
2.730000,0.646573,1.194102,-1.051680,2.785874,-0.202779,-0.453848,-1.487227,-1.122626,-1.723811,-5.772734,-0.894805,5.803567,19.584895,-3.200193,28.899736,-0.096236,0.128237,0.000000,-0.117500,0.553568,-0.000000
2.740000,0.674356,1.192018,-1.056303,2.770716,-0.214051,-0.470791,-1.543968,-1.131716,-1.664348,-5.583913,-0.904903,6.075346,15.192865,6.651483,21.486511,-0.097440,0.133755,0.000000,-0.121545,0.545367,0.000000
2.750000,0.701985,1.189820,-1.061093,2.755000,-0.225411,-0.487128,-1.599118,-1.140273,-1.602640,-5.443588,-0.808297,6.266830,15.843979,7.212067,20.754319,-0.098626,0.139212,0.000000,-0.115807,0.540614,0.000000
2.760000,0.729455,1.187509,-1.066044,2.738739,-0.236853,-0.502837,-1.652767,-1.147943,-1.538995,-5.285635,-0.723054,6.459378,16.230972,8.285873,19.525785,-0.099761,0.144614,0.000000,-0.111071,0.534558,0.000000
2.770000,0.756758,1.185083,-1.071148,2.721950,-0.248368,-0.517901,-1.704779,-1.154824,-1.473350,-5.114551,-0.656862,6.673546,17.508667,6.454496,21.573984,-0.100856,0.149954,0.000000,-0.108196,0.527837,-0.000000
2.780000,0.783892,1.182541,-1.076399,2.704649,-0.259947,-0.532297,-1.755068,-1.160975,-1.405647,-4.945478,-0.562436,6.854465,16.287516,12.475213,14.548087,-0.101915,0.155225,0.000000,-0.102592,0.521037,0.000000
2.790000,0.810850,1.179884,-1.081792,2.686854,-0.271583,-0.546009,-1.803702,-1.165961,-1.336395,-4.779294,-0.437834,6.999270,17.423782,10.923737,16.148097,-0.102896,0.160429,0.000000,-0.093979,0.514120,-0.000000
2.800000,0.837627,1.177110,-1.087317,2.668581,-0.283263,-0.559020,-1.850605,-1.169818,-1.265570,-4.601136,-0.331149,7.162494,17.727903,11.921887,14.752888,-0.103803,0.165560,0.000000,-0.087051,0.506527,0.000000
2.810000,0.864220,1.174218,-1.092970,2.649848,-0.294976,-0.571315,-1.895720,-1.172521,-1.193230,-4.421195,-0.208229,7.303344,18.062846,12.779379,13.428794,-0.104631,0.170613,0.000000,-0.078418,0.498543,-0.000000
2.820000,0.890623,1.171210,-1.098741,2.630672,-0.306709,-0.582880,-1.939034,-1.173944,-1.119546,-4.241735,-0.074551,7.431117,18.013624,13.830595,12.103235,-0.105367,0.175585,0.000000,-0.068602,0.490464,-0.000000
2.830000,0.916832,1.168084,-1.104625,2.611073,-0.318450,-0.593702,-1.980536,-1.173991,-1.044654,-4.057046,0.065742,7.544944,18.926391,14.217113,10.656478,-0.106000,0.180474,0.000000,-0.057938,0.481739,0.000000
2.840000,0.942843,1.164841,-1.110613,2.591068,-0.330184,-0.603770,-2.020156,-1.172610,-0.968695,-3.867092,0.212050,7.644496,18.870476,15.156777,9.266617,-0.106523,0.185272,0.000000,-0.046449,0.472317,-0.000000
2.850000,0.968652,1.161481,-1.116698,2.570676,-0.341897,-0.613073,-2.057885,-1.169717,-0.891810,-3.678100,0.367688,7.730043,19.112828,15.841676,7.821287,-0.106925,0.189974,0.000000,-0.033795,0.462719,-0.000000
