time,x,y,z,vx,vy,vz,ax,ay,az,jx,jy,jz,sx,sy,sz,roll,pitch,yaw,p,q,r
0.000000,-3.388548,-0.245503,-1.483633,-0.015763,-0.005333,0.009791,0.298372,-0.087400,-0.069257,13.681042,-3.872400,-2.566488,-110.878130,45.493790,78.646573,-0.008843,-0.030193,0.000000,-0.389099,-1.375670,0.000000
0.010000,-3.388705,-0.245557,-1.483535,-0.012779,-0.006207,0.009098,0.435182,-0.126124,-0.094922,12.572260,-3.417462,-1.780022,-496.122766,161.049968,172.033671,-0.012721,-0.043908,0.000000,-0.341649,-1.258866,0.000000
0.020000,-3.388803,-0.245627,-1.483451,-0.007059,-0.007855,0.007892,0.549817,-0.155749,-0.104858,3.758586,-0.651401,0.874185,-802.755451,246.366423,207.586078,-0.015683,-0.055397,0.000000,-0.066632,-0.382751,-0.000000
0.030000,-3.388846,-0.245714,-1.483377,-0.001783,-0.009322,0.007001,0.510354,-0.139152,-0.077438,-3.482849,1.509866,2.371699,-318.171095,94.051902,41.033416,-0.014054,-0.051571,0.000000,0.148856,0.338932,-0.000000
0.040000,-3.388839,-0.245814,-1.483311,0.003148,-0.010638,0.006344,0.480160,-0.125552,-0.057424,-2.604835,1.229637,1.694854,83.089386,-26.158443,-61.692860,-0.012708,-0.048623,0.000000,0.122108,0.255001,-0.000000
0.050000,-3.388783,-0.245926,-1.483250,0.007821,-0.011833,0.005853,0.458257,-0.114559,-0.043541,-1.821061,0.986698,1.137842,74.014751,-22.593408,-50.426100,-0.011613,-0.046473,0.000000,0.098577,0.179043,-0.000000
0.060000,-3.388682,-0.246050,-1.483194,0.012313,-0.012929,0.005473,0.443739,-0.105818,-0.034667,-1.124540,0.777769,0.686332,65.623752,-19.347997,-40.548369,-0.010737,-0.045044,0.000000,0.078113,0.110854,0.000000
0.070000,-3.388537,-0.246185,-1.483141,0.016695,-0.013949,0.005159,0.435767,-0.099004,-0.029815,-0.508586,0.599738,0.326875,57.886889,-16.405984,-31.971179,-0.010051,-0.044257,0.000000,0.060528,0.050115,0.000000
0.080000,-3.388348,-0.246329,-1.483091,0.021028,-0.014910,0.004877,0.433567,-0.093823,-0.028129,0.033197,0.449650,0.046908,50.774719,-13.751139,-24.606030,-0.009527,-0.044042,0.000000,0.045612,-0.003577,-0.000000
0.090000,-3.388117,-0.246483,-1.483043,0.025367,-0.015826,0.004597,0.436431,-0.090011,-0.028876,0.506909,0.324715,-0.165246,44.257738,-11.367237,-18.364432,-0.009139,-0.044329,0.000000,0.033142,-0.050674,0.000000
0.100000,-3.387841,-0.246646,-1.482999,0.029757,-0.016710,0.004299,0.443705,-0.087329,-0.031434,0.918352,0.222305,-0.320381,38.306433,-9.238048,-13.157897,-0.008864,-0.045055,0.000000,0.022889,-0.091657,-0.000000
0.110000,-3.387521,-0.246817,-1.482957,0.034241,-0.017572,0.003968,0.454798,-0.085565,-0.035284,1.273037,0.139954,-0.428404,32.891339,-7.347345,-8.897936,-0.008681,-0.046162,0.000000,0.014628,-0.127018,-0.000000
0.120000,-3.387156,-0.246997,-1.482919,0.038853,-0.018421,0.003593,0.469166,-0.084530,-0.040002,1.576179,0.075358,-0.498339,27.982964,-5.678900,-5.496045,-0.008572,-0.047595,0.000000,0.008139,-0.157246,0.000000
0.130000,-3.386744,-0.247186,-1.482885,0.043624,-0.019263,0.003168,0.486321,-0.084058,-0.045251,1.832697,0.026376,-0.538325,23.551812,-4.216484,-2.863733,-0.008519,-0.049306,0.000000,0.003215,-0.182814,0.000000
0.140000,-3.386284,-0.247383,-1.482856,0.048579,-0.020102,0.002688,0.505820,-0.084002,-0.050769,2.047215,-0.008972,-0.555614,19.568431,-2.943873,-0.912550,-0.008507,-0.051251,0.000000,-0.000340,-0.204177,-0.000000
0.150000,-3.385773,-0.247588,-1.482832,0.053740,-0.020943,0.002153,0.527265,-0.084237,-0.056363,2.224065,-0.032502,-0.556576,16.003298,-1.844835,0.446025,-0.008525,-0.053390,0.000000,-0.002707,-0.221763,-0.000000
0.160000,-3.385209,-0.247801,-1.482813,0.059125,-0.021787,0.001561,0.550301,-0.084652,-0.061900,2.367281,-0.045868,-0.546694,12.826883,-0.903143,1.300529,-0.008562,-0.055687,0.000000,-0.004052,-0.235971,0.000000
0.170000,-3.384590,-0.248024,-1.482800,0.064746,-0.022636,0.000915,0.574611,-0.085154,-0.067297,2.480603,-0.050564,-0.530565,10.008182,-0.101076,1.751938,-0.008606,-0.058109,0.000000,-0.004524,-0.247171,0.000000
0.180000,-3.383914,-0.248254,-1.482795,0.070617,-0.023490,0.000215,0.599914,-0.085664,-0.072512,2.567445,-0.047890,-0.511655,7.490101,0.603691,2.107796,-0.008652,-0.060630,0.000000,-0.004254,-0.255702,-0.000000
0.190000,-3.383178,-0.248493,-1.482796,0.076745,-0.024349,-0.000536,0.625960,-0.086112,-0.077530,2.630405,-0.038491,-0.488409,5.252657,1.218363,2.380879,-0.008692,-0.063224,0.000000,-0.003311,-0.261846,0.000000
0.200000,-3.382379,-0.248741,-1.482805,0.083136,-0.025212,-0.001335,0.652522,-0.086433,-0.082280,2.672498,-0.023523,-0.464037,3.470148,1.566584,1.043140,-0.008718,-0.065867,0.000000,-0.001811,-0.265899,-0.000000
0.210000,-3.381515,-0.248998,-1.482823,0.089795,-0.026078,-0.002181,0.679410,-0.086583,-0.086811,2.699808,-0.007159,-0.467547,2.091260,1.685214,-1.643740,-0.008728,-0.068542,0.000000,-0.000149,-0.268278,-0.000000
0.220000,-3.380583,-0.249263,-1.482849,0.096724,-0.026944,-0.003072,0.706518,-0.086577,-0.091631,2.714323,0.010182,-0.496912,0.501122,2.143206,-0.955238,-0.008721,-0.071233,0.000000,0.001631,-0.269167,-0.000000
0.230000,-3.379581,-0.249537,-1.482884,0.103926,-0.027809,-0.004014,0.733696,-0.086379,-0.096749,2.709830,0.035705,-0.486651,-1.359186,2.975849,3.296020,-0.008695,-0.073925,0.000000,0.004194,-0.268413,-0.000000
0.240000,-3.378505,-0.249819,-1.482929,0.111398,-0.028672,-0.005007,0.760714,-0.085862,-0.101364,2.687139,0.069699,-0.430992,-2.701449,3.429599,4.758308,-0.008637,-0.076602,0.000000,0.007563,-0.266201,-0.000000
0.250000,-3.377353,-0.250110,-1.482984,0.119140,-0.029527,-0.006041,0.787439,-0.084985,-0.105369,2.655801,0.104297,-0.391485,-3.330821,3.373350,2.734004,-0.008544,-0.079250,0.000000,0.011001,-0.263043,0.000000
0.260000,-3.376122,-0.250409,-1.483050,0.127147,-0.030371,-0.007114,0.813830,-0.083777,-0.109193,2.620523,0.137166,-0.376311,-3.830264,3.339477,1.595752,-0.008417,-0.081863,0.000000,0.014279,-0.259320,0.000000
0.270000,-3.374810,-0.250717,-1.483127,0.135416,-0.031202,-0.008225,0.839850,-0.082242,-0.112895,2.579196,0.171087,-0.359570,-4.670474,3.575315,2.078243,-0.008258,-0.084436,0.000000,0.017657,-0.255021,0.000000
0.280000,-3.373414,-0.251033,-1.483214,0.143944,-0.032016,-0.009372,0.865414,-0.080355,-0.116385,2.527113,0.208672,-0.334747,-5.700927,3.915920,2.694696,-0.008064,-0.086963,0.000000,0.021389,-0.249739,0.000000
0.290000,-3.371931,-0.251358,-1.483314,0.152725,-0.032809,-0.010553,0.890392,-0.078068,-0.119590,2.465177,0.249405,-0.305676,-6.364068,4.082691,2.863104,-0.007831,-0.089431,0.000000,0.025428,-0.243540,-0.000000
0.300000,-3.370359,-0.251690,-1.483425,0.161752,-0.033577,-0.011764,0.914718,-0.075367,-0.122498,2.399832,0.290326,-0.277485,-6.556304,4.049849,2.737867,-0.007556,-0.091834,0.000000,0.029481,-0.237024,-0.000000
0.310000,-3.368696,-0.252029,-1.483549,0.171019,-0.034317,-0.013003,0.938389,-0.072262,-0.125140,2.334051,0.330402,-0.250919,-6.680060,4.009288,2.666665,-0.007241,-0.094172,0.000000,0.033447,-0.230481,0.000000
0.320000,-3.366939,-0.252376,-1.483686,0.180520,-0.035023,-0.014266,0.961399,-0.068759,-0.127517,2.266231,0.370511,-0.224151,-7.041090,4.062342,2.699663,-0.006887,-0.096444,0.000000,0.037414,-0.223766,-0.000000
0.330000,-3.365086,-0.252730,-1.483835,0.190247,-0.035692,-0.015553,0.983713,-0.064852,-0.129623,2.193230,0.411649,-0.196926,-7.533430,4.151891,2.723259,-0.006493,-0.098648,0.000000,0.041480,-0.216569,0.000000
0.340000,-3.363134,-0.253090,-1.483997,0.200194,-0.036320,-0.016859,1.005263,-0.060526,-0.131455,2.115562,0.453549,-0.169686,-7.796530,4.162091,2.703114,-0.006057,-0.100776,0.000000,0.045620,-0.208936,0.000000
0.350000,-3.361082,-0.253456,-1.484172,0.210352,-0.036902,-0.018182,1.026024,-0.055781,-0.133016,2.037299,0.494891,-0.142863,-7.764722,4.079433,2.654282,-0.005580,-0.102827,0.000000,0.049704,-0.201268,-0.000000
0.360000,-3.358927,-0.253828,-1.484360,0.220714,-0.037435,-0.019519,1.046009,-0.050628,-0.134312,1.960268,0.535138,-0.116600,-7.697525,3.984895,2.597683,-0.005063,-0.104801,0.000000,0.053679,-0.193745,0.000000
0.370000,-3.356667,-0.254205,-1.484562,0.231273,-0.037915,-0.020868,1.065230,-0.045078,-0.135348,1.883348,0.574589,-0.090910,-7.791634,3.925737,2.533104,-0.004507,-0.106702,0.000000,0.057576,-0.186252,-0.000000
0.380000,-3.354301,-0.254586,-1.484778,0.242019,-0.038337,-0.022226,1.083676,-0.039136,-0.136131,1.804435,0.613653,-0.065938,-7.978435,3.878629,2.455269,-0.003912,-0.108526,0.000000,0.061436,-0.178577,-0.000000
0.390000,-3.351827,-0.254972,-1.485007,0.252946,-0.038698,-0.023591,1.101319,-0.032805,-0.136667,1.723780,0.652161,-0.041804,-8.025427,3.789267,2.368443,-0.003278,-0.110273,0.000000,0.065243,-0.170743,0.000000
0.400000,-3.349242,-0.255360,-1.485249,0.264045,-0.038993,-0.024960,1.118152,-0.026093,-0.136967,1.643927,0.689438,-0.018569,-7.890243,3.650488,2.271601,-0.002607,-0.111941,0.000000,0.068930,-0.162999,-0.000000
0.410000,-3.346546,-0.255751,-1.485506,0.275309,-0.039219,-0.026330,1.134197,-0.019016,-0.137039,1.565975,0.725171,0.003628,-7.739940,3.500792,2.163502,-0.001899,-0.113533,0.000000,0.072467,-0.155451,-0.000000
0.420000,-3.343736,-0.256145,-1.485776,0.286729,-0.039373,-0.027700,1.149472,-0.011589,-0.136894,1.489128,0.759454,0.024701,-7.700580,3.364316,2.054221,-0.001157,-0.115051,0.000000,0.075863,-0.148018,-0.000000
0.430000,-3.340811,-0.256539,-1.486060,0.298299,-0.039451,-0.029068,1.163980,-0.003827,-0.136545,1.411963,0.792457,0.044712,-7.727881,3.230320,1.945725,-0.000382,-0.116494,0.000000,0.079136,-0.140556,-0.000000
0.440000,-3.337770,-0.256934,-1.486357,0.310009,-0.039450,-0.030431,1.177711,0.004260,-0.136000,1.334570,0.824060,0.063615,-7.672470,3.071169,1.826159,0.000425,-0.117862,0.000000,0.082275,-0.133073,-0.000000
0.450000,-3.334611,-0.257328,-1.486668,0.321853,-0.039366,-0.031788,1.190671,0.012654,-0.135272,1.258514,0.853881,0.081235,-7.505542,2.883245,1.695718,0.001263,-0.119155,0.000000,0.085240,-0.125720,-0.000000
0.460000,-3.331333,-0.257721,-1.486993,0.333822,-0.039197,-0.033137,1.202881,0.021337,-0.134375,1.184459,0.881725,0.097529,-7.334197,2.686442,1.563898,0.002130,-0.120376,0.000000,0.088014,-0.118560,0.000000
0.470000,-3.327935,-0.258112,-1.487331,0.345910,-0.038939,-0.034476,1.214360,0.030289,-0.133322,1.111830,0.907610,0.112513,-7.243429,2.493150,1.430404,0.003024,-0.121526,0.000000,0.090597,-0.111535,0.000000
0.480000,-3.324415,-0.258500,-1.487683,0.358110,-0.038591,-0.035803,1.225118,0.039490,-0.132125,1.039591,0.931588,0.126137,-7.204643,2.298045,1.293904,0.003942,-0.122607,0.000000,0.092996,-0.104539,-0.000000
0.490000,-3.320773,-0.258884,-1.488047,0.370413,-0.038149,-0.037118,1.235152,0.048921,-0.130799,0.967737,0.953570,0.138391,-7.115871,2.087293,1.157385,0.004884,-0.123617,0.000000,0.095199,-0.097572,0.000000
0.500000,-3.317007,-0.259263,-1.488425,0.382813,-0.037613,-0.038419,1.244472,0.058561,-0.129357,0.897273,0.973334,0.149285,-6.958619,1.858987,1.015717,0.005846,-0.124558,0.000000,0.097187,-0.090731,0.000000
0.510000,-3.313116,-0.259636,-1.488816,0.395302,-0.036978,-0.039705,1.253097,0.068387,-0.127813,0.828565,0.990750,0.158706,-6.805303,1.623380,0.868698,0.006827,-0.125432,0.000000,0.098944,-0.084050,0.000000
0.520000,-3.309101,-0.260002,-1.489219,0.407875,-0.036245,-0.040975,1.261044,0.078376,-0.126183,0.761167,1.005802,0.166659,-6.708274,1.387616,0.736106,0.007825,-0.126239,0.000000,0.100469,-0.077484,-0.000000
0.530000,-3.304959,-0.260361,-1.489635,0.420523,-0.035411,-0.042229,1.268321,0.088503,-0.124480,0.694399,1.018502,0.173428,-6.647497,1.149180,0.620712,0.008837,-0.126982,0.000000,0.101763,-0.070967,-0.000000
0.540000,-3.300690,-0.260710,-1.490064,0.433241,-0.034475,-0.043465,1.274932,0.098746,-0.122714,0.628217,1.028785,0.179073,-6.560344,0.900245,0.496684,0.009860,-0.127659,0.000000,0.102819,-0.064496,0.000000
0.550000,-3.296294,-0.261050,-1.490504,0.446022,-0.033436,-0.044683,1.280885,0.109079,-0.120899,0.563192,1.036507,0.183362,-6.435287,0.639848,0.354949,0.010893,-0.128272,0.000000,0.103622,-0.058122,-0.000000
0.560000,-3.291770,-0.261379,-1.490957,0.458859,-0.032293,-0.045883,1.286196,0.119476,-0.119047,0.499512,1.041582,0.186172,-6.316472,0.373996,0.214642,0.011933,-0.128821,0.000000,0.104162,-0.051863,-0.000000
0.570000,-3.287117,-0.261696,-1.491422,0.471746,-0.031046,-0.047064,1.290875,0.129911,-0.117175,0.436863,1.043987,0.187654,-6.236809,0.106685,0.098252,0.012976,-0.129309,0.000000,0.104437,-0.045688,0.000000
0.580000,-3.282335,-0.262000,-1.491899,0.484676,-0.029695,-0.048226,1.294933,0.140356,-0.115294,0.374775,1.043716,0.188137,-6.184149,-0.163473,0.000521,0.014021,-0.129735,0.000000,0.104446,-0.039555,-0.000000
0.590000,-3.277423,-0.262290,-1.492387,0.497644,-0.028239,-0.049370,1.298371,0.150785,-0.113412,0.313180,1.040718,0.187665,-6.118465,-0.440553,-0.106731,0.015065,-0.130100,0.000000,0.104184,-0.033457,0.000000
0.600000,-3.272382,-0.262565,-1.492886,0.510644,-0.026679,-0.050495,1.301196,0.161170,-0.111541,0.252406,1.034905,0.186003,-6.030390,-0.724562,-0.225159,0.016105,-0.130404,0.000000,0.103640,-0.027424,-0.000000
0.610000,-3.267211,-0.262824,-1.493397,0.523668,-0.025016,-0.051601,1.303419,0.171483,-0.109692,0.192572,1.026227,0.183162,-5.947955,-1.012159,-0.335461,0.017138,-0.130649,0.000000,0.102810,-0.021465,-0.000000
0.620000,-3.261909,-0.263065,-1.493918,0.536712,-0.023250,-0.052689,1.305048,0.181695,-0.107878,0.133447,1.014662,0.179294,-5.897000,-1.302088,-0.435620,0.018161,-0.130834,0.000000,0.101690,-0.015562,-0.000000
0.630000,-3.256476,-0.263289,-1.494450,0.549769,-0.021382,-0.053758,1.306088,0.191776,-0.106106,0.074632,1.000185,0.174449,-5.869658,-1.595009,-0.531457,0.019172,-0.130960,0.000000,0.100277,-0.009674,-0.000000
0.640000,-3.250913,-0.263493,-1.494993,0.562834,-0.019414,-0.054811,1.306540,0.201698,-0.104389,0.016054,0.982762,0.168664,-5.833115,-1.891560,-0.623560,0.020167,-0.131027,0.000000,0.098568,-0.003794,-0.000000
0.650000,-3.245220,-0.263677,-1.495547,0.575900,-0.017348,-0.055846,1.306409,0.211432,-0.102733,-0.042030,0.962354,0.161978,-5.780795,-2.191304,-0.715213,0.021143,-0.131036,0.000000,0.096558,0.002050,-0.000000
0.660000,-3.239395,-0.263840,-1.496110,0.588962,-0.015185,-0.056865,1.305700,0.220946,-0.101149,-0.099562,0.938935,0.154360,-5.735045,-2.493261,-0.805690,0.022098,-0.130986,0.000000,0.094245,0.007855,-0.000000
0.670000,-3.233440,-0.263981,-1.496684,0.602014,-0.012929,-0.057869,1.304418,0.230210,-0.099646,-0.156731,0.912488,0.145864,-5.711381,-2.797187,-0.882299,0.023028,-0.130879,0.000000,0.091625,0.013638,0.000000
0.680000,-3.227355,-0.264098,-1.497268,0.615050,-0.010581,-0.058858,1.302565,0.239195,-0.098232,-0.213790,0.882992,0.136714,-5.702817,-3.103029,-0.944607,0.023931,-0.130713,0.000000,0.088697,0.019422,0.000000
0.690000,-3.221139,-0.264192,-1.497861,0.628065,-0.008145,-0.059834,1.300142,0.247870,-0.096912,-0.270787,0.850428,0.126972,-5.689561,-3.410237,-1.009854,0.024802,-0.130490,0.000000,0.085460,0.025209,-0.000000
0.700000,-3.214794,-0.264261,-1.498464,0.641053,-0.005624,-0.060796,1.297149,0.256204,-0.095692,-0.327581,0.814787,0.116517,-5.667321,-3.717954,-1.080093,0.025640,-0.130209,0.000000,0.081910,0.030988,-0.000000
0.710000,-3.208318,-0.264305,-1.499077,0.654008,-0.003021,-0.061748,1.293590,0.264166,-0.094581,-0.384134,0.776069,0.105370,-5.649028,-4.026026,-1.143578,0.026440,-0.129870,0.000000,0.078048,0.036754,0.000000
0.720000,-3.201714,-0.264322,-1.499699,0.666925,-0.000341,-0.062688,1.289467,0.271725,-0.093585,-0.440561,0.734266,0.093646,-5.644793,-4.335460,-1.198092,0.027201,-0.129474,0.000000,0.073874,0.042517,-0.000000
0.730000,-3.194980,-0.264311,-1.500331,0.679798,0.002413,-0.063619,1.284779,0.278851,-0.092708,-0.497030,0.689360,0.081408,-5.650256,-4.645993,-1.247883,0.027918,-0.129019,0.000000,0.069385,0.048293,0.000000
0.740000,-3.188118,-0.264273,-1.500972,0.692621,0.005237,-0.064542,1.279526,0.285512,-0.091957,-0.553567,0.641347,0.068688,-5.651710,-4.955399,-1.294979,0.028588,-0.128507,0.000000,0.064581,0.054083,0.000000
0.750000,-3.181127,-0.264207,-1.501622,0.705388,0.008124,-0.065458,1.273708,0.291678,-0.091335,-0.610064,0.590252,0.055509,-5.646172,-5.262377,-1.337838,0.029209,-0.127937,0.000000,0.059464,0.059876,-0.000000
0.760000,-3.174010,-0.264111,-1.502281,0.718095,0.011070,-0.066369,1.267325,0.297317,-0.090847,-0.666490,0.536099,0.041931,-5.642147,-5.567893,-1.375446,0.029778,-0.127309,0.000000,0.054037,0.065669,0.000000
0.770000,-3.166766,-0.263985,-1.502949,0.730735,0.014070,-0.067275,1.260378,0.302400,-0.090496,-0.722907,0.478894,0.028000,-5.645321,-5.873921,-1.411277,0.030290,-0.126623,0.000000,0.048301,0.071466,-0.000000
0.780000,-3.159395,-0.263830,-1.503626,0.743302,0.017118,-0.068179,1.252867,0.306895,-0.090287,-0.779396,0.418621,0.013706,-5.652335,-6.179839,-1.446242,0.030744,-0.125879,0.000000,0.042253,0.077275,0.000000
0.790000,-3.151899,-0.263643,-1.504313,0.755792,0.020208,-0.069081,1.244790,0.310772,-0.090222,-0.835954,0.355297,-0.000925,-5.654892,-6.482119,-1.475493,0.031135,-0.125077,0.000000,0.035895,0.083095,0.000000
0.800000,-3.144279,-0.263425,-1.505008,0.768198,0.023334,-0.069983,1.236148,0.314001,-0.090305,-0.892494,0.288978,-0.015804,-5.651507,-6.779150,-1.495765,0.031462,-0.124217,0.000000,0.029234,0.088917,0.000000
0.810000,-3.136536,-0.263176,-1.505712,0.780515,0.026488,-0.070887,1.226940,0.316552,-0.090538,-0.948984,0.219714,-0.030840,-5.646797,-7.072724,-1.510624,0.031720,-0.123298,0.000000,0.022275,0.094734,-0.000000
0.820000,-3.128669,-0.262896,-1.506426,0.792737,0.029665,-0.071794,1.217168,0.318396,-0.090922,-1.005430,0.147524,-0.046017,-5.642241,-7.365458,-1.528396,0.031907,-0.122321,0.000000,0.015020,0.100549,0.000000
0.830000,-3.120681,-0.262583,-1.507148,0.804858,0.032856,-0.072706,1.206832,0.319503,-0.091458,-1.061829,0.072405,-0.061408,-5.635399,-7.656427,-1.548642,0.032020,-0.121286,0.000000,0.007468,0.106360,0.000000
0.840000,-3.112572,-0.262238,-1.507880,0.816873,0.036055,-0.073623,1.195931,0.319844,-0.092150,-1.118138,-0.005605,-0.076990,-5.623380,-7.941203,-1.560030,0.032056,-0.120193,0.000000,-0.000376,0.112163,-0.000000
0.850000,-3.104343,-0.261862,-1.508621,0.828777,0.039253,-0.074549,1.184469,0.319390,-0.092998,-1.174296,-0.086419,-0.092609,-5.606119,-8.217984,-1.557680,0.032013,-0.119042,0.000000,-0.008504,0.117950,0.000000
0.860000,-3.095996,-0.261453,-1.509371,0.840563,0.042442,-0.075483,1.172446,0.318115,-0.094002,-1.230261,-0.169964,-0.108143,-5.584326,-8.489087,-1.549373,0.031886,-0.117833,0.000000,-0.016906,0.123714,-0.000000
0.870000,-3.087532,-0.261013,-1.510130,0.852226,0.045615,-0.076429,1.159864,0.315991,-0.095161,-1.285983,-0.256201,-0.123596,-5.555821,-8.757407,-1.546821,0.031675,-0.116566,0.000000,-0.025579,0.129450,-0.000000
0.880000,-3.078952,-0.260541,-1.510899,0.863760,0.048762,-0.077386,1.146726,0.312991,-0.096474,-1.341377,-0.345113,-0.139080,-5.519170,-9.021768,-1.548330,0.031375,-0.115242,0.000000,-0.034521,0.135151,-0.000000
0.890000,-3.070257,-0.260038,-1.511678,0.875160,0.051875,-0.078358,1.133036,0.309089,-0.097943,-1.396366,-0.436636,-0.154563,-5.476244,-9.277303,-1.537876,0.030984,-0.113862,0.000000,-0.043726,0.140808,0.000000
0.900000,-3.061449,-0.259504,-1.512466,0.886421,0.054944,-0.079345,1.118799,0.304258,-0.099565,-1.450902,-0.530659,-0.169837,-5.428881,-9.522239,-1.508160,0.030500,-0.112425,0.000000,-0.053181,0.146414,0.000000
0.910000,-3.052528,-0.258939,-1.513265,0.897536,0.057960,-0.080349,1.104018,0.298476,-0.101339,-1.504944,-0.627081,-0.184726,-5.374537,-9.759091,-1.469969,0.029921,-0.110932,0.000000,-0.062875,0.151962,-0.000000
0.920000,-3.043498,-0.258344,-1.514073,0.908501,0.060914,-0.081372,1.088700,0.291717,-0.103260,-1.558393,-0.725840,-0.199236,-5.306356,-9.990487,-1.440840,0.029243,-0.109384,0.000000,-0.072801,0.157443,0.000000
0.930000,-3.034358,-0.257721,-1.514892,0.919310,0.063794,-0.082415,1.072850,0.283959,-0.105324,-1.611071,-0.826891,-0.213543,-5.223780,-10.215082,-1.416703,0.028465,-0.107782,0.000000,-0.082955,0.162840,-0.000000
0.940000,-3.025112,-0.257069,-1.515722,0.929958,0.066593,-0.083479,1.056478,0.275179,-0.107531,-1.662868,-0.930142,-0.227571,-5.134824,-10.428267,-1.373572,0.027584,-0.106126,0.000000,-0.093328,0.168141,-0.000000
0.950000,-3.015759,-0.256389,-1.516562,0.940440,0.069298,-0.084565,1.039593,0.265356,-0.109876,-1.713767,-1.035456,-0.241014,-5.042836,-10.628398,-1.312493,0.026598,-0.104418,0.000000,-0.103903,0.173341,0.000000
0.960000,-3.006303,-0.255683,-1.517413,0.950750,0.071900,-0.085676,1.022203,0.254470,-0.112351,-1.763725,-1.142710,-0.253820,-4.941247,-10.817718,-1.248486,0.025506,-0.102658,0.000000,-0.114668,0.178436,-0.000000
0.970000,-2.996744,-0.254951,-1.518275,0.960884,0.074387,-0.086812,1.004318,0.242502,-0.114952,-1.812592,-1.251811,-0.265984,-4.820062,-10.998388,-1.172892,0.024305,-0.100848,0.000000,-0.125613,0.183409,-0.000000
0.980000,-2.987085,-0.254195,-1.519149,0.970836,0.076750,-0.087975,0.985951,0.229434,-0.117671,-1.860126,-1.362678,-0.277278,-4.680576,-11.169089,-1.080816,0.022993,-0.098989,0.000000,-0.136729,0.188235,-0.000000
0.990000,-2.977328,-0.253416,-1.520035,0.980603,0.078976,-0.089166,0.967116,0.215248,-0.120497,-1.906204,-1.475192,-0.287600,-4.534916,-11.325717,-0.983979,0.021570,-0.097082,0.000000,-0.148003,0.192900,0.000000
1.000000,-2.967473,-0.252615,-1.520933,0.990179,0.081055,-0.090385,0.947827,0.199930,-0.123423,-1.950824,-1.589192,-0.296958,-4.383798,-11.466553,-0.873500,0.020033,-0.095130,0.000000,-0.159418,0.197405,-0.000000
1.010000,-2.957524,-0.251795,-1.521843,0.999559,0.082975,-0.091634,0.928099,0.183464,-0.126437,-1.993880,-1.704523,-0.305070,-4.218381,-11.593435,-0.741165,0.018382,-0.093133,0.000000,-0.170959,0.201737,-0.000000
1.020000,-2.947482,-0.250956,-1.522765,1.008741,0.084724,-0.092914,0.907949,0.165839,-0.129524,-2.035192,-1.821061,-0.311781,-4.037013,-11.708630,-0.615499,0.016614,-0.091095,0.000000,-0.182613,0.205876,-0.000000
1.030000,-2.937349,-0.250100,-1.523701,1.017718,0.086291,-0.094225,0.887396,0.147043,-0.132672,-2.074620,-1.938696,-0.317380,-3.841680,-11.810849,-0.499299,0.014729,-0.089015,0.000000,-0.194368,0.209813,-0.000000
1.040000,-2.927128,-0.249230,-1.524650,1.026489,0.087665,-0.095567,0.866457,0.127065,-0.135872,-2.112026,-2.057278,-0.321767,-3.633188,-11.895713,-0.351121,0.012727,-0.086898,0.000000,-0.206208,0.213532,0.000000
1.050000,-2.916819,-0.248347,-1.525612,1.035048,0.088833,-0.096942,0.845155,0.105898,-0.139108,-2.147284,-2.176610,-0.324403,-3.415242,-11.961855,-0.168483,0.010605,-0.084744,0.000000,-0.218115,0.217018,-0.000000
1.060000,-2.906427,-0.247453,-1.526589,1.043392,0.089783,-0.098349,0.823511,0.083533,-0.142360,-2.180330,-2.296515,-0.325137,-3.186522,-12.011190,0.021947,0.008365,-0.082557,0.000000,-0.230070,0.220264,-0.000000
1.070000,-2.895952,-0.246551,-1.527579,1.051518,0.090503,-0.099789,0.801548,0.059967,-0.145610,-2.211014,-2.416834,-0.323964,-2.934053,-12.044709,0.226452,0.006004,-0.080339,0.000000,-0.242057,0.223256,0.000000
1.080000,-2.885396,-0.245643,-1.528584,1.059423,0.090982,-0.101262,0.779291,0.035197,-0.148839,-2.239012,-2.537409,-0.320608,-2.656851,-12.061010,0.457754,0.003523,-0.078092,0.000000,-0.254061,0.225961,0.000000
1.090000,-2.874763,-0.244732,-1.529604,1.067104,0.091207,-0.102766,0.756768,0.009219,-0.152023,-2.264151,-2.658054,-0.314809,-2.372261,-12.057393,0.706225,0.000923,-0.075820,0.000000,-0.266065,0.228361,-0.000000
1.100000,-2.864054,-0.243819,-1.530640,1.074558,0.091167,-0.104302,0.734008,-0.017964,-0.155135,-2.286457,-2.778557,-0.306483,-2.085941,-12.032480,0.955905,-0.001798,-0.073525,0.000000,-0.278049,0.230460,-0.000000
1.110000,-2.853272,-0.242908,-1.531690,1.081784,0.090848,-0.105869,0.711039,-0.046352,-0.158152,-2.305870,-2.898704,-0.295691,-1.785479,-11.987005,1.216238,-0.004638,-0.071210,0.000000,-0.289993,0.232255,0.000000
1.120000,-2.842419,-0.242002,-1.532757,1.088779,0.090240,-0.107465,0.687891,-0.075939,-0.161049,-2.322166,-3.018297,-0.282159,-1.457773,-11.922270,1.530351,-0.007598,-0.068880,0.000000,-0.301878,0.233724,-0.000000
1.130000,-2.831496,-0.241104,-1.533840,1.095542,0.089329,-0.109090,0.664596,-0.106718,-0.163795,-2.335025,-3.137149,-0.265084,-1.106718,-11.837338,1.897754,-0.010676,-0.066536,0.000000,-0.313691,0.234831,-0.000000
1.140000,-2.820508,-0.240216,-1.534939,1.102071,0.088105,-0.110741,0.641190,-0.138682,-0.166351,-2.344301,-3.255044,-0.244203,-0.749039,-11.728878,2.261165,-0.013872,-0.064183,0.000000,-0.325412,0.235563,0.000000
1.150000,-2.809455,-0.239341,-1.536055,1.108365,0.086556,-0.112417,0.617710,-0.171819,-0.168679,-2.350006,-3.371727,-0.219860,-0.384894,-11.594834,2.612951,-0.017184,-0.061824,0.000000,-0.337020,0.235928,-0.000000
1.160000,-2.798340,-0.238484,-1.537187,1.114425,0.084669,-0.114115,0.594190,-0.206116,-0.170748,-2.351999,-3.486940,-0.191944,-0.003198,-11.436368,2.992684,-0.020612,-0.059463,0.000000,-0.348494,0.235912,-0.000000
1.170000,-2.787166,-0.237648,-1.538337,1.120249,0.082433,-0.115832,0.570670,-0.241558,-0.172518,-2.350070,-3.600454,-0.160007,0.394420,-11.256327,3.412064,-0.024154,-0.057105,0.000000,-0.359816,0.235496,0.000000
1.180000,-2.775935,-0.236836,-1.539504,1.125838,0.079838,-0.117565,0.547189,-0.278125,-0.173948,-2.344110,-3.712067,-0.123703,0.804248,-11.053593,3.860243,-0.027808,-0.054752,0.000000,-0.370973,0.234671,-0.000000
1.190000,-2.764650,-0.236051,-1.540688,1.131193,0.076871,-0.119311,0.523787,-0.315799,-0.174992,-2.333985,-3.821526,-0.082802,1.229310,-10.822663,4.324467,-0.031573,-0.052409,0.000000,-0.381945,0.233425,-0.000000
1.200000,-2.753312,-0.235298,-1.541890,1.136314,0.073522,-0.121065,0.500509,-0.354556,-0.175604,-2.319524,-3.928520,-0.037214,1.668104,-10.561495,4.787743,-0.035447,-0.050081,0.000000,-0.392711,0.231745,0.000000
1.210000,-2.741923,-0.234581,-1.543109,1.141203,0.069780,-0.122823,0.477397,-0.394369,-0.175737,-2.300623,-4.032756,0.012953,2.118533,-10.272620,5.259529,-0.039428,-0.047772,0.000000,-0.403248,0.229625,-0.000000
1.220000,-2.730487,-0.233903,-1.544346,1.145862,0.065634,-0.124580,0.454496,-0.435211,-0.175345,-2.277153,-4.133973,0.067977,2.586984,-9.958234,5.791483,-0.043512,-0.045485,0.000000,-0.413539,0.227054,0.000000
1.230000,-2.719006,-0.233268,-1.545601,1.150293,0.061076,-0.126330,0.431854,-0.477049,-0.174377,-2.248883,-4.231921,0.128783,3.075097,-9.616539,6.384403,-0.047699,-0.043226,0.000000,-0.423572,0.224008,0.000000
1.240000,-2.707482,-0.232681,-1.546873,1.154499,0.056093,-0.128067,0.409519,-0.519849,-0.172769,-2.215651,-4.326303,0.195665,3.573426,-9.242960,6.966714,-0.051984,-0.041000,0.000000,-0.433331,0.220474,-0.000000
1.250000,-2.695916,-0.232146,-1.548162,1.158483,0.050679,-0.129785,0.387541,-0.563575,-0.170464,-2.177415,-4.416780,0.268117,4.075057,-8.836352,7.512890,-0.056366,-0.038810,0.000000,-0.442790,0.216453,0.000000
1.260000,-2.684312,-0.231668,-1.549469,1.162250,0.044822,-0.131476,0.365970,-0.608185,-0.167407,-2.134150,-4.503030,0.345923,4.586649,-8.398456,8.071646,-0.060840,-0.036663,0.000000,-0.451929,0.211948,-0.000000
1.270000,-2.672671,-0.231250,-1.550792,1.165803,0.038515,-0.133133,0.344858,-0.653635,-0.163545,-2.085682,-4.584749,0.429550,5.125352,-7.929071,8.699736,-0.065404,-0.034563,0.000000,-0.460731,0.206941,-0.000000
1.280000,-2.660996,-0.230897,-1.552131,1.169147,0.031749,-0.134747,0.324257,-0.699880,-0.158816,-2.031643,-4.661612,0.519917,5.691066,-7.426190,9.383304,-0.070055,-0.032516,0.000000,-0.469183,0.201395,0.000000
1.290000,-2.649288,-0.230615,-1.553487,1.172288,0.024517,-0.136310,0.304225,-0.746868,-0.153147,-1.971861,-4.733273,0.617216,6.259675,-6.888489,10.045280,-0.074788,-0.030526,0.000000,-0.477267,0.195294,-0.000000
1.300000,-2.637550,-0.230407,-1.554858,1.175232,0.016812,-0.137810,0.284820,-0.794545,-0.146472,-1.906450,-4.799382,0.720823,6.814757,-6.317653,10.660607,-0.079601,-0.028599,0.000000,-0.484960,0.188653,0.000000
1.310000,-2.625784,-0.230279,-1.556243,1.177984,0.008626,-0.139239,0.266096,-0.842855,-0.138731,-1.835565,-4.859626,0.830428,7.373025,-5.712997,11.279760,-0.084488,-0.026740,0.000000,-0.492243,0.181490,-0.000000
1.320000,-2.613990,-0.230235,-1.557642,1.180554,-0.000045,-0.140585,0.248108,-0.891738,-0.129863,-1.758989,-4.913642,0.946418,7.976220,-5.066676,11.959239,-0.089446,-0.024956,0.000000,-0.499098,0.173780,-0.000000
1.330000,-2.602172,-0.230280,-1.559055,1.182947,-0.009208,-0.141836,0.230916,-0.941128,-0.119802,-1.676041,-4.960959,1.069613,8.622891,-4.376432,12.685624,-0.094470,-0.023251,0.000000,-0.505502,0.165453,-0.000000
1.340000,-2.590331,-0.230419,-1.560479,1.185172,-0.018868,-0.142981,0.214588,-0.990957,-0.108471,-1.586531,-5.001170,1.200131,9.254512,-3.651557,13.379626,-0.099557,-0.021632,0.000000,-0.511433,0.156487,0.000000
1.350000,-2.578469,-0.230657,-1.561914,1.187238,-0.029028,-0.144006,0.199186,-1.041152,-0.095800,-1.490951,-5.033991,1.337205,9.838547,-2.900953,13.998673,-0.104700,-0.020105,0.000000,-0.516874,0.146930,-0.000000
1.360000,-2.566587,-0.230999,-1.563359,1.189156,-0.039691,-0.144897,0.184768,-1.091637,-0.081727,-1.389760,-5.059189,1.480104,10.414965,-2.116424,14.594389,-0.109895,-0.018677,0.000000,-0.521808,0.136824,-0.000000
1.370000,-2.554686,-0.231451,-1.564812,1.190934,-0.050860,-0.145640,0.171390,-1.142335,-0.066197,-1.282652,-5.076319,1.629093,11.063237,-1.271675,15.270170,-0.115137,-0.017352,0.000000,-0.526211,0.126132,0.000000
1.380000,-2.542768,-0.232016,-1.566272,1.192583,-0.062538,-0.146221,0.159115,-1.193163,-0.049145,-1.168496,-5.084623,1.785508,11.770826,-0.366356,16.013298,-0.120420,-0.016137,0.000000,-0.530038,0.114729,0.000000
1.390000,-2.530834,-0.232701,-1.567737,1.194116,-0.074724,-0.146623,0.148021,-1.244028,-0.030487,-1.047235,-5.083646,1.949359,12.428194,0.564934,16.676921,-0.125738,-0.015041,0.000000,-0.533263,0.102601,-0.000000
1.400000,-2.518886,-0.233511,-1.569205,1.195544,-0.087418,-0.146831,0.138171,-1.294836,-0.010158,-0.919932,-5.073324,2.119046,13.021622,1.508723,17.204170,-0.131086,-0.014069,0.000000,-0.535875,0.089846,-0.000000
1.410000,-2.506923,-0.234450,-1.570673,1.196879,-0.100620,-0.146826,0.129622,-1.345494,0.011894,-0.786803,-5.053472,2.293443,13.621679,2.489889,17.690459,-0.136457,-0.013229,0.000000,-0.537855,0.076474,0.000000
1.420000,-2.494948,-0.235523,-1.572141,1.198136,-0.114328,-0.146593,0.122435,-1.395906,0.035711,-0.647498,-5.023526,2.472855,14.240999,3.542230,18.259086,-0.141844,-0.012526,0.000000,-0.539159,0.062433,-0.000000
1.430000,-2.482961,-0.236736,-1.573605,1.199328,-0.128538,-0.146112,0.116672,-1.445965,0.061351,-0.501983,-4.982627,2.658624,14.843669,4.662895,18.865381,-0.147241,-0.011967,0.000000,-0.539734,0.047700,-0.000000
1.440000,-2.470962,-0.238094,-1.575063,1.200470,-0.143247,-0.145366,0.112395,-1.495558,0.088884,-0.350625,-4.930269,2.850163,15.415399,5.806667,19.339023,-0.152639,-0.011561,0.000000,-0.539531,0.032294,0.000000
1.450000,-2.458951,-0.239601,-1.576513,1.201576,-0.158450,-0.144334,0.109659,-1.544570,0.118354,-0.193675,-4.866494,3.045405,16.018411,6.937861,19.731674,-0.158032,-0.011314,0.000000,-0.538530,0.016221,0.000000
1.460000,-2.446930,-0.241263,-1.577950,1.202663,-0.174139,-0.142999,0.108522,-1.592888,0.149792,-0.030257,-4.791511,3.244796,16.652393,8.089119,20.142358,-0.163411,-0.011233,0.000000,-0.536763,-0.000633,0.000000
1.470000,-2.434898,-0.243084,-1.579372,1.203746,-0.190307,-0.141339,0.109054,-1.640400,0.183250,0.139373,-4.704711,3.448252,17.136320,9.356359,20.376425,-0.168768,-0.011328,0.000000,-0.534169,-0.018270,-0.000000
1.480000,-2.422855,-0.245069,-1.580777,1.204844,-0.206947,-0.139334,0.111309,-1.686982,0.218757,0.312470,-4.604384,3.652325,17.471469,10.735681,20.386265,-0.174095,-0.011605,0.000000,-0.530516,-0.036434,-0.000000
1.490000,-2.410801,-0.247223,-1.582159,1.205973,-0.224047,-0.136963,0.115304,-1.732488,0.256296,0.488803,-4.489998,3.855977,17.900851,12.094791,20.436773,-0.179380,-0.012068,0.000000,-0.525718,-0.055128,0.000000
1.500000,-2.398736,-0.249550,-1.583516,1.207150,-0.241596,-0.134208,0.121085,-1.776782,0.295876,0.670487,-4.362488,4.061060,18.372358,13.385510,20.543889,-0.184611,-0.012726,0.000000,-0.519889,-0.074603,0.000000
1.510000,-2.386658,-0.252055,-1.584843,1.208394,-0.259583,-0.131046,0.128713,-1.819738,0.337518,0.856250,-4.222287,4.266855,18.725849,14.697555,20.520142,-0.189778,-0.013587,0.000000,-0.513045,-0.094764,-0.000000
1.520000,-2.374568,-0.254742,-1.586137,1.209724,-0.277991,-0.127457,0.138210,-1.861228,0.381213,1.045004,-4.068537,4.471463,19.164127,16.139804,20.378081,-0.194872,-0.014657,0.000000,-0.505043,-0.115529,0.000000
1.530000,-2.362464,-0.257615,-1.587392,1.211159,-0.296807,-0.123422,0.149613,-1.901109,0.426947,1.239532,-3.899491,4.674417,19.753095,17.686823,20.181269,-0.199880,-0.015944,0.000000,-0.495664,-0.137224,-0.000000
1.540000,-2.350345,-0.260678,-1.588605,1.212717,-0.316013,-0.118918,0.163001,-1.939218,0.474702,1.440066,-3.714801,4.875088,20.195099,19.190047,19.886100,-0.204786,-0.017459,0.000000,-0.484827,-0.159916,0.000000
1.550000,-2.338209,-0.263935,-1.589771,1.214419,-0.335591,-0.113928,0.178415,-1.975405,0.524449,1.643434,-3.515690,5.072139,20.426662,20.600633,19.460495,-0.209577,-0.019212,0.000000,-0.472588,-0.183314,0.000000
1.560000,-2.326056,-0.267390,-1.590884,1.216285,-0.355521,-0.108429,0.195869,-2.009531,0.576144,1.848599,-3.302788,5.264298,20.650014,22.015720,18.931449,-0.214239,-0.021209,0.000000,-0.458939,-0.207345,0.000000
1.570000,-2.313884,-0.271045,-1.591939,1.218336,-0.375782,-0.102405,0.215387,-2.041460,0.629735,2.056435,-3.075376,5.450768,20.950556,23.544394,18.341717,-0.218756,-0.023458,0.000000,-0.443734,-0.232138,0.000000
1.580000,-2.301690,-0.274905,-1.592932,1.220593,-0.396351,-0.095835,0.236998,-2.071039,0.685160,2.267610,-2.831900,5.631133,21.247845,25.157678,17.663791,-0.223113,-0.025967,0.000000,-0.426739,-0.257807,-0.000000
1.590000,-2.289472,-0.278973,-1.593856,1.223076,-0.417203,-0.088701,0.260739,-2.098098,0.742357,2.481391,-2.572222,5.804043,21.437199,26.702930,16.836010,-0.227291,-0.028747,0.000000,-0.407839,-0.284312,-0.000000
1.600000,-2.277228,-0.283249,-1.594706,1.225807,-0.438313,-0.080988,0.286626,-2.122483,0.801241,2.696354,-2.297842,5.967853,21.575300,28.119819,15.955330,-0.231270,-0.031806,0.000000,-0.387072,-0.311535,-0.000000
1.610000,-2.264956,-0.287739,-1.595476,1.228808,-0.459653,-0.072677,0.314666,-2.144055,0.861714,2.912897,-2.009826,6.123150,21.719053,29.505842,15.048023,-0.235032,-0.035150,0.000000,-0.364483,-0.339557,-0.000000
1.620000,-2.252652,-0.292443,-1.596160,1.232101,-0.481194,-0.063753,0.344884,-2.162680,0.923704,3.130735,-1.707725,6.268813,21.695822,30.996724,13.809504,-0.238558,-0.038791,0.000000,-0.339907,-0.368382,0.000000
1.630000,-2.240314,-0.297363,-1.596751,1.235706,-0.502906,-0.054203,0.377281,-2.178210,0.987091,3.346814,-1.389892,6.399340,21.478967,32.559034,12.206639,-0.241829,-0.042735,0.000000,-0.312931,-0.397680,-0.000000
1.640000,-2.227938,-0.302501,-1.597244,1.239646,-0.524758,-0.044011,0.411820,-2.190478,1.051690,3.560314,-1.056544,6.512946,21.302552,33.999640,10.657774,-0.244816,-0.046986,0.000000,-0.283416,-0.427364,0.000000
1.650000,-2.215521,-0.307858,-1.597631,1.243942,-0.546716,-0.033169,0.448487,-2.199341,1.117349,3.772865,-0.709899,6.612496,21.158412,35.272787,9.267994,-0.247495,-0.051548,0.000000,-0.251554,-0.457637,-0.000000
1.660000,-2.203059,-0.313435,-1.597907,1.248616,-0.568745,-0.021664,0.487277,-2.204676,1.183940,3.983483,-0.351088,6.698306,20.885174,36.498253,7.746676,-0.249845,-0.056429,0.000000,-0.217366,-0.488402,-0.000000
1.670000,-2.190548,-0.319233,-1.598064,1.253688,-0.590809,-0.009490,0.528157,-2.206362,1.251316,4.190568,0.020066,6.767429,20.557682,37.752943,5.885038,-0.251840,-0.061632,0.000000,-0.180636,-0.519460,0.000000
1.680000,-2.177985,-0.325251,-1.598097,1.259179,-0.612872,0.003362,0.571089,-2.204274,1.319289,4.394636,0.403971,6.816007,20.228081,38.986657,3.766651,-0.253454,-0.067159,0.000000,-0.141085,-0.550823,-0.000000
1.690000,-2.165365,-0.331490,-1.597997,1.265110,-0.634895,0.016896,0.616049,-2.198283,1.387636,4.595130,0.799799,6.842762,19.774229,40.086060,1.658892,-0.254658,-0.073014,0.000000,-0.098639,-0.582385,0.000000
1.700000,-2.152683,-0.337949,-1.597759,1.271500,-0.656838,0.031115,0.662991,-2.188278,1.456144,4.790121,1.205692,6.849185,19.205578,41.043473,-0.335220,-0.255424,-0.079198,0.000000,-0.053427,-0.613890,0.000000
1.710000,-2.139935,-0.344627,-1.597375,1.278370,-0.678660,0.046019,0.711852,-2.174169,1.524619,4.979242,1.620669,6.836058,18.600099,41.919219,-2.395320,-0.255723,-0.085706,0.000000,-0.005471,-0.645244,-0.000000
1.720000,-2.127116,-0.351522,-1.596838,1.285737,-0.700321,0.061607,0.762576,-2.155865,1.592865,5.162123,2.044076,6.801278,17.870755,42.695593,-4.789004,-0.255529,-0.092538,0.000000,0.045321,-0.676310,-0.000000
1.730000,-2.114220,-0.358633,-1.596143,1.293621,-0.721778,0.077876,0.815094,-2.133288,1.660645,5.336657,2.474581,6.740278,16.977071,43.331367,-7.470215,-0.254812,-0.099688,0.000000,0.099017,-0.706696,0.000000
1.740000,-2.101243,-0.365958,-1.595281,1.302039,-0.742987,0.094820,0.869309,-2.106373,1.727671,5.501664,2.910703,6.651874,16.042460,43.838024,-10.071202,-0.253544,-0.107145,0.000000,0.155556,-0.736116,0.000000
1.750000,-2.088179,-0.373493,-1.594246,1.311007,-0.763905,0.112429,0.925128,-2.075074,1.793682,5.657506,3.351341,6.538854,15.128209,44.269159,-12.462409,-0.251696,-0.114897,0.000000,0.214777,-0.764499,-0.000000
1.760000,-2.075023,-0.381236,-1.593032,1.320542,-0.784488,0.130693,0.982460,-2.039347,1.858448,5.804228,3.796087,6.402626,14.142514,44.596737,-14.886652,-0.249243,-0.122933,0.000000,0.276617,-0.791720,-0.000000
1.770000,-2.061768,-0.389183,-1.591633,1.330657,-0.804692,0.149598,1.041212,-1.999152,1.921735,5.940356,4.243276,6.241121,12.940022,44.645252,-17.635056,-0.246159,-0.131236,0.000000,0.340935,-0.817406,-0.000000
1.780000,-2.048410,-0.397330,-1.590040,1.341366,-0.824471,0.169128,1.101267,-1.954481,1.983270,6.063029,4.688992,6.049925,11.534850,44.395469,-20.629503,-0.242420,-0.139788,0.000000,0.407343,-0.840940,0.000000
1.790000,-2.034941,-0.405672,-1.588250,1.352682,-0.843782,0.189264,1.162473,-1.905372,2.042733,6.171053,5.131185,5.828531,10.119868,44.071667,-23.466665,-0.238007,-0.148560,0.000000,0.475506,-0.861932,0.000000
1.800000,-2.021356,-0.414205,-1.586255,1.364615,-0.862579,0.209983,1.224688,-1.851857,2.099841,6.265426,5.570425,5.580591,8.793356,43.775984,-26.048068,-0.232906,-0.157525,0.000000,0.545251,-0.880332,-0.000000
1.810000,-2.007649,-0.422924,-1.584050,1.377176,-0.880819,0.231261,1.287781,-1.793963,2.154345,6.346920,6.006705,5.307569,7.419348,43.338186,-28.629190,-0.227099,-0.166653,0.000000,0.616365,-0.896035,-0.000000
1.820000,-1.993813,-0.431822,-1.581630,1.390371,-0.898458,0.253070,1.351626,-1.731723,2.205992,6.413813,6.437189,5.008007,5.744720,42.485082,-31.395165,-0.220575,-0.175914,0.000000,0.688318,-0.908566,0.000000
1.830000,-1.979841,-0.440893,-1.578989,1.404208,-0.915453,0.275380,1.416058,-1.665220,2.254505,6.461815,6.856407,4.679666,3.794128,41.237219,-34.239561,-0.213330,-0.185272,0.000000,0.760194,-0.917097,0.000000
1.840000,-1.965729,-0.450131,-1.576122,1.418692,-0.931762,0.298160,1.480862,-1.594595,2.299586,6.489696,7.261933,4.323216,1.912870,39.950445,-36.900424,-0.205370,-0.194677,0.000000,0.831320,-0.921233,0.000000
1.850000,-1.951468,-0.459528,-1.573026,1.433825,-0.947345,0.321372,1.545851,-1.519981,2.340970,6.500072,7.655416,3.941657,0.247652,38.812360,-39.395781,-0.196704,-0.204087,0.000000,0.901456,-0.921147,0.000000
1.860000,-1.937052,-0.469078,-1.569695,1.449609,-0.962162,0.344979,1.610864,-1.441487,2.378419,6.494649,8.038180,3.535301,-1.436727,37.566034,-41.870870,-0.187343,-0.213457,0.000000,0.970372,-0.916867,0.000000
1.870000,-1.922475,-0.478771,-1.566126,1.466043,-0.976175,0.368941,1.675744,-1.359217,2.411676,6.471338,8.406736,3.104240,-3.490434,35.716044,-44.196000,-0.177299,-0.222745,0.000000,1.037185,-0.907957,-0.000000
1.880000,-1.907731,-0.488601,-1.562316,1.483124,-0.989346,0.393213,1.740291,-1.273352,2.440504,6.424840,8.752501,2.651381,-5.827796,33.316804,-46.284801,-0.166603,-0.231899,0.000000,1.100248,-0.893691,-0.000000
1.890000,-1.892813,-0.498558,-1.558262,1.500848,-1.001642,0.417751,1.804241,-1.184167,2.464703,6.354782,9.073072,2.178544,-7.974726,31.033942,-48.296954,-0.155300,-0.240864,0.000000,1.158747,-0.873981,0.000000
1.900000,-1.877714,-0.508634,-1.553961,1.519209,-1.013030,0.442507,1.867386,-1.091891,2.484075,6.265346,9.373180,1.685442,-9.948691,29.050999,-50.319927,-0.143435,-0.249586,0.000000,1.212873,-0.849305,0.000000
1.910000,-1.862429,-0.518819,-1.549412,1.538196,-1.023480,0.467432,1.929548,-0.996704,2.498412,6.155808,9.654092,1.172145,-12.048667,26.916488,-52.212542,-0.131050,-0.258020,0.000000,1.262367,-0.819571,0.000000
1.920000,-1.846950,-0.529104,-1.544612,1.557800,-1.032964,0.492475,1.990502,-0.898809,2.507517,6.024372,9.911510,0.641191,-14.119041,24.229421,-53.725991,-0.118197,-0.266114,0.000000,1.306234,-0.784685,0.000000
1.930000,-1.831273,-0.539478,-1.539562,1.578006,-1.041456,0.517582,2.050036,-0.798474,2.511236,5.873427,10.138681,0.097626,-16.036827,21.135640,-54.866556,-0.104936,-0.273819,0.000000,1.343204,-0.745233,0.000000
1.940000,-1.815390,-0.549933,-1.534261,1.598800,-1.048933,0.542700,2.107971,-0.696035,2.509470,5.703636,10.334223,-0.456140,-18.022403,18.166759,-55.938705,-0.091344,-0.281097,0.000000,1.372824,-0.701551,0.000000
1.950000,-1.799297,-0.560457,-1.528708,1.620166,-1.055377,0.567772,2.164108,-0.591789,2.502113,5.512979,10.502016,-1.021148,-20.104806,15.415517,-57.077569,-0.077491,-0.287906,0.000000,1.395440,-0.653555,-0.000000
1.960000,-1.782987,-0.571040,-1.522905,1.642083,-1.060769,0.592742,2.218231,-0.485995,2.489047,5.301540,10.642533,-1.597692,-22.115761,12.541254,-58.049506,-0.063447,-0.294205,0.000000,1.411019,-0.601490,0.000000
1.970000,-1.766455,-0.581672,-1.516853,1.664530,-1.065097,0.617553,2.270139,-0.378938,2.470159,5.070664,10.752841,-2.182139,-24.032121,9.371785,-58.472790,-0.049282,-0.299958,0.000000,1.419133,-0.545937,0.000000
1.980000,-1.749696,-0.592342,-1.510554,1.687485,-1.068348,0.642145,2.319644,-0.270938,2.445404,4.820897,10.829969,-2.767148,-25.906351,6.033124,-58.388024,-0.035075,-0.305136,0.000000,1.419444,-0.487559,0.000000
1.990000,-1.732705,-0.603039,-1.504010,1.710923,-1.070515,0.666461,2.366557,-0.162339,2.414816,4.552537,10.873503,-3.349899,-27.734742,2.763132,-58.284389,-0.020904,-0.309715,0.000000,1.412101,-0.426833,0.000000
2.000000,-1.715478,-0.613753,-1.497225,1.734817,-1.071595,0.690442,2.410695,-0.053468,2.378406,4.266202,10.885231,-3.932835,-29.466291,-0.389991,-58.304890,-0.006844,-0.313675,0.000000,1.397618,-0.364077,0.000000
2.010000,-1.698009,-0.624471,-1.490202,1.759137,-1.071585,0.714029,2.451881,0.055366,2.336160,3.963211,10.865704,-4.515997,-31.094876,-3.560440,-58.101642,0.007039,-0.316999,0.000000,1.376381,-0.299778,-0.000000
2.020000,-1.680295,-0.635184,-1.482944,1.783854,-1.070487,0.737165,2.489959,0.163846,2.288086,3.644305,10.814022,-5.094868,-32.713047,-6.828136,-57.315079,0.020676,-0.319674,0.000000,1.348645,-0.234521,-0.000000
2.030000,-1.662332,-0.645881,-1.475458,1.808936,-1.068308,0.759791,2.524767,0.271646,2.234262,3.308950,10.729141,-5.662298,-34.283341,-10.119561,-55.983019,0.034005,-0.321694,0.000000,1.314736,-0.168828,0.000000
2.040000,-1.644116,-0.656550,-1.467749,1.834350,-1.065054,0.781850,2.556138,0.378429,2.174840,2.958638,10.611631,-6.214529,-35.666683,-13.302467,-54.580495,0.046965,-0.323057,0.000000,1.275241,-0.103303,-0.000000
2.050000,-1.625645,-0.667182,-1.459821,1.860059,-1.060739,0.803288,2.583940,0.483879,2.109972,2.595616,10.463092,-6.753908,-37.075890,-16.421228,-53.625286,0.059506,-0.323767,0.000000,1.230845,-0.038355,-0.000000
2.060000,-1.606915,-0.677765,-1.451683,1.886028,-1.055377,0.824049,2.608050,0.587691,2.039762,2.217120,10.283207,-7.287034,-38.572271,-19.530607,-52.761860,0.071580,-0.323831,0.000000,1.181940,0.026390,0.000000
2.070000,-1.587924,-0.688290,-1.443340,1.912220,-1.048985,0.844083,2.628282,0.689543,1.964231,1.824171,10.072479,-7.809146,-39.480752,-22.431989,-50.561075,0.083143,-0.323244,0.000000,1.129067,0.090429,-0.000000
2.080000,-1.568671,-0.698745,-1.434801,1.938594,-1.041586,0.863334,2.644533,0.789140,1.883579,1.427505,9.834567,-8.298256,-39.770901,-25.062989,-47.170848,0.094161,-0.322022,0.000000,1.073309,0.151571,-0.000000
2.090000,-1.549152,-0.709121,-1.426074,1.965111,-1.033203,0.881754,2.656832,0.886234,1.798266,1.028753,9.571220,-8.752563,-40.359375,-27.669595,-44.531646,0.104611,-0.320206,0.000000,1.015367,0.209553,-0.000000
2.100000,-1.529368,-0.719409,-1.417166,1.991731,-1.023861,0.899299,2.665109,0.980565,1.708528,0.620318,9.281175,-9.188889,-41.157134,-30.373226,-42.340373,0.114471,-0.317815,0.000000,0.955330,0.265843,0.000000
2.110000,-1.509318,-0.729598,-1.408088,2.018413,-1.013591,0.915925,2.669239,1.071858,1.614488,0.205610,8.963755,-9.599370,-41.552194,-32.972700,-39.352591,0.123721,-0.314861,0.000000,0.893545,0.319754,0.000000
2.120000,-1.489000,-0.739681,-1.398848,2.045115,-1.002424,0.931589,2.669221,1.159840,1.516541,-0.210726,8.621721,-9.975941,-42.008559,-35.127636,-36.889892,0.132347,-0.311377,0.000000,0.830752,0.370556,0.000000
2.130000,-1.468416,-0.749647,-1.389456,2.071797,-0.990394,0.946256,2.665024,1.244292,1.414969,-0.634561,8.261202,-10.337168,-42.741756,-36.861858,-35.441666,0.140341,-0.307390,0.000000,0.767664,0.419608,-0.000000
2.140000,-1.447564,-0.759489,-1.379923,2.098416,-0.977538,0.959889,2.656530,1.325064,1.309797,-1.065561,7.884484,-10.684774,-43.055273,-38.602082,-33.112800,0.147706,-0.302908,0.000000,0.704659,0.466952,0.000000
2.150000,-1.426447,-0.769198,-1.370258,2.124928,-0.963893,0.972452,2.643713,1.401982,1.201274,-1.495666,7.489161,-10.999424,-42.953411,-40.498258,-29.798578,0.154441,-0.297955,0.000000,0.641881,0.511172,-0.000000
2.160000,-1.405066,-0.778766,-1.360474,2.151290,-0.949499,0.983914,2.626616,1.474847,1.089809,-1.924630,7.074519,-11.280745,-42.901439,-42.236213,-26.805996,0.160549,-0.292567,0.000000,0.579412,0.552399,0.000000
2.170000,-1.383421,-0.788188,-1.350580,2.177460,-0.934396,0.994248,2.605220,1.543472,0.975659,-2.353695,6.644436,-11.535544,-42.628002,-43.414956,-23.865390,0.166035,-0.286769,0.000000,0.517666,0.591125,-0.000000
2.180000,-1.361517,-0.797454,-1.340589,2.203395,-0.918629,1.003427,2.579542,1.607736,0.859098,-2.777190,6.206220,-11.758053,-41.913057,-44.104921,-20.450122,0.170909,-0.280585,0.000000,0.457532,0.626749,0.000000
2.190000,-1.339354,-0.806560,-1.330511,2.229051,-0.902241,1.011430,2.549677,1.667596,0.740498,-3.191956,5.762338,-11.944546,-41.174319,-44.818134,-17.083220,0.175192,-0.274053,0.000000,0.399318,0.659047,-0.000000
2.200000,-1.316936,-0.815499,-1.320360,2.254388,-0.885277,1.018237,2.515703,1.722983,0.620207,-3.600676,5.309857,-12.099718,-40.768162,-45.695716,-14.361038,0.178902,-0.267203,0.000000,0.342637,0.688633,0.000000
2.210000,-1.294266,-0.824266,-1.310147,2.279365,-0.867782,1.023834,2.477663,1.773794,0.498504,-4.007320,4.848424,-12.231767,-40.377404,-46.378559,-11.886839,0.182051,-0.260061,0.000000,0.287300,0.716296,0.000000
2.220000,-1.271348,-0.832855,-1.299883,2.303941,-0.849801,1.028207,2.435557,1.819951,0.375572,-4.408224,4.382286,-12.337454,-39.124814,-46.516040,-8.271891,0.184654,-0.252640,0.000000,0.233728,0.741727,0.000000
2.230000,-1.248187,-0.841262,-1.289582,2.328076,-0.831383,1.031345,2.389499,1.861439,0.251755,-4.789816,3.918103,-12.397205,-37.102704,-46.207561,-3.706287,0.186732,-0.244972,0.000000,0.182797,0.763312,0.000000
2.240000,-1.224787,-0.849483,-1.279256,2.351731,-0.812573,1.033242,2.339760,1.898313,0.127628,-5.150278,3.458134,-12.411580,-35.494566,-45.904506,-0.080770,0.188315,-0.237106,0.000000,0.134609,0.781192,-0.000000
2.250000,-1.201152,-0.857513,-1.268918,2.374871,-0.793417,1.033898,2.286493,1.930602,0.003523,-5.499707,3.000013,-12.398820,-34.328130,-45.719285,3.029340,0.189429,-0.229069,0.000000,0.088542,0.796989,0.000000
2.260000,-1.177289,-0.865351,-1.258578,2.397461,-0.773961,1.033313,2.229766,1.958313,-0.120349,-5.836841,2.543749,-12.350993,-32.824487,-45.346280,6.814684,0.190091,-0.220877,0.000000,0.044629,0.810567,0.000000
2.270000,-1.153203,-0.872993,-1.248251,2.419467,-0.754250,1.031491,2.169756,1.981477,-0.243497,-6.156197,2.093087,-12.262527,-31.155773,-44.518814,9.598896,0.190326,-0.212561,0.000000,0.003188,0.821511,0.000000
2.280000,-1.128900,-0.880436,-1.237949,2.440856,-0.734331,1.028443,2.106642,2.000175,-0.365599,-6.459956,1.653373,-12.159015,-29.630676,-43.339708,10.880309,0.190158,-0.204145,0.000000,-0.035853,0.830722,-0.000000
2.290000,-1.104386,-0.887679,-1.227682,2.461600,-0.714247,1.024179,2.040557,2.014544,-0.486677,-6.748810,1.226293,-12.044920,-27.960504,-42.158229,13.032146,0.189612,-0.195641,0.000000,-0.072537,0.838429,0.000000
2.300000,-1.079668,-0.894721,-1.217465,2.481667,-0.694040,1.018709,1.971666,2.024701,-0.606498,-7.019166,0.810208,-11.898373,-25.974457,-40.994030,16.291439,0.188711,-0.187070,0.000000,-0.106772,0.844021,0.000000
2.310000,-1.054753,-0.901560,-1.207308,2.501033,-0.673753,1.012049,1.900174,2.030749,-0.724645,-7.268300,0.406412,-11.719092,-23.904364,-39.624826,19.017420,0.187479,-0.178455,0.000000,-0.138569,0.847420,-0.000000
2.320000,-1.029647,-0.908196,-1.197224,2.519671,-0.653425,1.004216,1.826300,2.032829,-0.840880,-7.497254,0.017711,-11.518024,-22.103351,-38.049840,21.190027,0.185942,-0.169818,0.000000,-0.167980,0.849046,0.000000
2.330000,-1.004359,-0.914628,-1.187224,2.537559,-0.633096,0.995231,1.750229,2.031103,-0.955005,-7.710367,-0.354584,-11.295291,-20.488412,-36.320377,23.404534,0.184122,-0.161175,0.000000,-0.194993,0.849395,0.000000
2.340000,-0.978896,-0.920858,-1.177319,2.554676,-0.612803,0.985116,1.672093,2.025737,-1.066785,-7.907022,-0.708696,-11.049933,-18.618655,-34.443183,25.519234,0.182044,-0.152536,0.000000,-0.219557,0.848495,-0.000000
2.350000,-0.953266,-0.926884,-1.167522,2.571001,-0.592581,0.973896,1.592088,2.016929,-1.176004,-8.082740,-1.043448,-10.784906,-16.649252,-32.677553,27.244526,0.179732,-0.143918,0.000000,-0.241741,0.846085,-0.000000
2.360000,-0.927476,-0.932709,-1.157841,2.586517,-0.572465,0.961596,1.510438,2.004869,-1.282484,-8.240007,-1.362247,-10.505043,-14.871875,-31.014391,28.706315,0.177210,-0.135335,0.000000,-0.262013,0.842528,-0.000000
2.370000,-0.901535,-0.938334,-1.148290,2.601210,-0.552484,0.948246,1.427288,1.989684,-1.386105,-8.380177,-1.663736,-10.210780,-12.792684,-28.706134,30.459960,0.174493,-0.126797,0.000000,-0.280343,0.838002,0.000000
2.380000,-0.875452,-0.943759,-1.138877,2.615063,-0.532671,0.933874,1.342835,1.971594,-1.486699,-8.495861,-1.936370,-9.895844,-10.297881,-25.774672,32.381182,0.171604,-0.118314,0.000000,-0.295753,0.831865,0.000000
2.390000,-0.849234,-0.948987,-1.129612,2.628066,-0.513052,0.918512,1.257371,1.950957,-1.584022,-8.586135,-2.179229,-9.563156,-8.111737,-23.268145,33.725806,0.168578,-0.109909,0.000000,-0.308320,0.824154,0.000000
2.400000,-0.822891,-0.954020,-1.120506,2.640210,-0.493652,0.902194,1.171112,1.928009,-1.677962,-8.658095,-2.401733,-9.221328,-6.342966,-21.065478,35.091074,0.165437,-0.101592,0.000000,-0.319040,0.815612,0.000000
2.410000,-0.796430,-0.958860,-1.111568,2.651488,-0.474492,0.884953,1.084209,1.902922,-1.768448,-8.712994,-2.600539,-8.861335,-4.511958,-18.501242,36.912335,0.162197,-0.093368,0.000000,-0.327568,0.806296,-0.000000
2.420000,-0.769861,-0.963510,-1.102807,2.661895,-0.455593,0.866825,0.996852,1.875998,-1.855189,-8.748334,-2.771758,-8.483081,-2.547432,-16.216916,37.287286,0.158886,-0.085248,0.000000,-0.333666,0.796054,-0.000000
2.430000,-0.743192,-0.967972,-1.094232,2.671425,-0.436972,0.847849,0.909242,1.847487,-1.938110,-8.763943,-2.924877,-8.115589,-0.692048,-14.507665,36.007169,0.155523,-0.077241,0.000000,-0.338567,0.785100,0.000000
2.440000,-0.716432,-0.972249,-1.085850,2.680079,-0.418644,0.828063,0.821573,1.817501,-2.017501,-8.762175,-3.061911,-7.762938,0.988686,-12.459113,35.726489,0.152114,-0.069352,0.000000,-0.342492,0.773609,-0.000000
2.450000,-0.689590,-0.976345,-1.077671,2.687857,-0.400622,0.807499,0.733999,1.786249,-2.093369,-8.744169,-3.174059,-7.401059,2.950065,-9.836400,36.597237,0.148673,-0.061585,0.000000,-0.344434,0.761514,0.000000
2.460000,-0.662675,-0.980262,-1.069700,2.694759,-0.382919,0.786195,0.646690,1.754020,-2.165522,-8.703174,-3.258639,-7.030993,5.174223,-7.298801,36.839534,0.145224,-0.053949,0.000000,-0.344244,0.748286,0.000000
2.470000,-0.635695,-0.984003,-1.061947,2.700791,-0.365542,0.764189,0.559935,1.721076,-2.233988,-8.640685,-3.320035,-6.664269,6.358457,-5.265907,36.714873,0.141787,-0.046457,0.000000,-0.342447,0.734108,0.000000
2.480000,-0.608659,-0.987573,-1.054417,2.705958,-0.348497,0.741515,0.473876,1.687619,-2.298807,-8.576005,-3.363957,-6.296695,6.476166,-3.503583,37.004010,0.138375,-0.039115,0.000000,-0.339468,0.720528,-0.000000
2.490000,-0.581576,-0.990973,-1.047116,2.710268,-0.331789,0.718212,0.388415,1.653797,-2.359922,-8.511161,-3.390107,-5.924189,7.301056,-1.519705,37.183869,0.134997,-0.031905,0.000000,-0.335259,0.707672,-0.000000
2.500000,-0.554454,-0.994208,-1.040052,2.713726,-0.315421,0.694317,0.303653,1.619817,-2.417291,-8.429984,-3.394351,-5.553018,8.825382,0.485877,36.199689,0.131668,-0.024829,0.000000,-0.329580,0.694225,-0.000000
2.510000,-0.527302,-0.997282,-1.033230,2.716341,-0.299393,0.669867,0.219816,1.585910,-2.470983,-8.334654,-3.380390,-5.200195,9.862622,2.195621,34.525452,0.128404,-0.017897,0.000000,-0.322913,0.680375,0.000000
2.520000,-0.500127,-1.000196,-1.026655,2.718123,-0.283703,0.644897,0.136960,1.552209,-2.521295,-8.232731,-3.350439,-4.862509,10.835232,4.183719,34.870548,0.125209,-0.011106,0.000000,-0.315382,0.666666,0.000000
2.530000,-0.472939,-1.002956,-1.020332,2.719081,-0.268349,0.619441,0.055161,1.518901,-2.568233,-8.117949,-3.296715,-4.502784,12.142798,6.525592,36.917993,0.122096,-0.004456,0.000000,-0.305999,0.652538,0.000000
2.540000,-0.445746,-1.005563,-1.014266,2.719226,-0.253325,0.593533,-0.025399,1.486275,-2.611351,-7.989875,-3.219927,-4.124149,13.113357,8.398638,37.041866,0.119088,0.002045,0.000000,-0.294888,0.638005,-0.000000
2.550000,-0.418555,-1.008022,-1.008461,2.718573,-0.238623,0.567214,-0.104637,1.454502,-2.650716,-7.855682,-3.128742,-3.761946,13.904918,10.057338,36.751346,0.116197,0.008397,0.000000,-0.283078,0.623623,0.000000
2.560000,-0.391374,-1.010336,-1.002922,2.717133,-0.224235,0.540518,-0.182513,1.423700,-2.686590,-7.711777,-3.018780,-3.389122,14.971770,12.020131,38.330200,0.113426,0.014604,0.000000,-0.269954,0.609080,-0.000000
2.570000,-0.364212,-1.012507,-0.997651,2.714922,-0.210149,0.513482,-0.258872,1.394127,-2.718498,-7.556246,-2.888340,-2.995342,15.555041,13.291773,36.633921,0.110797,0.020660,0.000000,-0.255305,0.594263,0.000000
2.580000,-0.337076,-1.014539,-0.992652,2.711956,-0.196352,0.486148,-0.333638,1.365933,-2.746496,-7.400676,-2.752945,-2.656444,15.527006,13.653044,30.835298,0.108319,0.026565,0.000000,-0.241009,0.579938,0.000000
2.590000,-0.309973,-1.016434,-0.987928,2.708250,-0.182831,0.458552,-0.406886,1.339068,-2.771627,-7.245706,-2.615279,-2.378637,15.973704,14.506807,28.195106,0.105976,0.032328,0.000000,-0.227254,0.565993,0.000000
2.600000,-0.282911,-1.018195,-0.983481,2.703818,-0.169571,0.430716,-0.478552,1.313628,-2.794069,-7.081202,-2.462809,-2.092542,16.629014,15.945947,28.319794,0.103773,0.037950,0.000000,-0.212437,0.551731,-0.000000
2.610000,-0.255896,-1.019825,-0.979314,2.698678,-0.156558,0.402671,-0.548510,1.289812,-2.813478,-6.913126,-2.296360,-1.812241,16.797051,17.015814,26.399468,0.101727,0.043424,0.000000,-0.196742,0.537589,-0.000000
2.620000,-0.228937,-1.021327,-0.975428,2.692848,-0.143775,0.374446,-0.616814,1.267700,-2.830314,-6.745261,-2.122492,-1.564552,17.586824,17.834901,25.630587,0.099838,0.048759,0.000000,-0.180871,0.523717,-0.000000
2.630000,-0.202039,-1.022701,-0.971825,2.686342,-0.131204,0.346064,-0.683415,1.247362,-2.844769,-6.561390,-1.939662,-1.299629,19.316902,18.760838,27.961629,0.098109,0.053952,0.000000,-0.164287,0.508994,0.000000
2.640000,-0.175210,-1.023951,-0.968506,2.679180,-0.118828,0.317551,-0.748042,1.228907,-2.856307,-6.358923,-1.747275,-1.005320,20.402237,19.543197,28.589426,0.096552,0.058989,0.000000,-0.146851,0.493310,-0.000000
2.650000,-0.148456,-1.025077,-0.965474,2.671381,-0.106626,0.288938,-0.810593,1.212416,-2.864875,-6.153345,-1.548798,-0.727840,20.481435,20.001375,26.116841,0.095172,0.063866,0.000000,-0.129179,0.477669,-0.000000
2.660000,-0.121783,-1.026083,-0.962728,2.662968,-0.094579,0.260253,-0.871109,1.197931,-2.870863,-5.949294,-1.347248,-0.482983,20.652179,20.329695,23.945837,0.093968,0.068587,0.000000,-0.111597,0.462299,0.000000
2.670000,-0.095197,-1.026969,-0.960269,2.653959,-0.082667,0.231521,-0.929579,1.185471,-2.874535,-5.740301,-1.142204,-0.248924,21.497178,20.865410,24.393620,0.092940,0.073154,0.000000,-0.093885,0.446759,-0.000000
2.680000,-0.068703,-1.027736,-0.958097,2.644376,-0.070870,0.202763,-0.985915,1.175087,-2.875842,-5.519351,-0.929940,0.004890,22.568685,21.535925,26.148864,0.092090,0.077562,0.000000,-0.075510,0.430665,-0.000000
2.690000,-0.042309,-1.028386,-0.956214,2.634241,-0.059166,0.174004,-1.039966,1.166872,-2.874437,-5.288928,-0.711486,0.274054,23.168181,21.898634,26.364064,0.091429,0.081805,0.000000,-0.056574,0.414200,-0.000000
2.700000,-0.016019,-1.028920,-0.954617,2.623577,-0.047532,0.145274,-1.091694,1.160857,-2.870361,-5.055987,-0.491967,0.532171,23.824936,22.038761,26.323820,0.090959,0.085882,0.000000,-0.037650,0.397728,-0.000000
2.710000,0.010163,-1.029337,-0.953308,2.612407,-0.035948,0.116597,-1.141086,1.157033,-2.863794,-4.812429,-0.270710,0.800530,24.937145,22.241114,27.767047,0.090676,0.089793,0.000000,-0.018507,0.380732,0.000000
2.720000,0.036230,-1.029639,-0.952285,2.600755,-0.024392,0.087998,-1.187942,1.155443,-2.854350,-4.557244,-0.047145,1.087512,24.938483,22.180209,26.750644,0.090589,0.093528,0.000000,0.000978,0.363199,-0.000000
2.730000,0.062178,-1.029825,-0.951548,2.588648,-0.012840,0.059510,-1.232231,1.156090,-2.842044,-4.313659,0.172894,1.335543,23.657775,21.739678,22.615583,0.090696,0.097088,0.000000,0.019954,0.346496,0.000000
2.740000,0.088002,-1.029896,-0.951095,2.576111,-0.001270,0.031157,-1.274215,1.158901,-2.827639,-4.084089,0.387649,1.539823,23.270085,21.391076,20.900786,0.090988,0.100487,0.000000,0.038263,0.330704,0.000000
2.750000,0.113700,-1.029850,-0.950925,2.563164,0.010339,0.002957,-1.313913,1.163843,-2.811247,-3.848257,0.600715,1.753559,23.759419,21.209207,21.405337,0.091461,0.103730,0.000000,0.056590,0.314622,0.000000
2.760000,0.139266,-1.029689,-0.951036,2.549832,0.022007,-0.025068,-1.351181,1.170915,-2.792568,-3.608901,0.811833,1.967930,23.670766,20.869412,20.430713,0.092120,0.106807,0.000000,0.074870,0.298389,-0.000000
2.770000,0.164697,-1.029410,-0.951426,2.536140,0.033757,-0.052894,-1.386091,1.180080,-2.771889,-3.374842,1.018104,2.162173,23.608568,20.302114,20.079291,0.092959,0.109723,0.000000,0.092733,0.282494,-0.000000
2.780000,0.189989,-1.029014,-0.952094,2.522110,0.045609,-0.080505,-1.418677,1.191277,-2.749325,-3.136729,1.217875,2.369516,24.117081,19.620365,21.735862,0.093975,0.112481,0.000000,0.110310,0.266468,-0.000000
2.790000,0.215139,-1.028498,-0.953036,2.507767,0.057582,-0.107881,-1.448825,1.204437,-2.724498,-2.892501,1.410511,2.596890,24.242995,18.893958,22.195377,0.095166,0.115076,0.000000,0.127626,0.250215,-0.000000
2.800000,0.240144,-1.027862,-0.954251,2.493134,0.069697,-0.134995,-1.476527,1.219488,-2.697387,-2.651869,1.595754,2.813424,23.808627,18.119221,21.053918,0.096528,0.117509,0.000000,0.144442,0.234204,-0.000000
2.810000,0.265001,-1.027104,-0.955736,2.478236,0.081972,-0.161829,-1.501863,1.236352,-2.668230,-2.416328,1.772895,3.017968,23.487376,17.256591,20.533546,0.098055,0.119782,0.000000,0.160698,0.218518,0.000000
