time,x,y,z,vx,vy,vz,ax,ay,az,jx,jy,jz,sx,sy,sz,roll,pitch,yaw,p,q,r
0.000000,-2.650202,0.318047,-1.488463,-0.014350,-0.007854,0.004339,0.286692,-0.066487,0.065442,13.188180,-3.064839,2.372956,-104.001473,22.286932,-79.915984,-0.006820,-0.029412,0.000000,-0.315755,-1.359345,0.000000
0.010000,-2.650346,0.317968,-1.488420,-0.011483,-0.008519,0.004993,0.418574,-0.097135,0.089171,12.148165,-2.841970,1.573796,-475.606160,106.545912,-170.064177,-0.009983,-0.043033,0.000000,-0.293136,-1.254288,0.000000
0.020000,-2.650432,0.317877,-1.488363,-0.005979,-0.009797,0.006122,0.529656,-0.123326,0.096918,3.676057,-0.933921,-1.028327,-776.054573,172.958791,-203.615905,-0.012677,-0.054476,0.000000,-0.094394,-0.371557,0.000000
0.030000,-2.650465,0.317773,-1.488297,-0.000890,-0.010986,0.006931,0.492095,-0.115814,0.068605,-3.372926,0.617206,-2.498522,-316.154554,64.755397,-43.298674,-0.011873,-0.050473,0.000000,0.066100,0.358264,-0.000000
0.040000,-2.650450,0.317657,-1.488225,0.003863,-0.012113,0.007494,0.462197,-0.110982,0.046947,-2.647035,0.361187,-1.894301,68.702497,-24.417677,54.662915,-0.011354,-0.047306,0.000000,0.039002,0.279668,-0.000000
0.050000,-2.650388,0.317530,-1.488147,0.008354,-0.013205,0.007870,0.439155,-0.108590,0.030719,-1.998876,0.128852,-1.405263,61.215676,-22.097727,43.867150,-0.011092,-0.044876,0.000000,0.014650,0.210415,-0.000000
0.060000,-2.650282,0.317393,-1.488067,0.012646,-0.014285,0.008108,0.422220,-0.108405,0.018842,-1.422721,-0.080768,-1.016958,54.290091,-19.874083,34.471249,-0.011061,-0.043096,0.000000,-0.007163,0.149498,0.000000
0.070000,-2.650135,0.317245,-1.487985,0.016798,-0.015373,0.008247,0.410700,-0.110205,0.010380,-0.913075,-0.268629,-0.715838,47.901979,-17.745394,26.384598,-0.011236,-0.041885,0.000000,-0.026609,0.096061,-0.000000
0.080000,-2.649947,0.317085,-1.487902,0.020860,-0.016489,0.008316,0.403958,-0.113778,0.004525,-0.464681,-0.435676,-0.489266,42.027593,-15.710314,19.516595,-0.011593,-0.041174,0.000000,-0.043833,0.049359,-0.000000
0.090000,-2.649718,0.316915,-1.487819,0.024877,-0.017649,0.008338,0.401407,-0.118919,0.000594,-0.072523,-0.582836,-0.325506,36.643186,-13.767493,13.776637,-0.012112,-0.040898,0.000000,-0.058960,0.008736,-0.000000
0.100000,-2.649449,0.316732,-1.487736,0.028888,-0.018867,0.008328,0.402508,-0.125434,-0.001985,0.268182,-0.711025,-0.213733,31.725014,-11.915578,9.074122,-0.012772,-0.040999,0.000000,-0.072100,-0.026392,-0.000000
0.110000,-2.649140,0.316537,-1.487652,0.032928,-0.020158,0.008298,0.406770,-0.133139,-0.003680,0.561977,-0.821147,-0.144024,27.249320,-10.153222,5.318437,-0.013554,-0.041426,0.000000,-0.083356,-0.056554,0.000000
0.120000,-2.648790,0.316329,-1.487570,0.037024,-0.021530,0.008254,0.413747,-0.141857,-0.004865,0.813169,-0.914090,-0.107364,23.192272,-8.479076,2.418961,-0.014439,-0.042130,0.000000,-0.092823,-0.082235,0.000000
0.130000,-2.648400,0.316107,-1.487487,0.041202,-0.022995,0.008201,0.423034,-0.151421,-0.005828,1.025823,-0.990729,-0.095645,19.530144,-6.891788,0.285095,-0.015411,-0.043070,0.000000,-0.100595,-0.103882,0.000000
0.140000,-2.647966,0.315869,-1.487406,0.045485,-0.024559,0.008138,0.434264,-0.161672,-0.006778,1.203772,-1.051926,-0.101662,16.239421,-5.390013,-1.173733,-0.016451,-0.044208,0.000000,-0.106763,-0.121911,0.000000
0.150000,-2.647490,0.315616,-1.487325,0.049888,-0.026228,0.008065,0.447109,-0.172459,-0.007861,1.350611,-1.098529,-0.119119,13.296146,-3.972398,-2.048158,-0.017546,-0.045509,0.000000,-0.111419,-0.136710,-0.000000
0.160000,-2.646969,0.315345,-1.487244,0.054427,-0.028008,0.007981,0.461276,-0.183642,-0.009161,1.469695,-1.131374,-0.142626,10.676279,-2.637588,-2.428830,-0.018680,-0.046943,0.000000,-0.114652,-0.148640,-0.000000
0.170000,-2.646401,0.315056,-1.487165,0.059113,-0.029901,0.007882,0.476503,-0.195087,-0.010713,1.564137,-1.151281,-0.167696,8.355137,-1.384725,-2.419000,-0.019839,-0.048482,0.000000,-0.116555,-0.158037,0.000000
0.180000,-2.645786,0.314747,-1.487087,0.063957,-0.031910,0.007766,0.492559,-0.206668,-0.012515,1.636797,-1.159068,-0.191006,6.286552,-0.220934,-2.331099,-0.021011,-0.050104,0.000000,-0.117219,-0.165210,-0.000000
0.190000,-2.645122,0.314417,-1.487010,0.068964,-0.034034,0.007632,0.509239,-0.218268,-0.014533,1.689868,-1.155699,-0.214318,4.454284,0.858071,-2.179060,-0.022183,-0.051787,0.000000,-0.116739,-0.170374,0.000000
0.200000,-2.644407,0.314066,-1.486934,0.074142,-0.036275,0.007476,0.526356,-0.229782,-0.016801,1.725883,-1.141907,-0.234587,3.000890,1.916144,-0.416541,-0.023345,-0.053512,0.000000,-0.115199,-0.173805,-0.000000
0.210000,-2.643639,0.313692,-1.486860,0.079492,-0.038630,0.007296,0.543756,-0.241106,-0.019225,1.749886,-1.117377,-0.222649,1.884884,2.947932,2.690468,-0.024487,-0.055264,0.000000,-0.112644,-0.176184,0.000000
0.220000,-2.642817,0.313293,-1.486788,0.085017,-0.041097,0.007091,0.561354,-0.252129,-0.021254,1.763581,-1.082948,-0.180777,0.604854,3.775715,2.356683,-0.025598,-0.057037,0.000000,-0.109172,-0.177697,-0.000000
0.230000,-2.641939,0.312870,-1.486718,0.090719,-0.043673,0.006870,0.579028,-0.262765,-0.022841,1.761983,-1.041862,-0.175515,-0.885890,4.400170,-1.610987,-0.026671,-0.058819,0.000000,-0.104944,-0.177464,0.000000
0.240000,-2.641003,0.312420,-1.486651,0.096597,-0.046352,0.006634,0.596593,-0.272967,-0.024764,1.745863,-0.994945,-0.212997,-1.944195,5.070562,-2.780832,-0.027697,-0.060587,0.000000,-0.100009,-0.175492,-0.000000
0.250000,-2.640007,0.311943,-1.486586,0.102651,-0.049132,0.006375,0.613945,-0.282664,-0.027101,1.723099,-0.940451,-0.231132,-2.418738,5.795436,-0.430099,-0.028671,-0.062330,0.000000,-0.094356,-0.172952,-0.000000
0.260000,-2.638950,0.311437,-1.486523,0.108876,-0.052006,0.006092,0.631055,-0.291776,-0.029387,1.697488,-0.879036,-0.221599,-2.784058,6.412990,1.010508,-0.029584,-0.064048,0.000000,-0.088088,-0.170300,-0.000000
0.270000,-2.637830,0.310903,-1.486464,0.115272,-0.054967,0.005787,0.647895,-0.300245,-0.031533,1.667418,-0.812191,-0.210922,-3.401073,6.966294,0.746263,-0.030433,-0.065738,0.000000,-0.081286,-0.167213,0.000000
0.280000,-2.636644,0.310338,-1.486407,0.121834,-0.058011,0.005462,0.664404,-0.308020,-0.033605,1.629467,-0.739710,-0.206674,-4.145714,7.522326,0.278554,-0.031210,-0.067394,0.000000,-0.073904,-0.163295,-0.000000
0.290000,-2.635393,0.309743,-1.486354,0.128560,-0.061128,0.005115,0.680484,-0.315039,-0.035666,1.584504,-0.661745,-0.205351,-4.594520,8.014820,0.265400,-0.031911,-0.069005,0.000000,-0.065969,-0.158654,0.000000
0.300000,-2.634073,0.309115,-1.486305,0.135444,-0.064311,0.004748,0.696094,-0.321254,-0.037712,1.537576,-0.579414,-0.201366,-4.669911,8.406887,0.573456,-0.032530,-0.070568,0.000000,-0.057610,-0.153839,-0.000000
0.310000,-2.632684,0.308456,-1.486260,0.142482,-0.067553,0.004361,0.711236,-0.326627,-0.039693,1.491105,-0.493607,-0.193881,-4.678592,8.753933,0.802147,-0.033063,-0.072084,0.000000,-0.048923,-0.149105,0.000000
0.320000,-2.631224,0.307764,-1.486218,0.149668,-0.070844,0.003954,0.725916,-0.331127,-0.041590,1.444004,-0.404335,-0.185323,-4.856902,9.138217,0.848008,-0.033508,-0.073552,0.000000,-0.039900,-0.144325,-0.000000
0.330000,-2.629691,0.307039,-1.486180,0.157000,-0.074175,0.003529,0.740116,-0.334714,-0.043400,1.393967,-0.310843,-0.176921,-5.125274,9.550321,0.839571,-0.033861,-0.074972,0.000000,-0.030460,-0.139256,-0.000000
0.340000,-2.628084,0.306281,-1.486147,0.164471,-0.077538,0.003086,0.753795,-0.337343,-0.045128,1.341499,-0.213329,-0.168531,-5.205928,9.888597,0.880300,-0.034117,-0.076339,0.000000,-0.020626,-0.133952,-0.000000
0.350000,-2.626401,0.305489,-1.486119,0.172076,-0.080922,0.002627,0.766946,-0.338981,-0.046771,1.289849,-0.113071,-0.159315,-5.048431,10.127662,0.971151,-0.034274,-0.077653,0.000000,-0.010527,-0.128746,-0.000000
0.360000,-2.624642,0.304662,-1.486095,0.179810,-0.084318,0.002151,0.779592,-0.339605,-0.048315,1.240530,-0.010775,-0.149108,-4.853893,10.341885,1.044805,-0.034328,-0.078915,0.000000,-0.000234,-0.123792,-0.000000
0.370000,-2.622805,0.303802,-1.486076,0.187668,-0.087714,0.001660,0.791757,-0.339196,-0.049753,1.192771,0.093767,-0.138419,-4.775163,10.598840,1.064993,-0.034278,-0.080130,0.000000,0.010277,-0.119009,-0.000000
0.380000,-2.620889,0.302908,-1.486062,0.195645,-0.091102,0.001156,0.803448,-0.337730,-0.051083,1.145027,0.201202,-0.127809,-4.759769,10.879712,1.052110,-0.034122,-0.081297,0.000000,0.021072,-0.114234,0.000000
0.390000,-2.618892,0.301980,-1.486053,0.203737,-0.094469,0.000639,0.814657,-0.335172,-0.052309,1.097575,0.311361,-0.117377,-4.628376,11.102309,1.050003,-0.033857,-0.082416,0.000000,0.032136,-0.109496,0.000000
0.400000,-2.616814,0.301019,-1.486049,0.211938,-0.097805,0.000110,0.825399,-0.331502,-0.053431,1.052459,0.423248,-0.106809,-4.349328,11.249390,1.068696,-0.033480,-0.083488,0.000000,0.043370,-0.105002,-0.000000
0.410000,-2.614653,0.300024,-1.486050,0.220245,-0.101099,-0.000430,0.835706,-0.326707,-0.054445,1.010589,0.536349,-0.096003,-4.052447,11.379533,1.078773,-0.032989,-0.084517,0.000000,0.054722,-0.100844,-0.000000
0.420000,-2.612409,0.298997,-1.486057,0.228652,-0.104339,-0.000979,0.845611,-0.320775,-0.055351,0.971411,0.650838,-0.085233,-3.834454,11.539839,1.052425,-0.032385,-0.085506,0.000000,0.066211,-0.096963,-0.000000
0.430000,-2.610080,0.297937,-1.486070,0.237157,-0.107515,-0.001537,0.855135,-0.313691,-0.056150,0.933900,0.767146,-0.074955,-3.661650,11.714276,0.999391,-0.031665,-0.086458,0.000000,0.077884,-0.093251,0.000000
0.440000,-2.607666,0.296847,-1.486088,0.245755,-0.110613,-0.002102,0.864289,-0.305432,-0.056850,0.898178,0.885124,-0.065245,-3.421020,11.845436,0.956214,-0.030828,-0.087372,0.000000,0.089726,-0.089719,-0.000000
0.450000,-2.605165,0.295725,-1.486112,0.254443,-0.113623,-0.002674,0.873098,-0.295988,-0.057455,0.865479,1.004055,-0.055830,-3.091635,11.922378,0.925242,-0.029871,-0.088253,0.000000,0.101665,-0.086494,-0.000000
0.460000,-2.602577,0.294574,-1.486142,0.263217,-0.116533,-0.003251,0.881598,-0.285351,-0.057966,0.836345,1.123571,-0.046740,-2.755675,11.985261,0.883060,-0.028794,-0.089103,0.000000,0.113666,-0.083628,-0.000000
0.470000,-2.599901,0.293394,-1.486177,0.272075,-0.119330,-0.003833,0.889825,-0.273517,-0.058389,0.810366,1.243760,-0.038169,-2.477687,12.063503,0.829112,-0.027597,-0.089926,0.000000,0.125738,-0.081078,-0.000000
0.480000,-2.597136,0.292187,-1.486218,0.281013,-0.122003,-0.004419,0.897806,-0.260476,-0.058730,0.786791,1.364841,-0.030158,-2.236439,12.145432,0.771849,-0.026279,-0.090725,0.000000,0.137904,-0.078768,-0.000000
0.490000,-2.594281,0.290954,-1.486265,0.290031,-0.124540,-0.005008,0.905561,-0.246220,-0.058993,0.765637,1.486668,-0.022732,-1.956172,12.194970,0.711649,-0.024839,-0.091502,0.000000,0.150150,-0.076699,0.000000
0.500000,-2.591335,0.289697,-1.486318,0.299124,-0.126928,-0.005599,0.913119,-0.230743,-0.059184,0.747668,1.608741,-0.015925,-1.624356,12.205877,0.652796,-0.023276,-0.092260,0.000000,0.162424,-0.074946,-0.000000
0.510000,-2.588298,0.288416,-1.486377,0.308293,-0.129155,-0.006191,0.920514,-0.214045,-0.059311,0.733150,1.730786,-0.009676,-1.295957,12.202861,0.596220,-0.021591,-0.093001,0.000000,0.174700,-0.073537,0.000000
0.520000,-2.585169,0.287114,-1.486442,0.317535,-0.131209,-0.006785,0.927782,-0.196127,-0.059378,0.721749,1.852798,-0.004001,-1.009263,12.202120,0.528883,-0.019782,-0.093731,0.000000,0.186978,-0.072438,0.000000
0.530000,-2.581947,0.285792,-1.486513,0.326849,-0.133077,-0.007379,0.934949,-0.176989,-0.059391,0.712965,1.974828,0.000901,-0.749801,12.195935,0.450470,-0.017851,-0.094450,0.000000,0.199260,-0.071595,0.000000
0.540000,-2.578632,0.284452,-1.486590,0.336234,-0.134748,-0.007973,0.942041,-0.156630,-0.059360,0.706753,2.096717,0.005009,-0.473684,12.164217,0.381052,-0.015797,-0.095163,0.000000,0.211532,-0.071003,-0.000000
0.550000,-2.575223,0.283097,-1.486673,0.345689,-0.136210,-0.008566,0.949084,-0.135055,-0.059291,0.703491,2.218113,0.008522,-0.173821,12.104250,0.327257,-0.013621,-0.095871,0.000000,0.223756,-0.070703,0.000000
0.560000,-2.571718,0.281728,-1.486761,0.355215,-0.137449,-0.009159,0.956111,-0.112268,-0.059189,0.703276,2.338802,0.011554,0.117638,12.029322,0.276685,-0.011322,-0.096577,0.000000,0.235910,-0.070705,0.000000
0.570000,-2.568118,0.280348,-1.486856,0.364812,-0.138455,-0.009750,0.963150,-0.088279,-0.059060,0.705844,2.458699,0.014056,0.377032,11.945836,0.218073,-0.008902,-0.097285,0.000000,0.247983,-0.070981,-0.000000
0.580000,-2.564422,0.278959,-1.486956,0.374478,-0.139215,-0.010340,0.970228,-0.063094,-0.058908,0.710817,2.577719,0.015915,0.612143,11.849117,0.157301,-0.006362,-0.097997,0.000000,0.259967,-0.071492,0.000000
0.590000,-2.560629,0.277563,-1.487062,0.384216,-0.139717,-0.010928,0.977366,-0.036724,-0.058742,0.718087,2.695682,0.017202,0.850042,11.731120,0.110923,-0.003703,-0.098715,0.000000,0.271840,-0.072227,0.000000
0.600000,-2.556738,0.276164,-1.487175,0.394026,-0.139949,-0.011515,0.984589,-0.009181,-0.058564,0.727818,2.812341,0.018134,1.097143,11.591740,0.076165,-0.000926,-0.099441,0.000000,0.283577,-0.073206,0.000000
0.610000,-2.552748,0.274764,-1.487293,0.403908,-0.139901,-0.012099,0.991922,0.019523,-0.058379,0.740030,2.927516,0.018725,1.333111,11.435833,0.044154,0.001968,-0.100179,0.000000,0.295157,-0.074429,-0.000000
0.620000,-2.548660,0.273366,-1.487417,0.413864,-0.139559,-0.012682,0.999390,0.049370,-0.058190,0.754480,3.041058,0.019017,1.537128,11.262864,0.028740,0.004977,-0.100930,0.000000,0.306563,-0.075872,0.000000
0.630000,-2.544471,0.271973,-1.487546,0.423896,-0.138913,-0.013263,1.007012,0.080344,-0.057999,0.770772,3.152774,0.019300,1.713663,11.070604,0.035042,0.008100,-0.101696,0.000000,0.317775,-0.077498,0.000000
0.640000,-2.540182,0.270588,-1.487682,0.434004,-0.137952,-0.013842,1.014805,0.112425,-0.057804,0.788753,3.262470,0.019718,1.887729,10.859665,0.045604,0.011333,-0.102480,0.000000,0.328771,-0.079294,-0.000000
0.650000,-2.535791,0.269214,-1.487823,0.444192,-0.136665,-0.014419,1.022787,0.145593,-0.057604,0.808527,3.369967,0.020212,2.064688,10.631371,0.058572,0.014675,-0.103282,0.000000,0.339532,-0.081268,-0.000000
0.660000,-2.531298,0.267855,-1.487970,0.454460,-0.135040,-0.014994,1.030976,0.179825,-0.057399,0.830047,3.475097,0.020889,2.226120,10.384691,0.087646,0.018123,-0.104105,0.000000,0.350038,-0.083417,0.000000
0.670000,-2.526702,0.266513,-1.488123,0.464811,-0.133068,-0.015567,1.039388,0.215095,-0.057186,0.853049,3.577661,0.021965,2.356771,10.115668,0.136578,0.021676,-0.104951,0.000000,0.360270,-0.085716,0.000000
0.680000,-2.522002,0.265193,-1.488282,0.475248,-0.130738,-0.016138,1.048037,0.251378,-0.056960,0.877182,3.677410,0.023621,2.461080,9.823987,0.202731,0.025329,-0.105820,0.000000,0.370200,-0.088132,-0.000000
0.690000,-2.517197,0.263899,-1.488446,0.485772,-0.128041,-0.016706,1.056932,0.288643,-0.056714,0.902271,3.774141,0.026020,2.557121,9.514497,0.284145,0.029080,-0.106714,0.000000,0.379809,-0.090649,0.000000
0.700000,-2.512286,0.262633,-1.488616,0.496387,-0.124965,-0.017272,1.066082,0.326861,-0.056440,0.928325,3.867700,0.029304,2.649898,9.188901,0.376130,0.032925,-0.107634,0.000000,0.389081,-0.093270,-0.000000
0.710000,-2.507269,0.261399,-1.488791,0.507094,-0.121503,-0.017835,1.075498,0.365997,-0.056128,0.955269,3.957919,0.033543,2.726173,8.843430,0.481825,0.036861,-0.108580,0.000000,0.397998,-0.095987,0.000000
0.720000,-2.502144,0.260203,-1.488973,0.517897,-0.117646,-0.018395,1.085188,0.406019,-0.055769,0.982848,4.044569,0.038940,2.771180,8.473326,0.619550,0.040885,-0.109555,0.000000,0.406538,-0.098777,-0.000000
0.730000,-2.496911,0.259046,-1.489159,0.528798,-0.113383,-0.018951,1.095155,0.446889,-0.055349,1.010692,4.127385,0.045934,2.787786,8.079341,0.791310,0.044992,-0.110558,0.000000,0.414678,-0.101609,-0.000000
0.740000,-2.491568,0.257935,-1.489352,0.539800,-0.108708,-0.019502,1.105401,0.488567,-0.054850,1.038604,4.206156,0.054766,2.794462,7.667298,0.973617,0.049178,-0.111589,0.000000,0.422399,-0.104466,0.000000
0.750000,-2.486115,0.256872,-1.489549,0.550906,-0.103612,-0.020048,1.115927,0.531012,-0.054254,1.066582,4.280731,0.065406,2.797116,7.238513,1.155138,0.053440,-0.112649,0.000000,0.429688,-0.107347,0.000000
0.760000,-2.480550,0.255863,-1.489753,0.562118,-0.098088,-0.020587,1.126733,0.574181,-0.053542,1.094546,4.350926,0.077869,2.782509,6.788741,1.353686,0.057772,-0.113739,0.000000,0.436529,-0.110245,0.000000
0.770000,-2.474873,0.254910,-1.489961,0.573440,-0.092128,-0.021119,1.137818,0.618030,-0.052696,1.122232,4.416506,0.092480,2.734976,6.314424,1.599605,0.062170,-0.114858,0.000000,0.442902,-0.113140,-0.000000
0.780000,-2.469081,0.254020,-1.490175,0.584875,-0.085727,-0.021641,1.149178,0.662511,-0.051692,1.149246,4.477215,0.109861,2.657649,5.816680,1.890369,0.066630,-0.116006,0.000000,0.448790,-0.115998,0.000000
0.790000,-2.463175,0.253196,-1.490394,0.596424,-0.078878,-0.022152,1.160803,0.707575,-0.050499,1.175385,4.532839,0.130287,2.570758,5.299775,2.186326,0.071146,-0.117183,0.000000,0.454180,-0.118805,0.000000
0.800000,-2.457153,0.252443,-1.490618,0.608091,-0.071575,-0.022651,1.172685,0.753168,-0.049087,1.200661,4.583210,0.153588,2.480993,4.764345,2.470489,0.075714,-0.118388,0.000000,0.459058,-0.121561,-0.000000
0.810000,-2.451013,0.251764,-1.490847,0.619878,-0.063815,-0.023134,1.184816,0.799239,-0.047427,1.225005,4.628126,0.179697,2.374348,4.207349,2.771066,0.080327,-0.119621,0.000000,0.463410,-0.124260,-0.000000
0.820000,-2.444755,0.251166,-1.491081,0.631787,-0.055591,-0.023599,1.197186,0.845731,-0.045493,1.248148,4.667357,0.209009,2.234002,3.626994,3.131630,0.084982,-0.120882,0.000000,0.467222,-0.126882,-0.000000
0.830000,-2.438378,0.250653,-1.491319,0.643821,-0.046900,-0.024044,1.209779,0.892586,-0.043247,1.269685,4.700666,0.242329,2.063579,3.024102,3.546357,0.089672,-0.122168,0.000000,0.470486,-0.129399,0.000000
0.840000,-2.431879,0.250228,-1.491561,0.655983,-0.037739,-0.024464,1.222579,0.939744,-0.040646,1.289419,4.727839,0.279936,1.885539,2.400721,3.956851,0.094392,-0.123480,0.000000,0.473192,-0.131795,-0.000000
0.850000,-2.425258,0.249898,-1.491808,0.668273,-0.028105,-0.024857,1.235568,0.987143,-0.037649,1.307395,4.748681,0.321466,1.707229,1.757408,4.340249,0.099136,-0.124816,0.000000,0.475327,-0.134075,-0.000000
0.860000,-2.418514,0.249666,-1.492059,0.680694,-0.017996,-0.025217,1.248727,1.034718,-0.034217,1.323564,4.762987,0.366741,1.513466,1.092670,4.736625,0.103898,-0.126175,0.000000,0.476878,-0.136234,0.000000
0.870000,-2.411644,0.249538,-1.492313,0.693247,-0.007411,-0.025541,1.262039,1.082402,-0.030314,1.337665,4.770534,0.416199,1.286841,0.404703,5.201552,0.108673,-0.127556,0.000000,0.477837,-0.138254,0.000000
0.880000,-2.404649,0.249518,-1.492569,0.705935,0.003652,-0.025824,1.275480,1.130128,-0.025893,1.349301,4.771081,0.470772,1.031772,-0.306389,5.725122,0.113455,-0.128956,0.000000,0.478202,-0.140110,-0.000000
0.890000,-2.397526,0.249611,-1.492829,0.718757,0.015192,-0.026059,1.289025,1.177824,-0.020898,1.358300,4.764406,0.530701,0.772090,-1.038282,6.231528,0.118237,-0.130376,0.000000,0.477967,-0.141793,0.000000
0.900000,-2.390273,0.249822,-1.493091,0.731715,0.027208,-0.026242,1.302646,1.225416,-0.015279,1.364743,4.750316,0.595403,0.515343,-1.788684,6.691581,0.123015,-0.131812,0.000000,0.477117,-0.143306,0.000000
0.910000,-2.382891,0.250155,-1.493354,0.744810,0.039700,-0.026365,1.316320,1.272830,-0.008990,1.368607,4.728633,0.664533,0.245962,-2.559373,7.155913,0.127780,-0.133264,0.000000,0.475642,-0.144647,-0.000000
0.920000,-2.375377,0.250616,-1.493618,0.758042,0.052665,-0.026421,1.330019,1.319989,-0.001988,1.369662,4.699128,0.738521,-0.052724,-3.356789,7.692767,0.132528,-0.134729,0.000000,0.473537,-0.145801,0.000000
0.930000,-2.367730,0.251208,-1.493882,0.771410,0.066100,-0.026404,1.343713,1.366813,0.005780,1.367553,4.661497,0.818388,-0.375732,-4.181402,8.286522,0.137251,-0.136206,0.000000,0.470798,-0.146751,0.000000
0.940000,-2.359949,0.251938,-1.494146,0.784916,0.080001,-0.026306,1.357370,1.413219,0.014380,1.362147,4.615500,0.904251,-0.699779,-5.024247,8.843090,0.141944,-0.137692,0.000000,0.467416,-0.147489,0.000000
0.950000,-2.352032,0.252808,-1.494408,0.798558,0.094364,-0.026117,1.370956,1.459123,0.023865,1.353557,4.561012,0.995250,-1.017458,-5.878158,9.340017,0.146600,-0.139186,0.000000,0.463380,-0.148020,0.000000
0.960000,-2.343978,0.253825,-1.494668,0.812335,0.109184,-0.025828,1.384441,1.504439,0.034285,1.341798,4.497937,1.091052,-1.343419,-6.749592,9.837671,0.151212,-0.140685,0.000000,0.458686,-0.148343,-0.000000
0.970000,-2.335785,0.254992,-1.494925,0.826246,0.124453,-0.025431,1.397792,1.549082,0.045686,1.326689,4.426020,1.192003,-1.693167,-7.657321,10.378713,0.155774,-0.142187,0.000000,0.453324,-0.148448,0.000000
0.980000,-2.327453,0.256314,-1.495177,0.840291,0.140165,-0.024915,1.410974,1.592960,0.058125,1.307935,4.344791,1.298626,-2.061992,-8.601368,10.943548,0.160279,-0.143690,0.000000,0.447267,-0.148318,0.000000
0.990000,-2.318980,0.257795,-1.495423,0.854466,0.156312,-0.024269,1.423951,1.635977,0.071659,1.285449,4.253993,1.410874,-2.427403,-9.555552,11.471540,0.164720,-0.145192,0.000000,0.440499,-0.147946,-0.000000
1.000000,-2.310364,0.259440,-1.495662,0.868770,0.172885,-0.023482,1.436683,1.678040,0.086342,1.259387,4.153680,1.528057,-2.779215,-10.504118,11.930937,0.169089,-0.146690,0.000000,0.433022,-0.147342,0.000000
1.010000,-2.301604,0.261253,-1.495893,0.883200,0.189873,-0.022542,1.449138,1.719051,0.102220,1.229864,4.043910,1.649493,-3.131289,-11.465246,12.358811,0.173381,-0.148182,0.000000,0.424838,-0.146508,-0.000000
1.020000,-2.292700,0.263238,-1.496113,0.897753,0.207266,-0.021437,1.461281,1.758918,0.119332,1.196761,3.924375,1.775233,-3.506203,-12.478402,12.830304,0.177587,-0.149665,0.000000,0.415919,-0.145436,0.000000
1.030000,-2.283649,0.265398,-1.496322,0.912425,0.225051,-0.020155,1.473074,1.797539,0.137725,1.159740,3.794342,1.906099,-3.898668,-13.540933,13.331065,0.181700,-0.151137,0.000000,0.406214,-0.144106,0.000000
1.040000,-2.274451,0.267739,-1.496516,0.927214,0.243217,-0.018683,1.484476,1.834805,0.157454,1.118787,3.653556,2.041854,-4.275857,-14.597941,13.752184,0.185711,-0.152596,0.000000,0.395694,-0.142515,-0.000000
1.050000,-2.265105,0.270263,-1.496695,0.942115,0.261748,-0.017006,1.495449,1.870610,0.178562,1.074223,3.502383,2.181143,-4.631629,-15.622313,14.076731,0.189614,-0.154038,0.000000,0.384371,-0.140674,-0.000000
1.060000,-2.255609,0.272974,-1.496856,0.957123,0.280629,-0.015111,1.505960,1.904852,0.201077,1.026155,3.341110,2.323389,-4.985883,-16.651284,14.371293,0.193399,-0.155461,0.000000,0.372258,-0.138586,-0.000000
1.070000,-2.245962,0.275875,-1.496997,0.972234,0.299845,-0.012985,1.515972,1.937432,0.225029,0.974506,3.169358,2.468569,-5.345831,-17.750319,14.650145,0.197060,-0.156862,0.000000,0.359309,-0.136240,-0.000000
1.080000,-2.236164,0.278971,-1.497116,0.987442,0.319378,-0.010611,1.525450,1.968239,0.250448,0.919238,2.986103,2.616392,-5.702755,-18.911216,14.881678,0.200586,-0.158239,0.000000,0.345410,-0.133627,-0.000000
1.090000,-2.226214,0.282263,-1.497210,1.002743,0.339209,-0.007976,1.534357,1.997154,0.277357,0.860450,2.791133,2.766202,-6.045002,-20.042899,15.042455,0.203968,-0.159589,0.000000,0.330513,-0.130744,-0.000000
1.100000,-2.216109,0.285755,-1.497276,1.018130,0.359321,-0.005064,1.542659,2.024062,0.305772,0.798338,2.585245,2.917241,-6.370962,-21.106404,15.149510,0.207196,-0.160910,0.000000,0.314666,-0.127595,-0.000000
1.110000,-2.205851,0.289449,-1.497311,1.033596,0.379691,-0.001860,1.550324,2.048859,0.335702,0.733031,2.369005,3.069193,-6.685549,-22.162290,15.208205,0.210262,-0.162197,0.000000,0.297897,-0.124183,-0.000000
1.120000,-2.195437,0.293349,-1.497313,1.049136,0.400298,0.001650,1.557320,2.071442,0.367156,0.664627,2.142000,3.221405,-6.987856,-23.301311,15.156419,0.213155,-0.163449,0.000000,0.280130,-0.120503,-0.000000
1.130000,-2.184868,0.297455,-1.497278,1.064743,0.421119,0.005483,1.563616,2.091699,0.400130,0.593274,1.902979,3.372321,-7.274118,-24.507018,14.980666,0.215864,-0.164663,0.000000,0.261177,-0.116536,-0.000000
1.140000,-2.174143,0.301771,-1.497203,1.080408,0.442132,0.009653,1.569185,2.109502,0.434602,0.519145,1.651859,3.521018,-7.542194,-25.652717,14.757496,0.218378,-0.165836,0.000000,0.240977,-0.112278,-0.000000
1.150000,-2.163260,0.306298,-1.497085,1.096126,0.463310,0.014175,1.573999,2.124736,0.470551,0.442430,1.389925,3.667471,-7.789710,-26.692107,14.515413,0.220684,-0.166963,0.000000,0.219620,-0.107738,-0.000000
1.160000,-2.152220,0.311037,-1.496920,1.111888,0.484627,0.019064,1.578034,2.137300,0.507952,0.363351,1.118017,3.811327,-8.015322,-27.707568,14.193423,0.222770,-0.168044,0.000000,0.197141,-0.102925,0.000000
1.170000,-2.141022,0.315990,-1.496704,1.127687,0.506056,0.024334,1.581266,2.147096,0.546777,0.282124,0.835773,3.951339,-8.220112,-28.801277,13.712057,0.224626,-0.169074,0.000000,0.173432,-0.097827,-0.000000
1.180000,-2.129666,0.321158,-1.496433,1.143514,0.527568,0.029999,1.583676,2.154016,0.586979,0.198948,0.541992,4.085568,-8.401401,-29.946698,13.076758,0.226238,-0.170051,0.000000,0.148277,-0.092421,-0.000000
1.190000,-2.118152,0.326542,-1.496104,1.159360,0.549136,0.036074,1.585245,2.157936,0.628488,0.114096,0.236839,4.212875,-8.553954,-31.000050,12.385477,0.227591,-0.170971,0.000000,0.121607,-0.086701,0.000000
1.200000,-2.106479,0.332141,-1.495711,1.175219,0.570727,0.042569,1.585958,2.158753,0.671236,0.027869,-0.078009,4.333277,-8.682894,-31.919350,11.702335,0.228670,-0.171831,0.000000,0.093534,-0.080686,-0.000000
1.210000,-2.094648,0.337956,-1.495252,1.191080,0.592311,0.049498,1.585803,2.156376,0.715154,-0.059562,-0.401548,4.446921,-8.788406,-32.795031,10.951849,0.229461,-0.172627,0.000000,0.064103,-0.074381,-0.000000
1.220000,-2.082658,0.343987,-1.494722,1.206935,0.613855,0.056872,1.584767,2.150722,0.760175,-0.147899,-0.733910,4.552314,-8.848366,-33.710079,9.951511,0.229951,-0.173358,0.000000,0.033200,-0.067778,0.000000
1.230000,-2.070509,0.350233,-1.494115,1.222775,0.635325,0.064702,1.582845,2.141698,0.806200,-0.236529,-1.075749,4.645951,-8.857721,-34.629511,8.707729,0.230123,-0.174019,0.000000,0.000605,-0.060862,0.000000
1.240000,-2.058202,0.356694,-1.493427,1.238592,0.656689,0.072996,1.580036,2.129207,0.853094,-0.325053,-1.426500,4.726469,-8.843802,-35.433816,7.463970,0.229961,-0.174608,0.000000,-0.033734,-0.053632,0.000000
1.250000,-2.045737,0.363367,-1.492655,1.254376,0.677909,0.081764,1.576344,2.113168,0.900730,-0.413405,-1.784425,4.795231,-8.823092,-36.103118,6.318090,0.229447,-0.175121,0.000000,-0.069672,-0.046106,0.000000
1.260000,-2.033115,0.370252,-1.491792,1.270118,0.698952,0.091011,1.571768,2.093518,0.948998,-0.501515,-2.148563,4.852831,-8.773442,-36.707164,5.098830,0.228565,-0.175554,0.000000,-0.107167,-0.038287,0.000000
1.270000,-2.020335,0.377346,-1.490835,1.285811,0.719780,0.100744,1.566313,2.070197,0.997786,-0.588874,-2.518569,4.897207,-8.648139,-37.266297,3.565907,0.227301,-0.175906,0.000000,-0.146301,-0.030177,-0.000000
1.280000,-2.007398,0.384648,-1.489777,1.301445,0.740356,0.110967,1.559991,2.043147,1.046942,-0.674478,-2.893889,4.924149,-8.448219,-37.744023,1.760366,0.225637,-0.176173,0.000000,-0.187189,-0.021789,0.000000
1.290000,-1.994306,0.392153,-1.488615,1.317011,0.760643,0.121683,1.552824,2.012319,1.096269,-0.757839,-3.273449,4.932415,-8.234359,-38.104124,0.003978,0.223555,-0.176353,0.000000,-0.229812,-0.013139,0.000000
1.300000,-1.981058,0.399860,-1.487344,1.332501,0.780602,0.132892,1.544834,1.977678,1.145591,-0.839165,-3.655971,4.924228,-8.035769,-38.369517,-1.593156,0.221038,-0.176442,0.000000,-0.274030,-0.004235,0.000000
1.310000,-1.967656,0.407765,-1.485957,1.347908,0.800196,0.144594,1.536041,1.939199,1.194754,-0.918554,-4.040839,4.900552,-7.808194,-38.549741,-3.248566,0.218071,-0.176439,0.000000,-0.319801,0.004923,0.000000
1.320000,-1.954100,0.415864,-1.484452,1.363222,0.819386,0.156787,1.526463,1.896861,1.243602,-0.995329,-4.426966,4.859257,-7.474925,-38.554964,-5.220702,0.214638,-0.176341,0.000000,-0.367097,0.014310,-0.000000
1.330000,-1.940391,0.424153,-1.482822,1.378437,0.838134,0.169466,1.516134,1.850660,1.291939,-1.068053,-4.811939,4.796138,-7.043443,-38.358911,-7.447687,0.210726,-0.176146,0.000000,-0.415779,0.023856,-0.000000
1.340000,-1.926531,0.432627,-1.481062,1.393545,0.856399,0.182626,1.505102,1.800622,1.339524,-1.136198,-5.194144,4.710303,-6.616105,-38.073857,-9.577934,0.206320,-0.175853,0.000000,-0.465688,0.033519,0.000000
1.350000,-1.912520,0.441281,-1.479169,1.408539,0.874146,0.196257,1.493410,1.746777,1.386145,-1.200375,-5.573416,4.604579,-6.235819,-37.785198,-11.498316,0.201409,-0.175460,0.000000,-0.516718,0.043309,0.000000
1.360000,-1.898360,0.450110,-1.477137,1.423413,0.891335,0.210349,1.481094,1.689154,1.431616,-1.260914,-5.949848,4.480337,-5.831455,-37.400126,-13.438884,0.195982,-0.174968,0.000000,-0.568812,0.053231,-0.000000
1.370000,-1.884052,0.459108,-1.474962,1.438161,0.907929,0.224889,1.468192,1.627780,1.475752,-1.317004,-6.321418,4.335801,-5.297022,-36.676780,-15.651668,0.190029,-0.174375,0.000000,-0.621732,0.063219,-0.000000
1.380000,-1.869597,0.468269,-1.472640,1.452777,0.923891,0.239864,1.454754,1.562725,1.518332,-1.366855,-6.683384,4.167304,-4.651285,-35.617865,-18.058355,0.183545,-0.173680,0.000000,-0.674931,0.073130,-0.000000
1.390000,-1.854997,0.477586,-1.470165,1.467256,0.939184,0.255256,1.440855,1.494113,1.559098,-1.410029,-7.033776,3.974634,-4.037350,-34.541720,-20.309380,0.176528,-0.172887,0.000000,-0.728054,0.082895,-0.000000
1.400000,-1.840252,0.487052,-1.467534,1.481594,0.953773,0.271046,1.426554,1.422050,1.597825,-1.447602,-7.374218,3.761116,-3.493268,-33.579429,-22.335431,0.168982,-0.171996,0.000000,-0.781058,0.092546,0.000000
1.410000,-1.825365,0.496661,-1.464744,1.495787,0.967625,0.287212,1.411903,1.346628,1.634320,-1.479895,-7.705364,3.527925,-2.923970,-32.502863,-24.354364,0.160906,-0.171009,0.000000,-0.833823,0.102071,-0.000000
1.420000,-1.810336,0.506405,-1.461790,1.509832,0.980705,0.303732,1.396956,1.267943,1.668383,-1.506081,-8.024275,3.274029,-2.248966,-30.981623,-26.478068,0.152304,-0.169927,0.000000,-0.885830,0.111365,-0.000000
1.430000,-1.795168,0.516275,-1.458669,1.523726,0.992983,0.320580,1.381781,1.186143,1.699801,-1.524874,-8.324997,2.998364,-1.507200,-29.064255,-28.598862,0.143189,-0.168755,0.000000,-0.936157,0.120260,-0.000000
1.440000,-1.779862,0.526264,-1.455379,1.537467,1.004428,0.337728,1.366458,1.101443,1.728351,-1.536225,-8.605560,2.702051,-0.805612,-27.189369,-30.557786,0.133582,-0.167497,0.000000,-0.984271,0.128688,-0.000000
1.450000,-1.764419,0.536364,-1.451915,1.551055,1.015012,0.355147,1.351056,1.014031,1.753842,-1.540986,-8.868784,2.387208,-0.114146,-25.524152,-32.476225,0.123505,-0.166159,0.000000,-1.030182,0.136664,0.000000
1.460000,-1.748841,0.546565,-1.448276,1.564489,1.024709,0.372805,1.335639,0.924067,1.776095,-1.538508,-9.116044,2.052527,0.630027,-23.766879,-34.425128,0.112980,-0.164743,0.000000,-1.073786,0.144095,0.000000
1.470000,-1.733129,0.556858,-1.444459,1.577768,1.033494,0.390669,1.320286,0.831711,1.794892,-1.528386,-9.344122,1.698706,1.318548,-21.509268,-35.999968,0.102032,-0.163259,0.000000,-1.114372,0.150873,0.000000
1.480000,-1.717285,0.567235,-1.440462,1.590894,1.041343,0.408703,1.305071,0.737185,1.810069,-1.512137,-9.546229,1.332528,1.931831,-18.839435,-37.135400,0.090697,-0.161711,0.000000,-1.150715,0.157002,-0.000000
1.490000,-1.701311,0.577685,-1.436285,1.603869,1.048237,0.426870,1.290044,0.640786,1.821543,-1.489749,-9.720910,0.955998,2.615525,-16.307182,-38.370231,0.079023,-0.160106,0.000000,-1.182332,0.162405,-0.000000
1.500000,-1.685208,0.588199,-1.431925,1.616695,1.054159,0.445134,1.275276,0.542766,1.829189,-1.459826,-9.872373,0.565123,3.308101,-14.023133,-39.819335,0.067056,-0.158453,0.000000,-1.209511,0.166953,-0.000000
1.510000,-1.668977,0.598768,-1.427382,1.629375,1.059093,0.463454,1.260847,0.443339,1.832845,-1.423587,-10.001373,0.159611,3.911635,-11.626915,-41.094317,0.054840,-0.156760,0.000000,-1.232084,0.170766,0.000000
1.520000,-1.652620,0.609381,-1.422656,1.641912,1.063026,0.481791,1.246804,0.342739,1.832381,-1.381594,-10.104911,-0.256763,4.636291,-8.910484,-41.960326,0.042422,-0.155034,0.000000,-1.249427,0.173808,0.000000
1.530000,-1.636139,0.620029,-1.417746,1.654311,1.065947,0.500102,1.233215,0.241240,1.827710,-1.330861,-10.179583,-0.679595,5.519363,-6.007227,-42.527322,0.029859,-0.153282,0.000000,-1.260926,0.175608,-0.000000
1.540000,-1.619534,0.630700,-1.412654,1.666576,1.067850,0.518345,1.220187,0.139147,1.818789,-1.271206,-10.225055,-1.107310,6.254953,-3.195481,-43.068951,0.017211,-0.151521,0.000000,-1.266425,0.176101,0.000000
1.550000,-1.602807,0.641386,-1.407379,1.678715,1.068730,0.536477,1.207791,0.036739,1.805564,-1.205762,-10.243492,-1.540974,6.811736,-0.487533,-43.645785,0.004538,-0.149760,0.000000,-1.266130,0.175684,0.000000
1.560000,-1.585960,0.652075,-1.401924,1.690732,1.068585,0.554456,1.196072,-0.065723,1.787970,-1.134972,-10.234806,-1.980226,7.390506,2.279140,-44.063445,-0.008103,-0.148008,0.000000,-1.260016,0.174404,0.000000
1.570000,-1.568993,0.662757,-1.396290,1.702636,1.067416,0.572237,1.185092,-0.167957,1.765959,-1.057952,-10.197910,-2.422243,7.982504,5.083205,-44.134375,-0.020654,-0.146273,0.000000,-1.247993,0.172110,0.000000
1.580000,-1.551907,0.673423,-1.390479,1.714434,1.065226,0.589775,1.174913,-0.269681,1.739525,-0.975322,-10.133142,-2.862913,8.495202,7.845863,-43.892329,-0.033055,-0.144566,0.000000,-1.230222,0.168822,-0.000000
1.590000,-1.534704,0.684062,-1.384495,1.726134,1.062022,0.607027,1.165585,-0.370620,1.708701,-0.888048,-10.040992,-3.300090,8.951294,10.582106,-43.575691,-0.045251,-0.142896,0.000000,-1.206951,0.164646,0.000000
1.600000,-1.517385,0.694663,-1.378339,1.737746,1.057814,0.623949,1.157152,-0.470501,1.673523,-0.796296,-9.921500,-3.734427,9.467929,13.319029,-43.358270,-0.057188,-0.141270,0.000000,-1.178401,0.159646,-0.000000
1.610000,-1.499949,0.705218,-1.372016,1.749277,1.052612,0.640498,1.149659,-0.569050,1.634013,-0.698690,-9.774612,-4.167255,10.009808,16.019594,-43.064475,-0.068813,-0.139698,0.000000,-1.144806,0.153715,-0.000000
1.620000,-1.482399,0.715716,-1.365529,1.760739,1.046433,0.656630,1.143178,-0.665993,1.590178,-0.596100,-9.601108,-4.595716,10.254123,18.584094,-42.212061,-0.080079,-0.138189,0.000000,-1.106559,0.146953,-0.000000
1.630000,-1.464734,0.726147,-1.358883,1.772141,1.039292,0.672301,1.137737,-0.761072,1.542098,-0.493607,-9.402930,-5.011497,10.196685,20.994029,-40.837300,-0.090940,-0.136750,0.000000,-1.064301,0.139872,0.000000
1.640000,-1.446956,0.736502,-1.352083,1.783494,1.031211,0.687472,1.133306,-0.854051,1.489948,-0.392166,-9.181227,-5.412462,10.271087,23.356956,-39.593395,-0.101362,-0.135381,0.000000,-1.018552,0.132590,-0.000000
1.650000,-1.429065,0.746771,-1.345134,1.794807,1.022211,0.702100,1.129894,-0.944696,1.433849,-0.288185,-8.935791,-5.803364,10.514597,25.751742,-38.597350,-0.111310,-0.134085,0.000000,-0.969578,0.124804,0.000000
1.660000,-1.411060,0.756946,-1.338041,1.806092,1.012317,0.716149,1.127542,-1.032767,1.373881,-0.181874,-8.666193,-6.184409,10.630955,28.078965,-37.410670,-0.120753,-0.132869,0.000000,-0.917656,0.116588,0.000000
1.670000,-1.392943,0.767017,-1.330811,1.817358,1.001556,0.729578,1.126256,-1.118020,1.310161,-0.075566,-8.374211,-6.551578,10.599582,30.086616,-35.833292,-0.129663,-0.131736,0.000000,-0.863382,0.108191,0.000000
1.680000,-1.374713,0.776977,-1.323449,1.828617,0.989957,0.742352,1.126031,-1.200251,1.242849,0.030118,-8.064460,-6.901075,10.518513,31.773156,-34.016849,-0.138021,-0.130687,0.000000,-0.807659,0.099665,-0.000000
1.690000,-1.356370,0.786816,-1.315964,1.839879,0.977551,0.754435,1.126859,-1.279309,1.172139,0.134804,-7.738748,-7.231915,10.389462,33.455983,-32.213896,-0.145818,-0.129723,0.000000,-0.750992,0.091072,-0.000000
1.700000,-1.337915,0.796528,-1.308361,1.851154,0.964371,0.765795,1.128727,-1.355026,1.098211,0.237907,-7.395341,-7.545353,10.232051,35.247208,-30.460361,-0.153044,-0.128845,0.000000,-0.693425,0.082529,-0.000000
1.710000,-1.319347,0.806104,-1.300648,1.862453,0.950450,0.776399,1.131617,-1.427216,1.021232,0.339445,-7.033804,-7.841122,10.046409,36.910225,-28.603098,-0.159690,-0.128053,0.000000,-0.635149,0.074054,0.000000
1.720000,-1.300666,0.815537,-1.292833,1.873786,0.935826,0.786219,1.135516,-1.495703,0.941388,0.438835,-6.657136,-8.117415,9.735295,38.147137,-26.564807,-0.165751,-0.127345,0.000000,-0.576733,0.065705,0.000000
1.730000,-1.281872,0.824820,-1.284923,1.885163,0.920536,0.795227,1.140394,-1.560359,0.858884,0.534151,-6.270861,-8.372418,9.294170,39.006872,-24.409621,-0.171229,-0.126720,0.000000,-0.518979,0.057685,-0.000000
1.740000,-1.262963,0.833948,-1.276928,1.896594,0.904619,0.803397,1.146199,-1.621120,0.773940,0.624719,-5.876999,-8.605608,8.859208,39.867054,-22.252642,-0.176135,-0.126173,0.000000,-0.462229,0.050063,0.000000
1.750000,-1.243940,0.842913,-1.268855,1.908087,0.888114,0.810706,1.152888,-1.677899,0.686772,0.711335,-5.473520,-8.817471,8.455279,40.851050,-20.100345,-0.180479,-0.125702,0.000000,-0.406346,0.042763,0.000000
1.760000,-1.224801,0.851710,-1.260714,1.919652,0.871061,0.817132,1.160425,-1.730590,0.597591,0.793824,-5.059978,-9.007614,7.991374,41.690090,-17.894862,-0.184267,-0.125303,0.000000,-0.351362,0.035800,0.000000
1.770000,-1.205547,0.860334,-1.252513,1.931296,0.853502,0.822658,1.168765,-1.779099,0.506619,0.871163,-4.639719,-9.175368,7.430939,42.064454,-15.659745,-0.187511,-0.124973,0.000000,-0.297687,0.029268,0.000000
1.780000,-1.186175,0.868780,-1.244261,1.943027,0.835479,0.827265,1.177849,-1.823385,0.414083,0.942443,-4.218689,-9.320809,6.803185,42.047264,-13.435273,-0.190226,-0.124707,0.000000,-0.245943,0.023253,0.000000
1.790000,-1.166686,0.877044,-1.235968,1.954853,0.817035,0.830939,1.187613,-1.863472,0.320203,1.007226,-3.798773,-9.444074,6.155405,42.052265,-11.207049,-0.192435,-0.124499,0.000000,-0.196285,0.017787,0.000000
1.800000,-1.147078,0.885121,-1.227642,1.966779,0.798210,0.833669,1.197993,-1.899360,0.225202,1.065551,-3.377643,-9.544950,5.517091,42.153127,-8.942830,-0.194157,-0.124344,0.000000,-0.148441,0.012848,-0.000000
1.810000,-1.127351,0.893008,-1.219294,1.978813,0.779047,0.835443,1.208924,-1.931025,0.129304,1.117568,-2.955711,-9.622930,4.858921,42.069670,-6.674183,-0.195409,-0.124237,0.000000,-0.102413,0.008395,0.000000
1.820000,-1.107502,0.900702,-1.210933,1.990958,0.759589,0.836255,1.220345,-1.958474,0.032743,1.162729,-2.536250,-9.678434,4.101267,41.646204,-4.521248,-0.196210,-0.124172,0.000000,-0.058452,0.004473,0.000000
1.830000,-1.087531,0.908200,-1.202569,2.003220,0.739878,0.836098,1.232179,-1.981750,-0.064264,1.199593,-2.122787,-9.713355,3.249013,40.966856,-2.502110,-0.196582,-0.124145,0.000000,-0.016784,0.001223,-0.000000
1.840000,-1.067438,0.915499,-1.194211,2.015602,0.719954,0.834970,1.244336,-2.000930,-0.161524,1.227710,-1.716913,-9.728476,2.417199,40.229049,-0.474190,-0.196549,-0.124147,0.000000,0.022550,-0.001327,0.000000
1.850000,-1.047219,0.922599,-1.185870,2.028106,0.699859,0.832868,1.256733,-2.016088,-0.258834,1.247937,-1.318206,-9.722839,1.661839,39.522612,1.650128,-0.196135,-0.124172,0.000000,0.059677,-0.003299,-0.000000
1.860000,-1.026875,0.929496,-1.177554,2.040736,0.679633,0.829793,1.269295,-2.027294,-0.355981,1.260946,-0.926460,-9.695474,0.907553,38.717112,3.752233,-0.195359,-0.124214,0.000000,0.094705,-0.004789,-0.000000
1.870000,-1.006405,0.936191,-1.169274,2.053492,0.659313,0.825748,1.281952,-2.034618,-0.452743,1.266088,-0.543863,-9.647794,0.027364,37.572051,5.573795,-0.194244,-0.124270,0.000000,0.127558,-0.005738,0.000000
1.880000,-0.985806,0.942683,-1.161039,2.066375,0.638940,0.820738,1.294617,-2.038171,-0.548937,1.261494,-0.175019,-9.583998,-0.937092,36.128960,7.126359,-0.192811,-0.124331,0.000000,0.157991,-0.005945,0.000000
1.890000,-0.965077,0.948970,-1.152859,2.079385,0.618550,0.814769,1.307182,-2.038118,-0.644423,1.247347,0.178716,-9.505267,-1.811590,34.720765,8.740413,-0.191086,-0.124391,0.000000,0.186019,-0.005441,-0.000000
1.900000,-0.944218,0.955054,-1.144744,2.092519,0.598178,0.807850,1.319564,-2.034597,-0.739042,1.225262,0.519396,-9.409189,-2.684428,33.394450,10.511378,-0.189092,-0.124442,0.000000,0.211902,-0.004426,-0.000000
1.910000,-0.923227,0.960934,-1.136702,2.105776,0.577858,0.799988,1.331687,-2.027730,-0.832607,1.193658,0.846605,-9.295040,-3.655997,31.936797,12.200713,-0.186850,-0.124481,0.000000,0.235693,-0.002781,-0.000000
1.920000,-0.902102,0.966611,-1.128744,2.119153,0.557623,0.791197,1.343437,-2.017665,-0.924943,1.152142,1.158132,-9.165175,-4.425186,30.294925,13.570044,-0.184380,-0.124499,0.000000,0.257336,-0.000465,0.000000
1.930000,-0.880844,0.972086,-1.120878,2.132645,0.537505,0.781490,1.354730,-2.004567,-1.015911,1.105154,1.452503,-9.023639,-4.939120,28.558506,14.682081,-0.181704,-0.124491,0.000000,0.276878,0.002151,0.000000
1.940000,-0.859450,0.977361,-1.113114,2.146247,0.517532,0.770879,1.365540,-1.988615,-1.105416,1.053360,1.729302,-8.871534,-5.613151,26.798545,15.836661,-0.178843,-0.124455,0.000000,0.294392,0.005014,-0.000000
1.950000,-0.837919,0.982437,-1.105461,2.159955,0.497732,0.759381,1.375797,-1.969981,-1.193341,0.992891,1.988474,-8.706906,-6.497648,24.974732,17.098623,-0.175817,-0.124389,0.000000,0.309923,0.008438,-0.000000
1.960000,-0.816250,0.987316,-1.097926,2.173763,0.478132,0.747012,1.385398,-1.948845,-1.279554,0.923407,2.228797,-8.529561,-7.305125,23.060118,18.260155,-0.172646,-0.124284,0.000000,0.323447,0.012436,-0.000000
1.970000,-0.794443,0.991999,-1.090520,2.187663,0.458756,0.733790,1.394265,-1.925406,-1.363933,0.846789,2.449677,-8.341702,-7.990372,21.188518,19.161333,-0.169349,-0.124137,0.000000,0.335031,0.016858,0.000000
1.980000,-0.772497,0.996491,-1.083251,2.201648,0.439624,0.719734,1.402334,-1.899852,-1.446388,0.763599,2.652567,-8.146334,-8.658533,19.385149,19.869674,-0.165945,-0.123943,0.000000,0.344918,0.021680,0.000000
1.990000,-0.750411,1.000792,-1.076126,2.215710,0.420758,0.704862,1.409537,-1.872354,-1.526859,0.673618,2.837380,-7.944309,-9.341207,17.482681,20.585204,-0.162450,-0.123697,0.000000,0.353173,0.026926,0.000000
2.000000,-0.728183,1.004906,-1.069153,2.229839,0.402177,0.689196,1.415806,-1.843104,-1.605274,0.576775,3.002221,-7.734630,-9.973316,15.472359,21.306252,-0.158881,-0.123397,0.000000,0.359678,0.032587,-0.000000
2.010000,-0.705814,1.008835,-1.062342,2.244026,0.383896,0.672757,1.421073,-1.812310,-1.681552,0.474152,3.146827,-7.518184,-10.540384,13.481007,21.901839,-0.155256,-0.123038,0.000000,0.364482,0.038577,0.000000
2.020000,-0.683302,1.012584,-1.055698,2.258261,0.365931,0.655565,1.425289,-1.780168,-1.755638,0.365967,3.271841,-7.296594,-11.193699,11.520186,22.392222,-0.151591,-0.122617,0.000000,0.367709,0.044894,0.000000
2.030000,-0.660649,1.016154,-1.049230,2.272532,0.348293,0.637644,1.428392,-1.746873,-1.827484,0.250278,3.377230,-7.070340,-11.918329,9.560982,22.770478,-0.147901,-0.122130,0.000000,0.369404,0.051706,-0.000000
2.040000,-0.637852,1.019550,-1.042945,2.286829,0.330993,0.619016,1.430295,-1.712623,-1.897044,0.127601,3.463060,-6.841184,-12.508162,7.614314,23.014129,-0.144202,-0.121571,0.000000,0.369631,0.058986,-0.000000
2.050000,-0.614912,1.022774,-1.036850,2.301138,0.314041,0.599703,1.430944,-1.677612,-1.964307,0.000115,3.529517,-6.610057,-13.117293,5.652643,23.520101,-0.140508,-0.120938,0.000000,0.368452,0.066562,-0.000000
2.060000,-0.591829,1.025830,-1.030951,2.315447,0.297441,0.579730,1.430297,-1.642033,-2.029246,-0.134745,3.576113,-6.370782,-13.868869,3.682161,24.276579,-0.136832,-0.120227,0.000000,0.365782,0.074587,0.000000
2.070000,-0.568603,1.028723,-1.025255,2.329744,0.281200,0.559118,1.428249,-1.606089,-2.091723,-0.277263,3.603160,-6.124525,-14.265884,1.827772,24.126889,-0.133191,-0.119432,0.000000,0.361692,0.083099,-0.000000
2.080000,-0.545234,1.031454,-1.019769,2.344012,0.265319,0.537895,1.424752,-1.569970,-2.151736,-0.420063,3.612669,-5.888244,-14.280966,0.106659,23.126051,-0.129598,-0.118551,0.000000,0.356562,0.091663,-0.000000
2.090000,-0.521723,1.034029,-1.014498,2.358239,0.249801,0.516084,1.419848,-1.533836,-2.209488,-0.562882,3.605293,-5.662004,-14.601724,-1.639593,22.862534,-0.126059,-0.117584,0.000000,0.350441,0.100265,0.000000
2.100000,-0.498069,1.036450,-1.009447,2.372409,0.234643,0.493705,1.413494,-1.497864,-2.264976,-0.712097,3.579877,-5.430994,-15.048724,-3.464910,22.875240,-0.122588,-0.116529,0.000000,0.343079,0.109288,0.000000
2.110000,-0.474275,1.038722,-1.004623,2.386509,0.219843,0.470784,1.405606,-1.462239,-2.318108,-0.863857,3.535995,-5.204500,-15.178388,-5.248808,22.158980,-0.119197,-0.115382,0.000000,0.334554,0.118512,0.000000
2.120000,-0.450339,1.040847,-1.000032,2.400521,0.205398,0.447343,1.396217,-1.427144,-2.369066,-1.015665,3.474901,-4.987814,-15.689489,-6.850402,22.447376,-0.115896,-0.114142,0.000000,0.325017,0.127790,0.000000
2.130000,-0.426264,1.042830,-0.995677,2.414433,0.191300,0.423403,1.385293,-1.392741,-2.417864,-1.177646,3.398987,-4.755552,-16.762146,-8.296614,24.156169,-0.112695,-0.112809,0.000000,0.314415,0.137710,-0.000000
2.140000,-0.402051,1.044673,-0.991563,2.428227,0.177543,0.398986,1.372664,-1.359164,-2.464177,-1.350908,3.308968,-4.504691,-17.395307,-9.761182,24.828119,-0.109607,-0.111371,0.000000,0.302802,0.148342,0.000000
2.150000,-0.377700,1.046381,-0.987697,2.441886,0.164117,0.374119,1.358275,-1.326561,-2.507958,-1.525553,3.203763,-4.258990,-17.493326,-11.280868,24.286851,-0.106638,-0.109824,0.000000,0.290317,0.159119,-0.000000
2.160000,-0.353213,1.047956,-0.984081,2.455393,0.151012,0.348827,1.342153,-1.295089,-2.549357,-1.700774,3.083351,-4.018954,-17.734220,-12.730966,24.203418,-0.103799,-0.108170,0.000000,0.276953,0.169987,0.000000
2.170000,-0.328592,1.049401,-0.980720,2.468729,0.138215,0.323132,1.324259,-1.264894,-2.588337,-1.880237,2.949144,-3.774921,-18.094226,-14.015366,24.387641,-0.101098,-0.106406,0.000000,0.262731,0.181165,-0.000000
2.180000,-0.303838,1.050720,-0.977618,2.481878,0.125714,0.297060,1.304548,-1.236106,-2.624855,-2.062659,2.803044,-3.531201,-18.292908,-15.174887,24.165146,-0.098544,-0.104528,0.000000,0.247833,0.192600,-0.000000
2.190000,-0.278954,1.051915,-0.974779,2.494820,0.113493,0.270635,1.283006,-1.208833,-2.658961,-2.246095,2.645646,-3.291618,-18.422502,-16.323428,23.958892,-0.096141,-0.102535,0.000000,0.232326,0.204179,0.000000
2.200000,-0.253942,1.052990,-0.972206,2.507538,0.101537,0.243881,1.259626,-1.183193,-2.690688,-2.431109,2.476575,-3.052023,-18.773666,-17.432365,24.424664,-0.093896,-0.100426,0.000000,0.216134,0.215922,-0.000000
2.210000,-0.228803,1.053946,-0.969901,2.520013,0.089829,0.216821,1.234384,-1.159302,-2.720001,-2.621568,2.296999,-2.803125,-19.246146,-18.425128,25.203520,-0.091817,-0.098197,0.000000,0.199268,0.228075,-0.000000
2.220000,-0.203542,1.054786,-0.967869,2.532226,0.078351,0.189481,1.207195,-1.137253,-2.746750,-2.816032,2.108072,-2.547952,-19.099262,-19.385465,24.720442,-0.089910,-0.095845,0.000000,0.181835,0.240564,0.000000
2.230000,-0.178159,1.055513,-0.966112,2.544157,0.067084,0.161886,1.178063,-1.117140,-2.770960,-3.003554,1.909290,-2.308716,-18.352990,-20.340372,23.129025,-0.088180,-0.093366,0.000000,0.163942,0.252711,-0.000000
2.240000,-0.152658,1.056128,-0.964632,2.555787,0.056008,0.134062,1.147124,-1.099067,-2.792925,-3.183092,1.701265,-2.085372,-18.011562,-21.162642,22.553892,-0.086631,-0.090770,0.000000,0.145608,0.264434,0.000000
2.250000,-0.127043,1.056633,-0.963431,2.567099,0.045103,0.106028,1.114401,-1.083115,-2.812668,-3.363785,1.486037,-1.857638,-18.062510,-21.835230,22.594464,-0.085267,-0.088057,0.000000,0.126831,0.276311,0.000000
2.260000,-0.101316,1.057030,-0.962511,2.578075,0.034346,0.077808,1.079848,-1.069346,-2.830077,-3.544342,1.264560,-1.633483,-17.838947,-22.440994,21.882301,-0.084094,-0.085224,0.000000,0.107725,0.288311,0.000000
2.270000,-0.075482,1.057320,-0.961874,2.588696,0.023716,0.049426,1.043515,-1.057824,-2.845338,-3.720564,1.037217,-1.419992,-17.600101,-22.980650,22.044232,-0.083113,-0.082270,0.000000,0.088347,0.300156,0.000000
2.280000,-0.049543,1.057504,-0.961523,2.598945,0.013190,0.020902,1.005437,-1.048602,-2.858477,-3.896344,0.804947,-1.192598,-17.616929,-23.418158,23.620942,-0.082327,-0.079199,0.000000,0.068591,0.312001,0.000000
2.290000,-0.023503,1.057584,-0.961456,2.608805,0.002744,-0.007743,0.965588,-1.041725,-2.869190,-4.072902,0.568854,-0.947574,-17.474625,-23.754404,24.271071,-0.081740,-0.076009,0.000000,0.048505,0.323948,0.000000
2.300000,0.002634,1.057559,-0.961677,2.618257,-0.007645,-0.036482,0.923979,-1.037225,-2.877429,-4.245836,0.329859,-0.707177,-16.942646,-24.014333,23.807479,-0.081356,-0.072698,0.000000,0.028286,0.335807,-0.000000
2.310000,0.028862,1.057431,-0.962186,2.627285,-0.018001,-0.065292,0.880671,-1.035128,-2.883333,-4.411755,0.088567,-0.471424,-16.328600,-24.189477,23.830878,-0.081175,-0.069270,0.000000,0.007963,0.347317,0.000000
2.320000,0.055179,1.057199,-0.962983,2.635871,-0.028347,-0.094149,0.835744,-1.035454,-2.886857,-4.572408,-0.153930,-0.230559,-16.119612,-24.207562,24.166901,-0.081197,-0.065728,0.000000,-0.012464,0.358573,-0.000000
2.330000,0.081580,1.056864,-0.964069,2.643999,-0.038710,-0.123029,0.789223,-1.038206,-2.887944,-4.734148,-0.395584,0.011914,-16.194395,-24.034872,24.212994,-0.081424,-0.062074,0.000000,-0.032835,0.370105,-0.000000
2.340000,0.108059,1.056425,-0.965444,2.651655,-0.049111,-0.151908,0.741061,-1.043365,-2.886619,-4.896296,-0.634628,0.253701,-15.917176,-23.772448,24.357303,-0.081854,-0.058301,0.000000,-0.053016,0.381883,-0.000000
2.350000,0.134613,1.055882,-0.967107,2.658821,-0.059577,-0.180761,0.691297,-1.050899,-2.882870,-5.052491,-0.871033,0.499060,-15.465945,-23.652834,24.927051,-0.082484,-0.054410,0.000000,-0.073051,0.393403,-0.000000
2.360000,0.161236,1.055234,-0.969059,2.665481,-0.070129,-0.209565,0.640011,-1.060786,-2.876638,-5.205615,-1.107684,0.752242,-15.244741,-23.586833,25.616076,-0.083315,-0.050405,0.000000,-0.093213,0.404888,-0.000000
2.370000,0.187923,1.054479,-0.971299,2.671621,-0.080793,-0.238294,0.587184,-1.073053,-2.867825,-5.357386,-1.342770,1.011382,-14.627870,-22.921195,25.785045,-0.084349,-0.046283,0.000000,-0.113373,0.416502,0.000000
2.380000,0.214668,1.053618,-0.973825,2.677225,-0.091591,-0.266922,0.532863,-1.087641,-2.856410,-5.498173,-1.566108,1.267943,-13.431550,-21.702422,25.596705,-0.085583,-0.042044,0.000000,-0.132693,0.427534,-0.000000
2.390000,0.241467,1.052647,-0.976637,2.682278,-0.102545,-0.295422,0.477221,-1.104375,-2.842467,-5.626017,-1.776818,1.523316,-12.555378,-20.816784,25.884512,-0.087003,-0.037700,0.000000,-0.151130,0.437829,0.000000
2.400000,0.268314,1.051567,-0.979733,2.686769,-0.113678,-0.323771,0.420343,-1.123178,-2.825944,-5.749280,-1.982444,1.785633,-12.225651,-20.071605,26.147166,-0.088606,-0.033253,0.000000,-0.169349,0.448031,-0.000000
2.410000,0.295202,1.050374,-0.983112,2.690685,-0.125009,-0.351941,0.362235,-1.144024,-2.806754,-5.870530,-2.178250,2.046259,-11.820575,-18.897697,25.874417,-0.090391,-0.028703,0.000000,-0.186938,0.458382,-0.000000
2.420000,0.322127,1.049067,-0.986772,2.694014,-0.136558,-0.379906,0.302932,-1.166743,-2.785018,-5.985692,-2.360398,2.303121,-10.955254,-18.058280,26.667605,-0.092345,-0.024047,0.000000,-0.203590,0.468567,0.000000
2.430000,0.349083,1.047643,-0.990711,2.696744,-0.148344,-0.407642,0.242522,-1.191232,-2.760691,-6.089635,-2.539416,2.579611,-9.884097,-17.811678,28.725572,-0.094463,-0.019290,0.000000,-0.220316,0.478152,0.000000
2.440000,0.376062,1.046100,-0.994925,2.698864,-0.160383,-0.435120,0.181140,-1.217531,-2.733426,-6.183374,-2.716631,2.877633,-9.082681,-17.055745,29.799548,-0.096752,-0.014440,0.000000,-0.237272,0.487253,0.000000
2.450000,0.403060,1.044435,-0.999413,2.700366,-0.172695,-0.462310,0.118854,-1.245564,-2.703139,-6.271289,-2.880531,3.175602,-8.258485,-15.474994,29.919693,-0.099209,-0.009498,0.000000,-0.253411,0.496268,-0.000000
2.460000,0.430070,1.042646,-1.004171,2.701241,-0.185294,-0.489183,0.055714,-1.275142,-2.669914,-6.348543,-3.026131,3.476027,-7.135796,-13.837842,30.577815,-0.101821,-0.004464,0.000000,-0.268366,0.504819,0.000000
2.470000,0.457085,1.040729,-1.009197,2.701481,-0.198197,-0.515708,-0.008117,-1.306087,-2.633618,-6.414005,-3.157288,3.787158,-6.610449,-12.714715,31.065313,-0.104577,0.000652,0.000000,-0.282524,0.512827,-0.000000
2.480000,0.484099,1.038682,-1.014485,2.701079,-0.211416,-0.541855,-0.072566,-1.338288,-2.594171,-6.480752,-3.280426,4.097333,-6.862685,-11.678325,30.715067,-0.107473,0.005850,0.000000,-0.296314,0.521355,-0.000000
2.490000,0.511106,1.036501,-1.020034,2.700029,-0.224963,-0.567592,-0.137732,-1.371695,-2.551672,-6.551258,-3.390854,4.401460,-6.633036,-10.044533,30.637685,-0.110505,0.011141,0.000000,-0.309326,0.530610,0.000000
2.500000,0.538100,1.034183,-1.025837,2.698324,-0.238850,-0.592889,-0.203591,-1.406105,-2.506142,-6.613413,-3.481316,4.710087,-5.470303,-9.034717,31.735861,-0.113660,0.016529,0.000000,-0.321071,0.539640,0.000000
2.510000,0.565073,1.031724,-1.031891,2.695958,-0.253085,-0.617715,-0.270000,-1.441322,-2.457470,-6.660664,-3.571549,5.036177,-4.256762,-8.990290,33.164323,-0.116927,0.022006,0.000000,-0.333267,0.547954,-0.000000
2.520000,0.592019,1.029121,-1.038191,2.692924,-0.267676,-0.642038,-0.336805,-1.477536,-2.405418,-6.698548,-3.661122,5.373373,-3.966468,-6.324572,32.761853,-0.120327,0.027565,0.000000,-0.345863,0.556021,0.000000
2.530000,0.618931,1.026370,-1.044732,2.689221,-0.282636,-0.665823,-0.403971,-1.514544,-2.350002,-6.739994,-3.698040,5.691414,-4.248955,-0.992938,31.011973,-0.123846,0.033209,0.000000,-0.354366,0.564837,0.000000
2.540000,0.645803,1.023468,-1.051508,2.684845,-0.297967,-0.689038,-0.471605,-1.551496,-2.291590,-6.783527,-3.680981,5.993613,-3.840816,2.064702,30.756240,-0.127415,0.038951,0.000000,-0.358616,0.574277,0.000000
2.550000,0.672628,1.020411,-1.058513,2.679789,-0.313666,-0.711655,-0.539642,-1.588164,-2.230130,-6.816810,-3.656746,6.306539,-3.142290,3.809845,30.311757,-0.131019,0.044790,0.000000,-0.362658,0.583425,-0.000000
2.560000,0.699399,1.017195,-1.065741,2.674052,-0.329731,-0.733641,-0.607941,-1.624631,-2.165459,-6.846373,-3.604784,6.599848,-2.936127,7.436665,27.938875,-0.134669,0.050722,0.000000,-0.364492,0.592721,0.000000
2.570000,0.726109,1.013816,-1.073186,2.667631,-0.346158,-0.754964,-0.676569,-1.660259,-2.098133,-6.875533,-3.508013,6.865316,-1.852833,8.919165,29.054296,-0.138309,0.056755,0.000000,-0.362532,0.602366,-0.000000
2.580000,0.752752,1.010272,-1.080840,2.660521,-0.362936,-0.775603,-0.745451,-1.694792,-2.028153,-6.883430,-3.426401,7.180934,0.497687,6.992877,34.263539,-0.141920,0.062887,0.000000,-0.362580,0.611006,0.000000
2.590000,0.779320,1.006558,-1.088698,2.652722,-0.380054,-0.795527,-0.814238,-1.728787,-1.954515,-6.865579,-3.368155,7.550587,2.168152,7.447253,35.984128,-0.145562,0.069101,0.000000,-0.365506,0.618401,-0.000000
2.600000,0.805806,1.002671,-1.096751,2.644236,-0.397512,-0.814694,-0.882763,-1.762155,-1.877141,-6.840067,-3.277455,7.900616,2.571091,10.739668,34.875104,-0.149231,0.075390,0.000000,-0.365819,0.625683,0.000000
2.610000,0.832204,0.998607,-1.104992,2.635066,-0.415297,-0.833070,-0.951039,-1.794336,-1.796502,-6.814157,-3.153362,8.248089,3.071477,12.924150,35.928471,-0.152879,0.081758,0.000000,-0.363554,0.633548,0.000000
2.620000,0.858508,0.994365,-1.113412,2.625215,-0.433398,-0.850624,-1.019046,-1.825222,-1.712179,-6.778637,-3.018972,8.619186,4.823084,14.446894,35.169788,-0.156503,0.088213,0.000000,-0.360982,0.641455,-0.000000
2.630000,0.884709,0.989939,-1.122004,2.614685,-0.451802,-0.867313,-1.086612,-1.854716,-1.624119,-6.717695,-2.864424,8.951485,7.322111,16.897099,30.556074,-0.160099,0.094748,0.000000,-0.356450,0.647598,-0.000000
2.640000,0.910801,0.985329,-1.130759,2.603483,-0.470493,-0.883106,-1.153400,-1.882510,-1.533150,-6.632195,-2.681030,9.230307,9.101557,19.282911,27.975753,-0.163632,0.101334,0.000000,-0.348897,0.651775,-0.000000
2.650000,0.936778,0.980530,-1.139666,2.591617,-0.489452,-0.897976,-1.219256,-1.908337,-1.439512,-6.535664,-2.478766,9.511000,10.502954,20.093657,28.937269,-0.167077,0.107962,0.000000,-0.339830,0.655540,0.000000
2.660000,0.962634,0.975540,-1.148718,2.579098,-0.508659,-0.911896,-1.284113,-1.932086,-1.342930,-6.422136,-2.279157,9.809052,12.444518,20.170898,29.305367,-0.170429,0.114632,0.000000,-0.331321,0.658549,0.000000
2.670000,0.988360,0.970356,-1.157904,2.565935,-0.528094,-0.924835,-1.347698,-1.953920,-1.243331,-6.286774,-2.075348,10.097107,13.747893,23.131241,26.722407,-0.173704,0.121328,0.000000,-0.322404,0.660098,-0.000000
2.680000,1.013952,0.964978,-1.167215,2.552144,-0.547738,-0.936763,-1.409849,-1.973593,-1.140988,-6.147178,-1.816533,10.343501,14.034853,28.652728,22.771469,-0.176877,0.128037,0.000000,-0.308049,0.661319,-0.000000
2.690000,1.039403,0.959402,-1.176639,2.537738,-0.567566,-0.947655,-1.470642,-1.990250,-1.036461,-6.006077,-1.502293,10.552537,14.981464,31.851608,20.299863,-0.179864,0.134765,0.000000,-0.288030,0.662410,0.000000
2.700000,1.064707,0.953626,-1.186168,2.522731,-0.587543,-0.957492,-1.529970,-2.003639,-0.929937,-5.847549,-1.179500,10.749498,16.749417,33.388740,17.932537,-0.182637,0.141504,0.000000,-0.266768,0.662186,-0.000000
2.710000,1.089858,0.947651,-1.195789,2.507139,-0.607638,-0.966254,-1.587593,-2.013840,-0.821471,-5.671088,-0.834518,10.911187,18.180299,36.431370,13.956312,-0.185198,0.148234,0.000000,-0.242602,0.660218,-0.000000
2.720000,1.114850,0.941474,-1.205493,2.490979,-0.627820,-0.973921,-1.643392,-2.020329,-0.711713,-5.483943,-0.450873,11.028624,19.287323,37.994917,12.496042,-0.187487,0.154939,0.000000,-0.213690,0.656890,-0.000000
2.730000,1.139677,0.935094,-1.215268,2.474271,-0.648045,-0.980488,-1.697272,-2.022858,-0.600899,-5.285342,-0.074620,11.161108,20.478475,36.858616,14.204990,-0.189470,0.161607,0.000000,-0.185073,0.652885,0.000000
2.740000,1.164335,0.928513,-1.225103,2.457034,-0.668277,-0.985939,-1.749099,-2.021821,-0.488491,-5.074373,0.286299,11.312724,21.620018,37.357445,13.313086,-0.191186,0.168235,0.000000,-0.157596,0.648221,-0.000000
2.750000,1.188818,0.921729,-1.234987,2.439289,-0.688481,-0.990258,-1.798759,-2.017132,-0.374644,-4.852942,0.672529,11.427370,22.604952,39.779588,10.085392,-0.192620,0.174812,0.000000,-0.126462,0.642154,-0.000000
2.760000,1.213121,0.914743,-1.244908,2.421059,-0.708619,-0.993432,-1.846158,-2.008371,-0.259944,-4.622274,1.081891,11.514432,23.537453,41.145382,8.379259,-0.193713,0.181320,0.000000,-0.091836,0.634806,-0.000000
2.770000,1.237239,0.907557,-1.254855,2.402366,-0.728649,-0.995457,-1.891205,-1.995494,-0.144356,-4.382193,1.495437,11.594955,24.525205,42.000488,5.876938,-0.194453,0.187750,0.000000,-0.055758,0.626449,-0.000000
2.780000,1.261168,0.900170,-1.264817,2.383234,-0.748529,-0.996319,-1.933802,-1.978462,-0.028044,-4.131770,1.921901,11.631970,25.529242,43.395871,1.132660,-0.194824,0.194089,0.000000,-0.016613,0.616233,-0.000000
2.790000,1.284904,0.892586,-1.274782,2.363690,-0.768218,-0.996017,-1.973840,-1.957056,0.088284,-3.871608,2.363354,11.617608,26.404388,44.299401,-2.322958,-0.194781,0.200311,0.000000,0.026121,0.603861,0.000000
2.800000,1.308442,0.884806,-1.284737,2.343758,-0.787670,-0.994554,-2.011234,-1.931195,0.204308,-3.603682,2.807889,11.585511,27.149113,44.553980,-4.008154,-0.194297,0.206398,0.000000,0.070807,0.590018,-0.000000
2.810000,1.331779,0.876833,-1.294673,2.323465,-0.806842,-0.991931,-2.045914,-1.900898,0.319994,-3.328625,3.254434,11.537445,27.853298,44.883305,-6.358838,-0.193360,0.212336,0.000000,0.117400,0.574716,0.000000
2.820000,1.354911,0.868669,-1.304576,2.302839,-0.825688,-0.988154,-2.077806,-1.866106,0.435057,-3.046616,3.705555,11.458334,28.489886,45.074572,-9.419928,-0.191944,0.218108,0.000000,0.166546,0.557532,-0.000000
2.830000,1.377836,0.860319,-1.314436,2.281909,-0.844164,-0.983230,-2.106846,-1.826787,0.549161,-2.758828,4.155925,11.349047,29.014913,44.840696,-12.322803,-0.190024,0.223693,0.000000,0.217802,0.538453,0.000000
