time,x,y,z,vx,vy,vz,ax,ay,az,jx,jy,jz,sx,sy,sz,roll,pitch,yaw,p,q,r
0.000000,-3.023921,-0.726484,-1.378315,-0.019701,-0.005728,0.012130,0.669933,-0.173699,-0.230595,-6.954397,2.071979,6.587684,133.331599,-32.696350,-140.945043,-0.017260,-0.066624,0.000000,0.193775,0.645879,0.000000
0.010000,-3.024085,-0.726550,-1.378204,-0.013328,-0.007367,0.010131,0.606834,-0.154558,-0.171405,-5.687245,1.761970,5.285605,120.248036,-29.345009,-119.839049,-0.015455,-0.060722,0.000000,0.167472,0.535546,-0.000000
0.020000,-3.024189,-0.726631,-1.378111,-0.007524,-0.008829,0.008662,0.555766,-0.138352,-0.124216,-4.546507,1.484303,4.183721,108.043348,-26.226613,-100.887699,-0.013904,-0.055886,0.000000,0.142960,0.432704,-0.000000
0.030000,-3.024237,-0.726726,-1.378029,-0.002176,-0.010143,0.007613,0.515511,-0.124771,-0.087133,-3.523558,1.236691,3.261041,96.684650,-23.332230,-83.979326,-0.012589,-0.052040,0.000000,0.120396,0.337912,-0.000000
0.040000,-3.024234,-0.726834,-1.377957,0.002818,-0.011332,0.006891,0.484930,-0.113526,-0.058464,-2.610104,1.016941,2.497696,86.139100,-20.652921,-69.002306,-0.011490,-0.049100,0.000000,0.099862,0.251428,0.000000
0.050000,-3.024182,-0.726952,-1.377891,0.007551,-0.012420,0.006420,0.462970,-0.104347,-0.036711,-1.798178,0.822945,1.874934,76.373484,-18.179894,-55.844469,-0.010585,-0.046983,0.000000,0.081372,0.173272,0.000000
0.060000,-3.024083,-0.727082,-1.377828,0.012103,-0.013425,0.006138,0.448654,-0.096988,-0.020556,-1.080144,0.652685,1.375115,67.355257,-15.904070,-44.394686,-0.009855,-0.045607,0.000000,0.064893,0.103272,0.000000
0.070000,-3.023940,-0.727221,-1.377768,0.016547,-0.014365,0.005994,0.441079,-0.091220,-0.008854,-0.448692,0.504235,0.981720,59.051374,-13.816586,-34.541054,-0.009281,-0.044891,0.000000,0.050353,0.041121,0.000000
0.080000,-3.023753,-0.727369,-1.377708,0.020944,-0.015254,0.005950,0.439415,-0.086836,-0.000618,0.103155,0.375756,0.679346,51.428857,-11.908529,-26.171875,-0.008842,-0.044760,0.000000,0.037653,-0.013588,0.000000
0.090000,-3.023521,-0.727526,-1.377648,0.025352,-0.016106,0.005973,0.442899,-0.083645,0.004989,0.582046,0.265496,0.453707,44.454565,-10.171006,-19.175432,-0.008522,-0.045140,0.000000,0.026677,-0.061325,-0.000000
0.100000,-3.023245,-0.727691,-1.377588,0.029817,-0.016930,0.006043,0.450834,-0.081471,0.008668,0.994310,0.171798,0.291634,38.096908,-8.594948,-13.440082,-0.008303,-0.045965,0.000000,0.017300,-0.102594,-0.000000
0.110000,-3.022924,-0.727864,-1.377527,0.034381,-0.017738,0.006142,0.462583,-0.080159,0.010993,1.345930,0.093089,0.181074,32.321446,-7.171604,-8.854076,-0.008171,-0.047172,0.000000,0.009391,-0.137914,-0.000000
0.120000,-3.022557,-0.728046,-1.377465,0.039080,-0.018536,0.006260,0.477569,-0.079564,0.012424,1.642572,0.027887,0.111093,27.095829,-5.891992,-5.305730,-0.008111,-0.048705,0.000000,0.002817,-0.167799,0.000000
0.130000,-3.022142,-0.728235,-1.377402,0.043942,-0.019331,0.006389,0.495269,-0.079561,0.013317,1.889570,-0.025200,0.071873,22.387201,-4.747191,-2.683351,-0.008111,-0.050512,0.000000,-0.002549,-0.192750,-0.000000
0.140000,-3.021678,-0.728432,-1.377338,0.048993,-0.020129,0.006525,0.515212,-0.080032,0.013935,2.091930,-0.067477,0.054712,18.162814,-3.728292,-0.875261,-0.008158,-0.052545,0.000000,-0.006832,-0.213245,0.000000
0.150000,-3.021162,-0.728637,-1.377272,0.054252,-0.020933,0.006667,0.536974,-0.080878,0.014460,2.254332,-0.100156,0.052026,14.390144,-2.826395,0.230197,-0.008244,-0.054763,0.000000,-0.010149,-0.229732,-0.000000
0.160000,-3.020592,-0.728851,-1.377204,0.059737,-0.021747,0.006815,0.560179,-0.082007,0.015002,2.381103,-0.124363,0.057348,11.033740,-2.032432,0.744946,-0.008359,-0.057128,0.000000,-0.012608,-0.242627,0.000000
0.170000,-3.019966,-0.729072,-1.377135,0.065459,-0.022574,0.006968,0.584491,-0.083341,0.015615,2.476283,-0.141135,0.065328,8.063809,-1.337658,0.780440,-0.008494,-0.059605,0.000000,-0.014312,-0.252317,0.000000
0.180000,-3.019282,-0.729302,-1.377065,0.071429,-0.023415,0.007127,0.609612,-0.084808,0.016303,2.543554,-0.151417,0.071732,5.446338,-0.733100,0.448496,-0.008643,-0.062165,0.000000,-0.015354,-0.259155,0.000000
0.190000,-3.018537,-0.729541,-1.376993,0.077653,-0.024270,0.007294,0.635280,-0.086350,0.017034,2.586275,-0.156068,0.073445,3.148462,-0.209863,-0.139109,-0.008799,-0.064780,0.000000,-0.015818,-0.263463,-0.000000
0.200000,-3.017728,-0.729788,-1.376919,0.084136,-0.025142,0.007468,0.661266,-0.087913,0.017750,2.607475,-0.155854,0.068465,1.136928,0.241135,-0.871201,-0.008957,-0.067427,0.000000,-0.015781,-0.265530,-0.000000
0.210000,-3.016853,-0.730044,-1.376843,0.090879,-0.026028,0.007650,0.687307,-0.089433,0.018866,2.596016,-0.146766,0.167364,-0.894339,0.721339,0.567690,-0.009111,-0.070082,0.000000,-0.014938,-0.265022,-0.000000
0.220000,-3.015910,-0.730308,-1.376766,0.097882,-0.026930,0.007844,0.713325,-0.090902,0.019513,2.613304,-0.149396,-0.104951,1.969232,-0.436720,-35.549198,-0.009260,-0.072730,0.000000,-0.014940,-0.264725,-0.000000
0.230000,-3.014895,-0.730582,-1.376687,0.105146,-0.027847,0.008031,0.739404,-0.092369,0.017719,2.585301,-0.138465,-0.134542,-7.611991,2.640068,30.242006,-0.009406,-0.075366,0.000000,-0.013784,-0.261474,0.000000
0.240000,-3.013806,-0.730865,-1.376605,0.112668,-0.028777,0.008206,0.764857,-0.093618,0.017876,2.510649,-0.113343,0.105799,-4.845682,1.548805,-1.840302,-0.009531,-0.077951,0.000000,-0.011451,-0.255667,-0.000000
0.250000,-3.012641,-0.731158,-1.376522,0.120441,-0.029718,0.008388,0.789767,-0.094692,0.018324,2.468230,-0.100611,-0.004283,-6.047322,1.815855,-0.567096,-0.009639,-0.080483,0.000000,-0.010042,-0.250398,0.000000
0.260000,-3.011396,-0.731460,-1.376438,0.128461,-0.030670,0.008571,0.814097,-0.095596,0.018280,2.395293,-0.079679,-0.003680,-7.095471,2.026415,-0.422686,-0.009729,-0.082951,0.000000,-0.007909,-0.242902,0.000000
0.270000,-3.010071,-0.731771,-1.376351,0.136721,-0.031630,0.008754,0.837756,-0.096307,0.018165,2.339856,-0.063314,-0.022963,-5.346837,1.567873,-2.358226,-0.009799,-0.085349,0.000000,-0.006220,-0.237013,0.000000
0.280000,-3.008661,-0.732092,-1.376263,0.145214,-0.032596,0.008934,0.860802,-0.096842,0.017876,2.259861,-0.041567,-0.028256,-10.674911,2.786079,1.332344,-0.009851,-0.087682,0.000000,-0.004002,-0.228751,-0.000000
0.290000,-3.007165,-0.732423,-1.376172,0.153934,-0.033566,0.009112,0.882858,-0.097117,0.017660,2.154617,-0.014323,-0.018115,-8.964577,2.326889,-0.391870,-0.009877,-0.089915,0.000000,-0.001244,-0.218081,0.000000
0.300000,-3.005582,-0.732764,-1.376080,0.162868,-0.034537,0.009287,0.903984,-0.097152,0.017431,2.069108,0.007677,-0.026885,-9.507011,2.397818,-0.279848,-0.009879,-0.092052,0.000000,0.000998,-0.209247,0.000000
0.310000,-3.003907,-0.733114,-1.375987,0.172010,-0.035508,0.009460,0.924173,-0.096951,0.017147,1.967432,0.032666,-0.029967,-9.961038,2.437101,-0.253873,-0.009856,-0.094094,0.000000,0.003536,-0.198836,-0.000000
0.320000,-3.002141,-0.733474,-1.375891,0.181349,-0.036475,0.009630,0.943389,-0.096510,0.016840,1.878001,0.054870,-0.031211,-8.737334,2.153708,-0.078302,-0.009809,-0.096035,0.000000,0.005787,-0.189690,-0.000000
0.330000,-3.000280,-0.733844,-1.375794,0.190875,-0.037437,0.009797,0.961684,-0.095846,0.016520,1.775607,0.078894,-0.033282,-11.755005,2.651975,-0.339821,-0.009740,-0.097883,0.000000,0.008221,-0.179234,-0.000000
0.340000,-2.998323,-0.734223,-1.375695,0.200578,-0.038391,0.009960,0.978850,-0.094925,0.016170,1.659840,0.104719,-0.036378,-10.553689,2.354016,-0.197917,-0.009644,-0.099615,0.000000,0.010836,-0.167427,0.000000
0.350000,-2.996268,-0.734611,-1.375595,0.210448,-0.039335,0.010120,0.994940,-0.093766,0.015798,1.557664,0.127229,-0.037972,-10.702763,2.299397,-0.204870,-0.009524,-0.101237,0.000000,0.013111,-0.157018,0.000000
0.360000,-2.994113,-0.735009,-1.375493,0.220474,-0.040266,0.010276,1.009968,-0.092378,0.015406,1.447421,0.150263,-0.040653,-10.801911,2.224780,-0.226618,-0.009381,-0.102752,0.000000,0.015439,-0.145793,0.000000
0.370000,-2.991858,-0.735417,-1.375389,0.230644,-0.041182,0.010428,1.023930,-0.090770,0.014993,1.346719,0.170934,-0.041556,-9.849637,1.983929,-0.058161,-0.009216,-0.104158,0.000000,0.017525,-0.135560,0.000000
0.380000,-2.989500,-0.735833,-1.375284,0.240949,-0.042081,0.010576,1.036878,-0.088959,0.014569,1.239677,0.191511,-0.044002,-11.567900,2.131277,-0.435384,-0.009031,-0.105460,0.000000,0.019601,-0.124679,0.000000
0.390000,-2.987038,-0.736258,-1.375178,0.251378,-0.042960,0.010720,1.048697,-0.086939,0.014106,1.126001,0.211948,-0.048207,-10.636602,1.875969,-0.302892,-0.008824,-0.106649,0.000000,0.021662,-0.113119,-0.000000
0.400000,-2.984472,-0.736692,-1.375070,0.261919,-0.043819,0.010858,1.059441,-0.084730,0.013611,1.022619,0.229648,-0.050962,-10.557477,1.739725,-0.352925,-0.008599,-0.107727,0.000000,0.023445,-0.102621,-0.000000
0.410000,-2.981800,-0.737134,-1.374961,0.272563,-0.044654,0.010992,1.069133,-0.082348,0.013082,0.915857,0.246547,-0.055033,-10.450867,1.591823,-0.408336,-0.008356,-0.108699,0.000000,0.025146,-0.091775,-0.000000
0.420000,-2.979020,-0.737585,-1.374850,0.283299,-0.045465,0.011120,1.077790,-0.079808,0.012513,0.816817,0.261023,-0.058650,-9.681643,1.346741,-0.368116,-0.008097,-0.109566,0.000000,0.026602,-0.081720,-0.000000
0.430000,-2.976133,-0.738044,-1.374738,0.294116,-0.046250,0.011242,1.085459,-0.077131,0.011904,0.715399,0.274393,-0.063509,-10.608206,1.327139,-0.606143,-0.007824,-0.110333,0.000000,0.027945,-0.071417,0.000000
0.440000,-2.973138,-0.738510,-1.374625,0.305004,-0.047007,0.011358,1.092087,-0.074324,0.011238,0.611384,0.286630,-0.069726,-9.859292,1.073620,-0.584970,-0.007538,-0.110993,0.000000,0.029175,-0.060843,-0.000000
0.450000,-2.970033,-0.738984,-1.374511,0.315954,-0.047736,0.011466,1.097720,-0.071408,0.010512,0.515454,0.296225,-0.075665,-9.654497,0.889693,-0.656048,-0.007241,-0.111553,0.000000,0.030137,-0.051093,-0.000000
0.460000,-2.966819,-0.739465,-1.374396,0.326955,-0.048435,0.011568,1.102390,-0.068404,0.009721,0.418847,0.304347,-0.082614,-9.436882,0.700541,-0.726770,-0.006936,-0.112015,0.000000,0.030949,-0.041267,-0.000000
0.470000,-2.963494,-0.739952,-1.374280,0.337999,-0.049104,0.011661,1.106123,-0.065330,0.008858,0.328856,0.309915,-0.090136,-8.779620,0.444442,-0.784880,-0.006623,-0.112381,0.000000,0.031504,-0.032105,-0.000000
0.480000,-2.960058,-0.740447,-1.374163,0.349075,-0.049742,0.011744,1.108965,-0.062210,0.007915,0.238665,0.313896,-0.098464,-9.263455,0.352274,-0.880956,-0.006306,-0.112657,0.000000,0.031899,-0.022918,0.000000
0.490000,-2.956512,-0.740947,-1.374045,0.360175,-0.050348,0.011819,1.110893,-0.059057,0.006886,0.148085,0.316300,-0.107608,-8.628330,0.095641,-0.940489,-0.005986,-0.112839,0.000000,0.032134,-0.013686,0.000000
0.500000,-2.952855,-0.741453,-1.373926,0.371290,-0.050923,0.011882,1.111953,-0.055894,0.005761,0.064239,0.316078,-0.117334,-8.361604,-0.108082,-1.011285,-0.005665,-0.112933,0.000000,0.032104,-0.005129,0.000000
0.510000,-2.949086,-0.741965,-1.373807,0.382411,-0.051466,0.011933,1.112179,-0.052741,0.004537,-0.018683,0.314141,-0.127675,-8.088093,-0.311528,-1.077180,-0.005344,-0.112942,0.000000,0.031900,0.003339,0.000000
0.520000,-2.945207,-0.742483,-1.373688,0.393531,-0.051978,0.011972,1.111599,-0.049620,0.003204,-0.096273,0.309551,-0.139058,-7.558577,-0.575391,-1.178933,-0.005028,-0.112868,0.000000,0.031428,0.011279,-0.000000
0.530000,-2.941216,-0.743005,-1.373568,0.404641,-0.052459,0.011997,1.110257,-0.046555,0.001755,-0.172560,0.303289,-0.150821,-7.702130,-0.675705,-1.172274,-0.004716,-0.112716,0.000000,0.030787,0.019089,0.000000
0.540000,-2.937114,-0.743532,-1.373448,0.415733,-0.052909,0.012007,1.108151,-0.043560,0.000187,-0.247680,0.295410,-0.162895,-7.190400,-0.931389,-1.262137,-0.004412,-0.112487,0.000000,0.029983,0.026782,0.000000
0.550000,-2.932901,-0.744063,-1.373328,0.426801,-0.053330,0.012000,1.105323,-0.040656,-0.001507,-0.317473,0.284937,-0.175876,-6.898087,-1.131545,-1.312818,-0.004118,-0.112183,0.000000,0.028916,0.033946,0.000000
0.560000,-2.928578,-0.744598,-1.373208,0.437838,-0.053723,0.011976,1.101807,-0.037866,-0.003331,-0.385385,0.272805,-0.189036,-6.604302,-1.327243,-1.355081,-0.003835,-0.111808,0.000000,0.027682,0.040918,0.000000
0.570000,-2.924145,-0.745137,-1.373088,0.448835,-0.054088,0.011933,1.097632,-0.035209,-0.005292,-0.448824,0.258100,-0.203296,-6.160639,-1.581170,-1.459966,-0.003565,-0.111366,0.000000,0.026187,0.047449,-0.000000
0.580000,-2.919601,-0.745680,-1.372969,0.459788,-0.054427,0.011870,1.092836,-0.032709,-0.007396,-0.510219,0.241869,-0.217464,-6.120902,-1.663297,-1.371429,-0.003311,-0.110860,0.000000,0.024539,0.053770,0.000000
0.590000,-2.914949,-0.746226,-1.372851,0.470690,-0.054743,0.011785,1.087433,-0.030377,-0.009640,-0.569680,0.224202,-0.231422,-5.693538,-1.901583,-1.454989,-0.003075,-0.110291,0.000000,0.022745,0.059890,-0.000000
0.600000,-2.910188,-0.746775,-1.372734,0.481535,-0.055036,0.011677,1.081459,-0.028234,-0.012028,-0.624756,0.204130,-0.246232,-5.399683,-2.079510,-1.469640,-0.002857,-0.109664,0.000000,0.020709,0.065573,0.000000
0.610000,-2.905319,-0.747326,-1.372618,0.492317,-0.055308,0.011544,1.074945,-0.026298,-0.014563,-0.677608,0.182634,-0.260737,-5.108867,-2.250261,-1.473833,-0.002661,-0.108980,0.000000,0.018529,0.071024,0.000000
0.620000,-2.900342,-0.747881,-1.372503,0.503032,-0.055562,0.011385,1.067921,-0.024589,-0.017247,-0.726350,0.158850,-0.276088,-4.701683,-2.474326,-1.552010,-0.002487,-0.108245,0.000000,0.016119,0.076066,0.000000
0.630000,-2.895258,-0.748438,-1.372390,0.513674,-0.055801,0.011198,1.060424,-0.023125,-0.020083,-0.772948,0.133825,-0.290847,-4.620382,-2.528475,-1.396950,-0.002339,-0.107460,0.000000,0.013584,0.080881,-0.000000
0.640000,-2.890069,-0.748997,-1.372279,0.524239,-0.056026,0.010983,1.052469,-0.021916,-0.023061,-0.817518,0.107675,-0.304865,-4.231832,-2.731667,-1.448438,-0.002216,-0.106628,0.000000,0.010936,0.085479,0.000000
0.650000,-2.884774,-0.749558,-1.372170,0.534722,-0.056240,0.010737,1.044088,-0.020979,-0.026182,-0.858116,0.079485,-0.319413,-3.951588,-2.873635,-1.416815,-0.002121,-0.105752,0.000000,0.008084,0.089677,0.000000
0.660000,-2.879374,-0.750122,-1.372064,0.545119,-0.056446,0.010459,1.035314,-0.020330,-0.029446,-0.896428,0.050245,-0.333170,-3.675406,-3.005666,-1.373966,-0.002055,-0.104835,0.000000,0.005128,0.093632,-0.000000
0.670000,-2.873872,-0.750687,-1.371961,0.555427,-0.056647,0.010147,1.026172,-0.019981,-0.032848,-0.931306,0.019100,-0.347239,-3.335863,-3.190182,-1.398308,-0.002019,-0.103880,0.000000,0.001981,0.097238,0.000000
0.680000,-2.868266,-0.751254,-1.371862,0.565642,-0.056847,0.009801,1.016695,-0.019950,-0.036387,-0.963891,-0.012863,-0.360265,-3.182823,-3.199791,-1.204114,-0.002015,-0.102891,0.000000,-0.001247,0.100598,-0.000000
0.690000,-2.862559,-0.751824,-1.371765,0.575760,-0.057047,0.009419,1.006901,-0.020240,-0.040049,-0.994272,-0.045507,-0.372095,-2.858908,-3.359567,-1.200578,-0.002044,-0.101869,0.000000,-0.004540,0.103718,-0.000000
0.700000,-2.856751,-0.752395,-1.371673,0.585779,-0.057253,0.009000,0.996821,-0.020866,-0.043829,-1.021376,-0.079750,-0.383900,-2.598578,-3.455490,-1.118703,-0.002107,-0.100818,0.000000,-0.007993,0.106504,0.000000
0.710000,-2.850844,-0.752969,-1.371586,0.595696,-0.057466,0.008542,0.986481,-0.021837,-0.047722,-1.046219,-0.114585,-0.394450,-2.343793,-3.540310,-1.025545,-0.002204,-0.099740,0.000000,-0.011502,0.109044,0.000000
0.720000,-2.844838,-0.753545,-1.371503,0.605508,-0.057691,0.008045,0.975907,-0.023163,-0.051718,-1.068019,-0.150805,-0.404709,-2.043145,-3.672373,-0.989823,-0.002337,-0.098638,0.000000,-0.015147,0.111271,0.000000
0.730000,-2.838734,-0.754123,-1.371425,0.615213,-0.057930,0.007508,0.965128,-0.024854,-0.055811,-1.087647,-0.187376,-0.413480,-1.884060,-3.639180,-0.761712,-0.002507,-0.097515,0.000000,-0.018825,0.113260,-0.000000
0.740000,-2.832534,-0.754703,-1.371353,0.624810,-0.058189,0.006929,0.954161,-0.026911,-0.059982,-1.105186,-0.224155,-0.420618,-1.598027,-3.744853,-0.699412,-0.002714,-0.096374,0.000000,-0.022520,0.115019,0.000000
0.750000,-2.826238,-0.755287,-1.371286,0.634296,-0.058470,0.006308,0.943034,-0.029341,-0.064222,-1.119850,-0.261983,-0.427138,-1.361681,-3.789370,-0.567877,-0.002958,-0.095216,0.000000,-0.026317,0.116480,0.000000
0.760000,-2.819848,-0.755873,-1.371227,0.643670,-0.058777,0.005644,0.931771,-0.032151,-0.068519,-1.132414,-0.299914,-0.431965,-1.130631,-3.822389,-0.425957,-0.003240,-0.094045,0.000000,-0.030120,0.117711,-0.000000
0.770000,-2.813365,-0.756462,-1.371174,0.652931,-0.059114,0.004937,0.920395,-0.035343,-0.072859,-1.142281,-0.338648,-0.435902,-0.864308,-3.896221,-0.330905,-0.003561,-0.092863,0.000000,-0.034000,0.118660,-0.000000
0.780000,-2.806790,-0.757055,-1.371128,0.662077,-0.059485,0.004187,0.908932,-0.038923,-0.077230,-1.150151,-0.377245,-0.437945,-0.710964,-3.820567,-0.075242,-0.003920,-0.091672,0.000000,-0.037863,0.119389,-0.000000
0.790000,-2.800124,-0.757652,-1.371090,0.671109,-0.059894,0.003393,0.897398,-0.042886,-0.081611,-1.156097,-0.415563,-0.437965,-0.458079,-3.868068,0.043177,-0.004318,-0.090475,0.000000,-0.041695,0.119905,-0.000000
0.800000,-2.793368,-0.758253,-1.371060,0.680025,-0.060344,0.002555,0.885818,-0.047236,-0.085986,-1.159503,-0.454344,-0.436806,-0.244939,-3.859733,0.219355,-0.004754,-0.089275,0.000000,-0.045569,0.120156,0.000000
0.810000,-2.786524,-0.758859,-1.371039,0.688825,-0.060840,0.001673,0.874214,-0.051972,-0.090339,-1.160992,-0.492734,-0.433571,-0.036737,-3.840151,0.404350,-0.005229,-0.088073,0.000000,-0.049402,0.120196,-0.000000
0.820000,-2.779592,-0.759470,-1.371027,0.697510,-0.061385,0.000748,0.862607,-0.057092,-0.094653,-1.160097,-0.531331,-0.428920,0.198723,-3.854542,0.550914,-0.005742,-0.086872,0.000000,-0.053252,0.119986,0.000000
0.830000,-2.772574,-0.760087,-1.371024,0.706078,-0.061983,-0.000220,0.851018,-0.062596,-0.098910,-1.157373,-0.569310,-0.422029,0.344827,-3.738971,0.829250,-0.006294,-0.085674,0.000000,-0.057038,0.119575,-0.000000
0.840000,-2.765471,-0.760710,-1.371032,0.714530,-0.062638,-0.001230,0.839465,-0.068475,-0.103086,-1.152883,-0.606541,-0.412795,0.569023,-3.728687,0.994476,-0.006883,-0.084481,0.000000,-0.060748,0.118969,0.000000
0.850000,-2.758284,-0.761340,-1.371049,0.722867,-0.063354,-0.002281,0.827968,-0.074727,-0.107161,-1.146145,-0.643655,-0.401914,0.761545,-3.669514,1.206716,-0.007509,-0.083295,0.000000,-0.064444,0.118129,0.000000
0.860000,-2.751014,-0.761977,-1.371077,0.731090,-0.064134,-0.003373,0.816548,-0.081345,-0.111116,-1.137641,-0.679906,-0.388649,0.950446,-3.599555,1.425916,-0.008171,-0.082119,0.000000,-0.068054,0.117096,0.000000
0.870000,-2.743662,-0.762623,-1.371117,0.739198,-0.064982,-0.004503,0.805223,-0.088324,-0.114928,-1.127037,-0.715795,-0.373565,1.158232,-3.557476,1.611706,-0.008870,-0.080954,0.000000,-0.071629,0.115843,-0.000000
0.880000,-2.736230,-0.763277,-1.371167,0.747195,-0.065902,-0.005671,0.794013,-0.095658,-0.118579,-1.114729,-0.750622,-0.355979,1.302647,-3.405882,1.906770,-0.009604,-0.079803,0.000000,-0.075098,0.114405,0.000000
0.890000,-2.728719,-0.763941,-1.371230,0.755079,-0.066896,-0.006874,0.782934,-0.103333,-0.122039,-1.100760,-0.784271,-0.335819,1.502314,-3.341856,2.105728,-0.010371,-0.078666,0.000000,-0.078453,0.112788,-0.000000
0.900000,-2.721129,-0.764616,-1.371305,0.762854,-0.067969,-0.008111,0.772004,-0.111341,-0.125289,-1.084796,-0.817264,-0.313679,1.679148,-3.236201,2.342812,-0.011172,-0.077547,0.000000,-0.081745,0.110963,-0.000000
0.910000,-2.713462,-0.765301,-1.371392,0.770520,-0.069124,-0.009379,0.761243,-0.119673,-0.128304,-1.067138,-0.848977,-0.288961,1.854392,-3.121656,2.583689,-0.012006,-0.076448,0.000000,-0.084914,0.108956,-0.000000
0.920000,-2.705719,-0.765998,-1.371493,0.778079,-0.070364,-0.010676,0.750668,-0.128318,-0.131061,-1.047696,-0.879823,-0.262159,2.031561,-3.030066,2.794146,-0.012871,-0.075369,0.000000,-0.088002,0.106764,0.000000
0.930000,-2.697901,-0.766708,-1.371606,0.785534,-0.071691,-0.011999,0.740295,-0.137265,-0.133538,-1.026558,-0.909215,-0.232711,2.195640,-2.846608,3.096333,-0.013765,-0.074313,0.000000,-0.090953,0.104392,-0.000000
0.940000,-2.690009,-0.767432,-1.371733,0.792886,-0.073110,-0.013346,0.730142,-0.146497,-0.135706,-1.003747,-0.937056,-0.200575,2.368378,-2.736638,3.313761,-0.014689,-0.073281,0.000000,-0.093758,0.101843,0.000000
0.950000,-2.682044,-0.768171,-1.371873,0.800137,-0.074622,-0.014712,0.720226,-0.156003,-0.137543,-0.979199,-0.963785,-0.166287,2.537187,-2.591947,3.561247,-0.015640,-0.072276,0.000000,-0.096461,0.099115,-0.000000
0.960000,-2.674006,-0.768925,-1.372027,0.807291,-0.076231,-0.016096,0.710564,-0.165767,-0.139023,-0.952948,-0.988885,-0.129363,2.705167,-2.440209,3.809393,-0.016618,-0.071299,0.000000,-0.099013,0.096208,0.000000
0.970000,-2.665898,-0.769696,-1.372195,0.814350,-0.077938,-0.017492,0.701172,-0.175776,-0.140123,-0.925170,-1.012690,-0.090232,2.857730,-2.306919,4.030418,-0.017620,-0.070352,0.000000,-0.101449,0.093143,-0.000000
0.980000,-2.657720,-0.770484,-1.372377,0.821316,-0.079747,-0.018897,0.692066,-0.186015,-0.140819,-0.895638,-1.034734,-0.048469,3.048787,-2.100546,4.322408,-0.018646,-0.069437,0.000000,-0.103724,0.089895,-0.000000
0.990000,-2.649472,-0.771291,-1.372573,0.828192,-0.081659,-0.020307,0.683265,-0.196465,-0.141083,-0.864348,-1.054942,-0.004069,3.201800,-1.953198,4.543208,-0.019694,-0.068555,0.000000,-0.105832,0.086463,0.000000
1.000000,-2.641156,-0.772118,-1.372783,0.834982,-0.083677,-0.021717,0.674784,-0.207109,-0.140893,-0.831545,-1.073671,0.042503,3.366751,-1.778801,4.784862,-0.020762,-0.067708,0.000000,-0.107809,0.082876,0.000000
1.010000,-2.632773,-0.772965,-1.373007,0.841689,-0.085802,-0.023123,0.666640,-0.217932,-0.140225,-0.797127,-1.090521,0.091622,3.529902,-1.599535,5.023983,-0.021850,-0.066897,0.000000,-0.109617,0.079120,0.000000
1.020000,-2.624323,-0.773834,-1.373246,0.848316,-0.088036,-0.024520,0.658848,-0.228914,-0.139054,-0.760827,-1.105732,0.142837,3.717437,-1.433244,5.232232,-0.022954,-0.066126,0.000000,-0.111282,0.075172,0.000000
1.030000,-2.615807,-0.774726,-1.373498,0.854867,-0.090381,-0.025902,0.651428,-0.240040,-0.137360,-0.723042,-1.118986,0.196543,3.839341,-1.216508,5.508407,-0.024075,-0.065394,0.000000,-0.112773,0.071067,0.000000
1.040000,-2.607226,-0.775642,-1.373763,0.861346,-0.092838,-0.027265,0.644392,-0.251287,-0.135115,-0.683783,-1.130232,0.252706,4.025231,-1.041290,5.709110,-0.025209,-0.064704,0.000000,-0.114086,0.066807,-0.000000
1.050000,-2.598580,-0.776583,-1.374043,0.867756,-0.095407,-0.028603,0.637759,-0.262639,-0.132299,-0.642643,-1.139725,0.310823,4.190360,-0.847927,5.927226,-0.026356,-0.064058,0.000000,-0.115248,0.062354,0.000000
1.060000,-2.589871,-0.777551,-1.374335,0.874102,-0.098091,-0.029909,0.631546,-0.274075,-0.128891,-0.599692,-1.147183,0.371165,4.361691,-0.651812,6.137578,-0.027514,-0.063458,0.000000,-0.116232,0.057710,-0.000000
1.070000,-2.581098,-0.778546,-1.374641,0.880389,-0.100889,-0.031178,0.625767,-0.285576,-0.124869,-0.555758,-1.152833,0.433526,4.462503,-0.469707,6.335572,-0.028680,-0.062904,0.000000,-0.117061,0.052960,-0.000000
1.080000,-2.572263,-0.779569,-1.374959,0.886619,-0.103802,-0.032404,0.620438,-0.297124,-0.120214,-0.509656,-1.156399,0.497896,4.759443,-0.243012,6.536872,-0.029854,-0.062399,0.000000,-0.117708,0.047982,-0.000000
1.090000,-2.563366,-0.780622,-1.375289,0.892799,-0.106831,-0.033580,0.615582,-0.308697,-0.114905,-0.461318,-1.157858,0.564185,4.870691,-0.056888,6.717086,-0.031034,-0.061945,0.000000,-0.118171,0.042770,-0.000000
1.100000,-2.554407,-0.781706,-1.375630,0.898932,-0.109976,-0.034700,0.611214,-0.320276,-0.108924,-0.411918,-1.157464,0.632224,5.047092,0.143795,6.891091,-0.032217,-0.061543,0.000000,-0.118477,0.037439,-0.000000
1.110000,-2.545387,-0.782822,-1.375983,0.905025,-0.113237,-0.035757,0.607352,-0.331840,-0.102255,-0.360282,-1.155012,0.701902,5.228309,0.344107,7.052716,-0.033403,-0.061196,0.000000,-0.118605,0.031871,0.000000
1.120000,-2.536307,-0.783971,-1.376345,0.911081,-0.116613,-0.036743,0.604011,-0.343369,-0.094880,-0.307825,-1.150607,0.773333,5.313744,0.539144,7.221601,-0.034589,-0.060906,0.000000,-0.118565,0.026204,-0.000000
1.130000,-2.527166,-0.785155,-1.376717,0.917107,-0.120104,-0.037652,0.601204,-0.354845,-0.086784,-0.252946,-1.144182,0.846085,5.663835,0.745723,7.326303,-0.035773,-0.060673,0.000000,-0.118351,0.020277,0.000000
1.140000,-2.517965,-0.786374,-1.377098,0.923107,-0.123710,-0.038476,0.598960,-0.366246,-0.077955,-0.195565,-1.135747,0.920015,5.761714,0.938507,7.467469,-0.036955,-0.060501,0.000000,-0.117962,0.014081,0.000000
1.150000,-2.508704,-0.787629,-1.377486,0.929088,-0.127429,-0.039208,0.597294,-0.377554,-0.068379,-0.137279,-1.125399,0.995300,5.946444,1.133263,7.577573,-0.038132,-0.060391,0.000000,-0.117409,0.007771,0.000000
1.160000,-2.499383,-0.788922,-1.377882,0.935055,-0.131260,-0.039841,0.596222,-0.388748,-0.058046,-0.076806,-1.113156,1.071466,6.130373,1.324186,7.671681,-0.039303,-0.060346,0.000000,-0.116691,0.001218,0.000000
1.170000,-2.490003,-0.790255,-1.378283,0.941014,-0.135203,-0.040367,0.595763,-0.399810,-0.046945,-0.014834,-1.098839,1.148855,6.281186,1.529481,7.785429,-0.040465,-0.060368,0.000000,-0.115791,-0.005515,-0.000000
1.180000,-2.480563,-0.791627,-1.378689,0.946972,-0.139256,-0.040777,0.595933,-0.410719,-0.035067,0.049179,-1.082769,1.226740,6.521999,1.683671,7.788341,-0.041618,-0.060457,0.000000,-0.114738,-0.012481,-0.000000
1.190000,-2.471063,-0.793040,-1.379098,0.952935,-0.143417,-0.041065,0.596754,-0.421459,-0.022410,0.115255,-1.064996,1.304934,6.675555,1.879476,7.865802,-0.042760,-0.060618,0.000000,-0.113535,-0.019686,-0.000000
1.200000,-2.461504,-0.794496,-1.379510,0.958910,-0.147685,-0.041223,0.598243,-0.432012,-0.008966,0.182835,-1.045272,1.383843,6.857575,2.055328,7.894958,-0.043888,-0.060852,0.000000,-0.112158,-0.027081,-0.000000
1.210000,-2.451885,-0.795994,-1.379922,0.964902,-0.152057,-0.041242,0.600418,-0.442360,0.005267,0.252592,-1.023998,1.462664,7.043818,2.223678,7.903435,-0.045002,-0.061161,0.000000,-0.110642,-0.034732,0.000000
1.220000,-2.442206,-0.797537,-1.380334,0.970920,-0.156531,-0.041115,0.603297,-0.452485,0.020290,0.323270,-1.000594,1.542193,7.137976,2.432554,7.963174,-0.046100,-0.061548,0.000000,-0.108930,-0.042523,0.000000
1.230000,-2.432466,-0.799125,-1.380744,0.976971,-0.161105,-0.040834,0.606892,-0.462368,0.036108,0.396322,-0.975863,1.621107,7.473533,2.511938,7.815386,-0.047180,-0.062014,0.000000,-0.107096,-0.050596,0.000000
1.240000,-2.422666,-0.800759,-1.381150,0.983061,-0.165778,-0.040390,0.611232,-0.471998,0.052709,0.471789,-0.949896,1.699167,7.572286,2.704205,7.829763,-0.048242,-0.062562,0.000000,-0.105146,-0.058961,0.000000
1.250000,-2.412805,-0.802441,-1.381551,0.989198,-0.170545,-0.039777,0.616330,-0.481359,0.070093,0.548161,-0.922002,1.777329,7.747792,2.849696,7.762876,-0.049283,-0.063195,0.000000,-0.103012,-0.067474,-0.000000
1.260000,-2.402882,-0.804171,-1.381945,0.995390,-0.175404,-0.038986,0.622203,-0.490435,0.088251,0.626797,-0.893083,1.854278,7.922423,2.984364,7.672874,-0.050302,-0.063914,0.000000,-0.100778,-0.076272,0.000000
1.270000,-2.392897,-0.805949,-1.382330,1.001645,-0.180352,-0.038009,0.628867,-0.499212,0.107179,0.706074,-0.861864,1.931172,7.986813,3.208389,7.654793,-0.051297,-0.064722,0.000000,-0.098316,-0.085199,0.000000
1.280000,-2.382849,-0.807778,-1.382705,1.007970,-0.185387,-0.036840,0.636333,-0.507671,0.126869,0.787665,-0.829985,2.006303,8.332045,3.164675,7.366393,-0.052268,-0.065621,0.000000,-0.095782,-0.094423,0.000000
1.290000,-2.372737,-0.809657,-1.383066,1.014374,-0.190505,-0.035469,0.644628,-0.515810,0.147298,0.871585,-0.797585,2.079398,8.395613,3.364597,7.297577,-0.053213,-0.066614,0.000000,-0.093187,-0.103947,0.000000
1.300000,-2.362561,-0.811588,-1.383413,1.020865,-0.195702,-0.033891,0.653765,-0.523615,0.168455,0.956026,-0.763142,2.151774,8.546007,3.472388,7.126188,-0.054131,-0.067703,0.000000,-0.090379,-0.113600,0.000000
1.310000,-2.352320,-0.813572,-1.383743,1.027452,-0.200976,-0.032098,0.663757,-0.531073,0.190325,1.042583,-0.728403,2.221855,8.692345,3.566203,6.932077,-0.055020,-0.068891,0.000000,-0.087526,-0.123541,-0.000000
1.320000,-2.342012,-0.815608,-1.384054,1.034143,-0.206322,-0.030083,0.674616,-0.538172,0.212889,1.129185,-0.690993,2.290767,8.695773,3.825406,6.802601,-0.055880,-0.070178,0.000000,-0.084385,-0.133568,0.000000
1.330000,-2.331637,-0.817698,-1.384344,1.040947,-0.211738,-0.027838,0.686348,-0.544894,0.236131,1.217918,-0.653789,2.356907,9.051128,3.611559,6.420497,-0.056708,-0.071567,0.000000,-0.081241,-0.143889,-0.000000
1.340000,-2.321193,-0.819843,-1.384610,1.047873,-0.217219,-0.025358,0.698982,-0.551250,0.260017,1.308767,-0.616976,2.420004,9.046566,3.840300,6.240331,-0.057505,-0.073062,0.000000,-0.078110,-0.154506,0.000000
1.350000,-2.310679,-0.822043,-1.384851,1.054930,-0.222762,-0.022636,0.712521,-0.557224,0.284525,1.399397,-0.577766,2.481270,9.147307,3.910960,5.964152,-0.058269,-0.074663,0.000000,-0.074705,-0.165189,0.000000
1.360000,-2.300094,-0.824299,-1.385062,1.062127,-0.228362,-0.019665,0.726977,-0.562808,0.309632,1.491843,-0.538932,2.539474,9.240277,3.969880,5.670408,-0.058999,-0.076372,0.000000,-0.071305,-0.176144,-0.000000
1.370000,-2.289436,-0.826610,-1.385243,1.069473,-0.234016,-0.016441,0.742353,-0.567991,0.335305,1.583236,-0.497325,2.594585,9.131715,4.239565,5.351145,-0.059694,-0.078191,0.000000,-0.067577,-0.187073,0.000000
1.380000,-2.278704,-0.828979,-1.385390,1.076977,-0.239721,-0.012957,0.758648,-0.572758,0.361513,1.676439,-0.456490,2.646484,9.508786,3.923694,5.025443,-0.060351,-0.080121,0.000000,-0.063886,-0.198277,0.000000
1.390000,-2.267896,-0.831405,-1.385501,1.084649,-0.245470,-0.009209,0.775888,-0.577125,0.388223,1.771399,-0.416604,2.694972,9.382698,4.165569,4.666058,-0.060972,-0.082165,0.000000,-0.060249,-0.209751,0.000000
1.400000,-2.257010,-0.833889,-1.385574,1.092498,-0.251262,-0.005191,0.794069,-0.581079,0.415400,1.864849,-0.374135,2.739763,9.400210,4.216068,4.291199,-0.061555,-0.084324,0.000000,-0.056289,-0.221150,-0.000000
1.410000,-2.246045,-0.836430,-1.385604,1.100533,-0.257090,-0.000900,0.813183,-0.584612,0.443006,1.957805,-0.332563,2.780844,9.368391,4.256612,3.898448,-0.062098,-0.086597,0.000000,-0.052370,-0.232579,-0.000000
1.420000,-2.234999,-0.839030,-1.385591,1.108765,-0.262952,0.003670,0.833239,-0.587716,0.471001,2.053805,-0.287541,2.817452,9.651577,4.594878,3.442141,-0.062600,-0.088986,0.000000,-0.048020,-0.244405,-0.000000
1.430000,-2.223869,-0.841689,-1.385530,1.117201,-0.268843,0.008521,0.854249,-0.590369,0.499342,2.147058,-0.243873,2.850092,8.989259,4.134579,3.083315,-0.063059,-0.091493,0.000000,-0.043751,-0.256018,-0.000000
1.440000,-2.212654,-0.844407,-1.385419,1.125853,-0.274758,0.013658,0.876168,-0.592600,0.527990,2.237064,-0.201727,2.878596,9.185255,4.450790,2.591249,-0.063476,-0.094115,0.000000,-0.039582,-0.267358,-0.000000
1.450000,-2.201351,-0.847185,-1.385256,1.134728,-0.280694,0.019082,0.899000,-0.594389,0.556897,2.329166,-0.156147,2.902043,9.053440,4.512056,2.117579,-0.063849,-0.096853,0.000000,-0.034969,-0.278980,0.000000
1.460000,-2.189959,-0.850021,-1.385037,1.143836,-0.286645,0.024797,0.922726,-0.595719,0.586015,2.415237,-0.109409,2.920851,8.831729,4.617034,1.622962,-0.064175,-0.099704,0.000000,-0.030159,-0.290014,-0.000000
1.470000,-2.178474,-0.852918,-1.384759,1.153185,-0.292607,0.030803,0.947352,-0.596592,0.615295,2.511934,-0.065796,2.934247,9.848272,4.321058,1.071716,-0.064453,-0.102670,0.000000,-0.025595,-0.302230,-0.000000
1.480000,-2.166894,-0.855874,-1.384420,1.162786,-0.298575,0.037103,0.972926,-0.597021,0.644683,2.598363,-0.018467,2.942616,7.413356,5.153283,0.599252,-0.064685,-0.105757,0.000000,-0.020555,-0.313385,0.000000
1.490000,-2.155217,-0.858889,-1.384016,1.172646,-0.304545,0.043697,0.999276,-0.596946,0.674130,2.673397,0.032991,2.945776,8.252271,4.924847,0.010009,-0.064862,-0.108946,0.000000,-0.014989,-0.323337,0.000000
1.500000,-2.143440,-0.861964,-1.383545,1.182774,-0.310512,0.050585,1.026436,-0.596373,0.703579,2.757735,0.081903,2.942914,7.952655,5.074613,-0.567334,-0.064986,-0.112242,0.000000,-0.009596,-0.334297,0.000000
1.510000,-2.131561,-0.865099,-1.383003,1.193178,-0.316471,0.057768,1.054422,-0.595291,0.732966,2.839566,0.134833,2.933450,7.753614,5.252560,-1.183453,-0.065052,-0.115645,0.000000,-0.003666,-0.344975,0.000000
1.520000,-2.119576,-0.868294,-1.382388,1.203865,-0.322416,0.065244,1.083167,-0.593691,0.762239,2.906712,0.184597,2.920516,6.311442,4.955459,-1.548047,-0.065060,-0.119150,0.000000,0.001987,-0.354070,-0.000000
1.530000,-2.107482,-0.871548,-1.381697,1.214843,-0.328343,0.073012,1.112579,-0.591581,0.791348,2.979146,0.239297,2.899453,8.192956,5.994507,-2.672258,-0.065010,-0.122744,0.000000,0.008296,-0.363676,-0.000000
1.540000,-2.095278,-0.874861,-1.380927,1.226119,-0.334246,0.081070,1.142775,-0.588885,0.820198,3.057615,0.299405,2.869864,6.854145,5.773340,-3.106142,-0.064892,-0.126441,0.000000,0.015324,-0.373859,0.000000
1.550000,-2.082959,-0.878232,-1.380075,1.237701,-0.340119,0.089415,1.173672,-0.585606,0.848734,3.121644,0.356971,2.836059,6.591709,5.996266,-3.800689,-0.064705,-0.130230,0.000000,0.022150,-0.382423,-0.000000
1.560000,-2.070523,-0.881663,-1.379138,1.249595,-0.345956,0.098044,1.205216,-0.581729,0.876889,3.186713,0.418889,2.793669,6.286394,6.230204,-4.522071,-0.064446,-0.134106,0.000000,0.029576,-0.390978,0.000000
1.570000,-2.057966,-0.885151,-1.378113,1.261807,-0.351752,0.106952,1.237385,-0.577233,0.904596,3.246092,0.480144,2.747018,5.715012,6.176004,-4.964413,-0.064114,-0.138064,0.000000,0.037012,-0.398832,0.000000
1.580000,-2.045286,-0.888698,-1.376998,1.274344,-0.357499,0.116134,1.270133,-0.572111,0.931797,3.303649,0.545664,2.691103,5.797082,6.933785,-6.225879,-0.063704,-0.142098,0.000000,0.045038,-0.406313,0.000000
1.590000,-2.032478,-0.892301,-1.375790,1.287212,-0.363191,0.125586,1.303453,-0.566304,0.958384,3.359361,0.615725,2.625561,5.211826,6.923826,-6.729703,-0.063211,-0.146205,0.000000,0.053690,-0.413389,0.000000
1.600000,-2.019540,-0.895961,-1.374485,1.300415,-0.368823,0.135300,1.337297,-0.559800,0.984295,3.408915,0.685473,2.555148,4.824561,7.181250,-7.509247,-0.062631,-0.150379,0.000000,0.062385,-0.419638,-0.000000
1.610000,-2.006469,-0.899677,-1.373083,1.313959,-0.374385,0.145269,1.371605,-0.552576,1.009457,3.451604,0.759872,2.475913,4.336344,7.457517,-8.294931,-0.061960,-0.154611,0.000000,0.071700,-0.424893,-0.000000
1.620000,-1.993260,-0.903449,-1.371579,1.327849,-0.379872,0.155486,1.406364,-0.544613,1.033790,3.501336,0.832405,2.389629,4.998130,7.282701,-9.006637,-0.061197,-0.158896,0.000000,0.080902,-0.430702,-0.000000
1.630000,-1.979911,-0.907275,-1.369972,1.342088,-0.385275,0.165942,1.441586,-0.535908,1.057221,3.538722,0.910426,2.294845,2.456730,8.328256,-9.952689,-0.060340,-0.163235,0.000000,0.090797,-0.434868,0.000000
1.640000,-1.966417,-0.911154,-1.368260,1.356681,-0.390587,0.176627,1.477089,-0.526383,1.079658,3.562715,0.994219,2.191430,2.953050,8.192901,-10.687386,-0.059379,-0.167603,0.000000,0.101410,-0.437243,-0.000000
1.650000,-1.952776,-0.915086,-1.366439,1.371631,-0.395800,0.187531,1.512871,-0.516034,1.101026,3.592514,1.076260,2.080715,2.391400,8.449136,-11.500305,-0.058313,-0.171998,0.000000,0.111897,-0.439962,-0.000000
1.660000,-1.938983,-0.919070,-1.364508,1.386940,-0.400905,0.198644,1.548915,-0.504844,1.121242,3.615591,1.162083,1.961001,1.890523,8.682170,-12.326174,-0.057139,-0.176413,0.000000,0.122868,-0.441579,0.000000
1.670000,-1.925036,-0.923104,-1.362465,1.402610,-0.405894,0.209952,1.585139,-0.492787,1.140228,3.627231,1.249568,1.835264,0.756556,8.842278,-12.934389,-0.055855,-0.180838,0.000000,0.134046,-0.441605,-0.000000
1.680000,-1.910930,-0.927187,-1.360309,1.418643,-0.410758,0.221444,1.621457,-0.479844,1.157914,3.637423,1.339505,1.699942,1.289701,9.142997,-14.133009,-0.054457,-0.185258,0.000000,0.145539,-0.441063,-0.000000
1.690000,-1.896662,-0.931318,-1.358036,1.435039,-0.415488,0.233106,1.657886,-0.465989,1.174193,3.646481,1.431748,1.554907,0.195221,9.271252,-14.758817,-0.052943,-0.189670,0.000000,0.157318,-0.439963,0.000000
1.700000,-1.882228,-0.935496,-1.355646,1.451801,-0.420074,0.244923,1.694343,-0.451206,1.188994,3.644039,1.525112,1.403816,-0.362308,9.427820,-15.572025,-0.051310,-0.194063,0.000000,0.169196,-0.437210,-0.000000
1.710000,-1.867624,-0.939719,-1.353137,1.468926,-0.424509,0.256880,1.730753,-0.435483,1.202237,3.637088,1.619707,1.243373,-0.962291,9.548914,-16.383726,-0.049559,-0.198423,0.000000,0.181194,-0.433500,-0.000000
1.720000,-1.852848,-0.943986,-1.350508,1.486415,-0.428781,0.268962,1.767069,-0.418803,1.213845,3.625353,1.716561,1.077384,-1.451030,9.756800,-16.938945,-0.047686,-0.202741,0.000000,0.193390,-0.428874,0.000000
1.730000,-1.837895,-0.948294,-1.347757,1.504267,-0.432881,0.281152,1.803237,-0.401152,1.223752,3.606679,1.813475,0.901976,-2.287899,9.618460,-18.143877,-0.045691,-0.207006,0.000000,0.205531,-0.422997,0.000000
1.740000,-1.822761,-0.952643,-1.344885,1.522479,-0.436801,0.293431,1.839179,-0.382536,1.231852,3.580852,1.910032,0.717134,-2.814572,9.747639,-18.693150,-0.043576,-0.211205,0.000000,0.217547,-0.415834,0.000000
1.750000,-1.807444,-0.957030,-1.341889,1.541050,-0.440529,0.305782,1.874837,-0.362946,1.238080,3.549799,2.007789,0.527092,-3.462546,9.736864,-19.439291,-0.041340,-0.215328,0.000000,0.229575,-0.407700,0.000000
1.760000,-1.791939,-0.961453,-1.338769,1.559975,-0.444056,0.318186,1.910151,-0.342389,1.242365,3.511828,2.103443,0.328678,-4.118991,9.660321,-20.162036,-0.038986,-0.219362,0.000000,0.241230,-0.398330,0.000000
1.770000,-1.776243,-0.965910,-1.335525,1.579251,-0.447373,0.330623,1.945053,-0.320858,1.244636,3.467518,2.203370,0.124652,-4.758781,10.053131,-20.713386,-0.036514,-0.223297,0.000000,0.253205,-0.387862,-0.000000
1.780000,-1.760353,-0.970400,-1.332156,1.598874,-0.450470,0.343072,1.979478,-0.298338,1.244832,3.416325,2.298804,-0.087061,-5.481768,9.018248,-21.626159,-0.033924,-0.227120,0.000000,0.264490,-0.376193,-0.000000
1.790000,-1.744265,-0.974919,-1.328663,1.618839,-0.453337,0.355512,2.013356,-0.274902,1.242869,3.358136,2.388947,-0.306244,-6.143398,9.270502,-22.128830,-0.031227,-0.230821,0.000000,0.274972,-0.363325,0.000000
1.800000,-1.727975,-0.979466,-1.325046,1.639140,-0.455965,0.367922,2.046619,-0.250546,1.238693,3.293304,2.481793,-0.530154,-6.837968,9.024700,-22.722345,-0.028424,-0.234387,0.000000,0.285530,-0.349386,0.000000
1.810000,-1.711481,-0.984037,-1.321305,1.659769,-0.458345,0.380279,2.079194,-0.225284,1.232245,3.220432,2.569970,-0.760359,-7.559124,8.735729,-23.274525,-0.025519,-0.237807,0.000000,0.295315,-0.334202,-0.000000
1.820000,-1.694779,-0.988632,-1.317441,1.680721,-0.460468,0.392559,2.111018,-0.199146,1.223471,3.143743,2.657575,-0.995157,-7.952871,8.648788,-23.713279,-0.022518,-0.241071,0.000000,0.304774,-0.318306,0.000000
1.830000,-1.677865,-0.993246,-1.313454,1.701987,-0.462325,0.404740,2.142037,-0.172150,1.212324,3.057717,2.740086,-1.235218,-9.258568,7.841499,-24.291954,-0.019427,-0.244170,0.000000,0.313378,-0.301101,-0.000000
1.840000,-1.660738,-0.997877,-1.309346,1.723559,-0.463908,0.416798,2.172139,-0.144364,1.198750,2.962066,2.816853,-1.480098,-9.697033,7.634057,-24.638879,-0.016254,-0.247090,0.000000,0.321046,-0.282600,0.000000
1.850000,-1.643393,-1.002523,-1.305119,1.745426,-0.465210,0.428707,2.201267,-0.115818,1.182712,2.862285,2.891505,-1.728120,-10.434157,7.158627,-24.992147,-0.013007,-0.249821,0.000000,0.328178,-0.263485,0.000000
1.860000,-1.625828,-1.007180,-1.300773,1.767580,-0.466222,0.440444,2.229342,-0.086571,1.164183,2.751074,2.956580,-1.977904,-11.224650,6.564812,-25.251896,-0.009696,-0.252355,0.000000,0.333930,-0.243037,0.000000
1.870000,-1.608041,-1.011847,-1.296311,1.790010,-0.466939,0.451982,2.256310,-0.056649,1.143122,2.643169,3.029241,-2.235688,-10.921061,7.265116,-26.006331,-0.006325,-0.254684,0.000000,0.340230,-0.222718,-0.000000
1.880000,-1.590027,-1.016518,-1.291734,1.812703,-0.467353,0.463297,2.282153,-0.026040,1.119477,2.520800,3.087148,-2.491766,-13.568711,4.287885,-25.189622,-0.002898,-0.256804,0.000000,0.344563,-0.200913,0.000000
1.890000,-1.571786,-1.021193,-1.287045,1.835648,-0.467458,0.474363,2.306671,0.005035,1.093298,2.383282,3.128928,-2.745096,-13.361209,4.763559,-25.756302,0.000558,-0.258697,0.000000,0.346811,-0.177639,0.000000
1.900000,-1.553314,-1.025866,-1.282248,1.858832,-0.467251,0.485155,2.329839,0.036569,1.064551,2.248787,3.176341,-3.004200,-14.104263,4.014097,-25.762657,0.004041,-0.260359,0.000000,0.349399,-0.154646,-0.000000
1.910000,-1.534608,-1.030537,-1.277343,1.882240,-0.466726,0.495646,2.351632,0.068513,1.033228,2.109199,3.210920,-3.260182,-14.691806,3.240023,-25.689256,0.007540,-0.261789,0.000000,0.350292,-0.131355,0.000000
1.920000,-1.515668,-1.035200,-1.272336,1.905860,-0.465879,0.505811,2.371932,0.100789,0.999329,1.946911,3.244212,-3.520210,-16.905769,3.081291,-26.045642,0.011046,-0.262977,0.000000,0.350784,-0.105741,-0.000000
1.930000,-1.496491,-1.039853,-1.267228,1.929673,-0.464709,0.515624,2.390591,0.133354,0.962842,1.789138,3.265480,-3.775419,-14.618134,1.158686,-24.976329,0.014550,-0.263908,0.000000,0.349718,-0.080996,-0.000000
1.940000,-1.477074,-1.044493,-1.262025,1.953666,-0.463212,0.525059,2.407741,0.166054,0.923843,1.637309,3.274069,-4.024742,-16.607956,0.893065,-25.137951,0.018034,-0.264601,0.000000,0.347061,-0.057315,0.000000
1.950000,-1.457417,-1.049116,-1.256728,1.977823,-0.461387,0.534092,2.423252,0.198834,0.882337,1.464397,3.280447,-4.275718,-17.109046,0.045905,-24.784457,0.021491,-0.265046,0.000000,0.343978,-0.031690,0.000000
1.960000,-1.437517,-1.053720,-1.251344,2.002126,-0.459235,0.542698,2.437032,0.231631,0.838353,1.290754,3.277580,-4.520137,-17.639885,-0.768887,-24.347575,0.024910,-0.265237,0.000000,0.339743,-0.006529,0.000000
1.970000,-1.417374,-1.058300,-1.245876,2.026558,-0.456755,0.550851,2.449048,0.264347,0.791929,1.111449,3.263706,-4.764833,-18.193854,-1.862168,-24.326834,0.028281,-0.265176,0.000000,0.334188,0.018844,-0.000000
1.980000,-1.396986,-1.062854,-1.240329,2.051101,-0.453949,0.558528,2.459246,0.296884,0.743086,0.927446,3.243363,-5.001126,-18.602202,-2.200952,-22.912065,0.031591,-0.264861,0.000000,0.327860,0.044053,0.000000
1.990000,-1.376352,-1.067378,-1.234707,2.075736,-0.450818,0.565705,2.467582,0.329194,0.691940,0.739000,3.216805,-5.227961,-19.107347,-3.253994,-22.698824,0.034836,-0.264295,0.000000,0.320825,0.069019,-0.000000
2.000000,-1.355471,-1.071869,-1.229016,2.100446,-0.447366,0.572359,2.474009,0.361182,0.638530,0.545577,3.179554,-5.452700,-19.550058,-4.049435,-21.983326,0.038004,-0.263479,0.000000,0.312622,0.093977,-0.000000
2.010000,-1.334342,-1.076324,-1.223262,2.125210,-0.443596,0.578468,2.478463,0.392759,0.582925,0.344158,3.134402,-5.666652,-20.047744,-4.851888,-21.174664,0.041086,-0.262414,0.000000,0.303623,0.118971,-0.000000
2.020000,-1.312966,-1.080740,-1.217449,2.150008,-0.439512,0.584011,2.480931,0.423854,0.525194,0.150981,3.083744,-5.879460,-19.245244,-5.398023,-21.008697,0.044074,-0.261103,0.000000,0.294053,0.142611,-0.000000
2.030000,-1.291342,-1.085113,-1.211583,2.174822,-0.435121,0.588965,2.481437,0.454403,0.465383,-0.054555,3.023962,-6.078901,-21.877855,-6.557367,-18.857931,0.046964,-0.259557,0.000000,0.283647,0.166636,-0.000000
2.040000,-1.269470,-1.089441,-1.205672,2.199630,-0.430427,0.593312,2.479791,0.484303,0.403667,-0.273081,2.955171,-6.263852,-21.153447,-7.072054,-18.493296,0.049745,-0.257765,0.000000,0.272471,0.191056,-0.000000
2.050000,-1.247350,-1.093721,-1.199719,2.224411,-0.425437,0.597033,2.476015,0.513492,0.340111,-0.483184,2.881593,-6.445427,-21.527432,-7.760027,-17.442628,0.052412,-0.255737,0.000000,0.260910,0.214034,0.000000
2.060000,-1.224982,-1.097949,-1.193733,2.249143,-0.420159,0.600109,2.470142,0.541918,0.274802,-0.690693,2.802707,-6.614571,-21.637573,-8.360599,-16.362778,0.054962,-0.253483,0.000000,0.248989,0.235929,0.000000
2.070000,-1.202367,-1.102123,-1.187719,2.273806,-0.414601,0.602523,2.462062,0.569499,0.207858,-0.931187,2.711305,-6.772368,-24.835523,-9.572081,-15.203073,0.057388,-0.251000,0.000000,0.236057,0.260253,0.000000
2.080000,-1.179506,-1.106240,-1.181685,2.298376,-0.408772,0.604261,2.451592,0.596142,0.139393,-1.153280,2.618565,-6.918784,-19.527933,-8.957131,-14.072878,0.059684,-0.248279,0.000000,0.223204,0.281972,-0.000000
2.090000,-1.156400,-1.110298,-1.175636,2.322831,-0.402682,0.605306,2.439079,0.621871,0.069521,-1.354443,2.525453,-7.053370,-22.336888,-9.999720,-12.821768,0.061853,-0.245361,0.000000,0.210530,0.300900,-0.000000
2.100000,-1.133050,-1.114293,-1.169581,2.347151,-0.396338,0.605647,2.424373,0.646610,-0.001632,-1.586062,2.421667,-7.175205,-22.353517,-10.406200,-11.553076,0.063891,-0.242240,0.000000,0.197116,0.321991,0.000000
2.110000,-1.109457,-1.118223,-1.163526,2.371311,-0.389753,0.605270,2.407336,0.670310,-0.073930,-1.823064,2.318147,-7.281881,-22.717446,-10.729254,-10.196709,0.065797,-0.238909,0.000000,0.184044,0.342767,0.000000
2.120000,-1.085624,-1.122087,-1.157478,2.395290,-0.382936,0.604165,2.388089,0.692927,-0.147258,-2.018946,2.203218,-7.382891,-18.713529,-11.818979,-9.591424,0.067568,-0.235388,0.000000,0.170053,0.359066,-0.000000
2.130000,-1.061552,-1.125881,-1.151445,2.419066,-0.375898,0.602322,2.366841,0.714387,-0.221522,-2.244667,2.090949,-7.465031,-26.497041,-10.611439,-6.818907,0.069200,-0.231703,0.000000,0.156723,0.377375,-0.000000
2.140000,-1.037244,-1.129604,-1.145434,2.442618,-0.368652,0.599732,2.343068,0.734762,-0.296490,-2.503113,1.982531,-7.527443,-22.907341,-11.494091,-6.071907,0.070706,-0.227813,0.000000,0.144172,0.397912,0.000000
2.150000,-1.012701,-1.133254,-1.139453,2.465920,-0.361207,0.596390,2.316950,0.753999,-0.372055,-2.722048,1.864941,-7.582896,-23.145141,-11.583534,-4.604625,0.072081,-0.223742,0.000000,0.130961,0.414221,0.000000
2.160000,-0.987926,-1.136828,-1.133509,2.488950,-0.353575,0.592289,2.288581,0.772078,-0.448090,-2.951484,1.751082,-7.621671,-23.147190,-11.593923,-3.147689,0.073328,-0.219505,0.000000,0.118467,0.430822,0.000000
2.170000,-0.962923,-1.140325,-1.127610,2.511684,-0.345769,0.587427,2.257888,0.788988,-0.524439,-3.188622,1.629437,-7.645808,-23.870651,-12.321828,-1.678725,0.074448,-0.215102,0.000000,0.105581,0.447520,0.000000
2.180000,-0.937694,-1.143743,-1.121763,2.534099,-0.337800,0.581800,2.224830,0.804688,-0.600957,-3.420291,1.513310,-7.655238,-22.440806,-10.881121,-0.206705,0.075442,-0.210534,0.000000,0.093537,0.463132,0.000000
2.190000,-0.912242,-1.147080,-1.115976,2.556173,-0.329679,0.575408,2.189507,0.819279,-0.677495,-3.645347,1.403844,-7.649927,-22.964536,-11.409918,1.269236,0.076322,-0.205817,0.000000,0.082419,0.477604,0.000000
2.200000,-0.886571,-1.150336,-1.110257,2.577882,-0.321418,0.568251,2.151898,0.832739,-0.753906,-3.875925,1.288761,-7.629871,-22.736372,-11.192110,2.740393,0.077089,-0.200953,0.000000,0.071094,0.492083,0.000000
2.210000,-0.860686,-1.153508,-1.104614,2.599203,-0.313028,0.560330,2.112061,0.845073,-0.830059,-4.089363,1.178430,-7.598732,-22.214548,-10.938246,4.131920,0.077747,-0.195954,0.000000,0.060459,0.504626,-0.000000
2.220000,-0.834589,-1.156596,-1.099053,2.620116,-0.304520,0.551651,2.069944,0.856311,-0.905782,-4.340925,1.069498,-7.541324,-25.881012,-10.768689,6.720805,0.078300,-0.190818,0.000000,0.050372,0.519980,0.000000
2.230000,-0.808285,-1.159598,-1.093583,2.640594,-0.295905,0.542217,2.025366,0.866477,-0.980869,-4.560456,0.964713,-7.477521,-17.947035,-10.177747,6.017961,0.078756,-0.185534,0.000000,0.040833,0.532221,-0.000000
2.240000,-0.781778,-1.162514,-1.088211,2.660617,-0.287194,0.532035,1.978871,0.875622,-1.055319,-4.744338,0.864672,-7.408329,-21.049246,-9.894140,8.450781,0.079119,-0.180153,0.000000,0.031872,0.541126,-0.000000
2.250000,-0.755074,-1.165342,-1.082945,2.680165,-0.278396,0.521113,1.930326,0.883780,-1.128940,-4.962379,0.767594,-7.313932,-20.331571,-9.442291,9.795094,0.079396,-0.174666,0.000000,0.023541,0.552621,-0.000000
2.260000,-0.728177,-1.168081,-1.077792,2.699216,-0.269522,0.509460,1.879673,0.890996,-1.201555,-5.167895,0.676625,-7.206364,-19.825024,-8.929401,11.217810,0.079592,-0.169070,0.000000,0.015958,0.562790,-0.000000
2.270000,-0.701091,-1.170732,-1.072758,2.717751,-0.260579,0.497086,1.827062,0.897315,-1.273061,-5.350118,0.587443,-7.094220,-17.528121,-8.720337,11.690050,0.079715,-0.163382,0.000000,0.008651,0.570868,0.000000
2.280000,-0.673823,-1.173293,-1.067852,2.735752,-0.251578,0.484003,1.772647,0.902772,-1.343371,-5.537545,0.506125,-6.962505,-19.981569,-7.531161,14.663799,0.079769,-0.157615,0.000000,0.002282,0.579181,0.000000
2.290000,-0.646378,-1.175763,-1.063080,2.753198,-0.242526,0.470223,1.716283,0.907467,-1.412241,-5.731188,0.433307,-6.810805,-17.820950,-7.207975,15.183675,0.079764,-0.151760,0.000000,-0.003115,0.587848,0.000000
2.300000,-0.618761,-1.178143,-1.058450,2.770071,-0.233431,0.455763,1.658116,0.911446,-1.479581,-5.901718,0.363623,-6.654799,-17.200718,-6.542619,16.497706,0.079707,-0.145829,0.000000,-0.008168,0.594573,-0.000000
2.310000,-0.590979,-1.180432,-1.053967,2.786354,-0.224300,0.440637,1.598230,0.914765,-1.545318,-6.074912,0.301255,-6.491626,-16.592973,-5.864178,17.584379,0.079603,-0.139829,0.000000,-0.012478,0.601580,0.000000
2.320000,-0.563036,-1.182629,-1.049639,2.802030,-0.215138,0.424863,1.536707,0.917499,-1.609260,-6.225760,0.247005,-6.289854,-14.388989,-5.041078,21.354330,0.079461,-0.133768,0.000000,-0.015804,0.606386,0.000000
2.330000,-0.534940,-1.184735,-1.045472,2.817084,-0.205951,0.408459,1.473698,0.919726,-1.671146,-6.379751,0.199261,-6.094257,-16.430498,-4.505474,17.715784,0.079289,-0.127660,0.000000,-0.018585,0.611766,0.000000
2.340000,-0.506697,-1.186748,-1.041472,2.831499,-0.196745,0.391446,1.409092,0.921506,-1.731184,-6.537766,0.158191,-5.907102,-14.343550,-3.644129,21.134799,0.079091,-0.121491,0.000000,-0.020832,0.617788,0.000000
2.350000,-0.478312,-1.188669,-1.037645,2.845261,-0.187522,0.373842,1.343031,0.922920,-1.789143,-6.673525,0.125935,-5.683735,-13.624814,-2.863916,22.115608,0.078876,-0.115274,0.000000,-0.022099,0.621782,-0.000000
2.360000,-0.449794,-1.190498,-1.033997,2.858355,-0.178287,0.355671,1.275673,0.924104,-1.844778,-6.795462,0.113662,-5.439232,-12.617690,-1.816103,23.524667,0.078656,-0.109021,0.000000,-0.021550,0.624700,0.000000
2.370000,-0.421148,-1.192235,-1.030534,2.870770,-0.169041,0.336954,1.207005,0.925048,-1.898146,-6.942905,0.069143,-5.243298,-15.062515,-4.926300,18.815296,0.078431,-0.102728,0.000000,-0.024049,0.630500,-0.000000
2.380000,-0.392381,-1.193879,-1.027260,2.882490,-0.159788,0.317714,1.136934,0.925622,-1.949452,-7.058756,0.060493,-4.996735,-8.048805,3.261631,30.588044,0.078188,-0.096383,0.000000,-0.023215,0.633463,0.000000
2.390000,-0.363500,-1.195431,-1.024181,2.893506,-0.150528,0.297975,1.065958,0.926404,-1.997874,-7.140351,0.090587,-4.695634,-10.090813,0.570819,26.432317,0.077980,-0.090031,0.000000,-0.018835,0.633501,-0.000000
2.400000,-0.334513,-1.196890,-1.021302,2.903806,-0.141259,0.277766,0.994018,0.927295,-2.043576,-7.245090,0.090322,-4.441237,-9.040817,1.544016,27.613463,0.077798,-0.083662,0.000000,-0.017338,0.636217,-0.000000
2.410000,-0.305426,-1.198256,-1.018627,2.913383,-0.131982,0.257112,0.921137,0.928226,-2.086678,-7.329475,0.095453,-4.180185,-8.085610,2.044865,28.116937,0.077635,-0.077274,0.000000,-0.015389,0.637541,-0.000000
2.420000,-0.276248,-1.199529,-1.016161,2.922226,-0.122694,0.236042,0.847440,0.929428,-2.126877,-7.409134,0.154689,-3.846675,-7.609025,7.298626,35.142623,0.077511,-0.070875,0.000000,-0.008520,0.638421,0.000000
2.430000,-0.246984,-1.200710,-1.013908,2.930329,-0.113391,0.214586,0.772996,0.931218,-2.163758,-7.476689,0.188863,-3.549596,-5.899211,-0.551287,24.152586,0.077455,-0.064468,0.000000,-0.004032,0.638968,-0.000000
2.440000,-0.217644,-1.201797,-1.011871,2.937684,-0.104069,0.192775,0.697949,0.933089,-2.198036,-7.532093,0.193935,-3.294520,-5.430648,4.074503,30.311535,0.077419,-0.058058,0.000000,-0.002256,0.639115,-0.000000
2.450000,-0.188233,-1.202791,-1.010053,2.944286,-0.094728,0.170635,0.622364,0.935306,-2.229367,-7.583383,0.248778,-2.972998,-4.593100,4.374072,30.530903,0.077429,-0.051648,0.000000,0.004024,0.639014,-0.000000
2.460000,-0.158760,-1.203692,-1.008459,2.950130,-0.085362,0.148198,0.546209,0.937980,-2.257617,-7.649214,0.285450,-2.677960,-4.293068,4.597654,30.665780,0.077492,-0.045232,0.000000,0.008606,0.640662,0.000000
2.470000,-0.129233,-1.204498,-1.007090,2.955209,-0.075967,0.125493,0.469737,0.941156,-2.282744,-7.629936,0.355714,-2.339619,3.982560,7.850911,34.863107,0.077613,-0.038825,0.000000,0.016175,0.635586,-0.000000
2.480000,-0.099659,-1.205211,-1.005950,2.959525,-0.066536,0.102555,0.393425,0.945025,-2.304506,-7.657011,0.408801,-2.025584,-9.531735,2.710269,27.873164,0.077809,-0.032464,0.000000,0.022168,0.634885,0.000000
2.490000,-0.070045,-1.205829,-1.005040,2.963075,-0.057065,0.079413,0.316389,0.949253,-2.323364,-7.736466,0.442119,-1.739062,-2.160906,5.560930,31.583140,0.078049,-0.026070,0.000000,0.026362,0.638970,-0.000000
2.500000,-0.040400,-1.206352,-1.004362,2.965852,-0.047549,0.056098,0.239036,0.953998,-2.339115,-7.735903,0.506242,-1.412200,-1.912128,5.653716,31.644670,0.078348,-0.019673,0.000000,0.033317,0.636826,-0.000000
2.510000,-0.010731,-1.206780,-1.003918,2.967856,-0.037983,0.032642,0.161703,0.959509,-2.351454,-7.726631,0.600913,-1.049483,-0.871742,6.570377,32.756927,0.078728,-0.013296,0.000000,0.042999,0.634402,0.000000
2.520000,0.018955,-1.207111,-1.003710,2.969086,-0.028357,0.009079,0.084161,0.965502,-2.360730,-7.795998,0.575835,-0.831980,-8.498583,-5.087619,18.643313,0.079162,-0.006915,0.000000,0.041977,0.638988,-0.000000
2.530000,0.048648,-1.207347,-1.003737,2.969537,-0.018674,-0.014566,0.006027,0.971357,-2.367690,-7.802066,0.635570,-0.510787,7.425248,17.225759,45.836662,0.079597,-0.000495,0.000000,0.048562,0.638677,-0.000000
2.540000,0.078343,-1.207485,-1.004001,2.969208,-0.008925,-0.038260,-0.071613,0.978575,-2.370502,-7.738609,0.788437,-0.075248,0.718119,6.762394,33.284168,0.080166,0.005879,0.000000,0.063522,0.633229,0.000000
2.550000,0.108030,-1.207525,-1.004502,2.968105,0.000900,-0.061964,-0.149071,0.986627,-2.369793,-7.749176,0.826211,0.222385,1.694928,7.318429,34.179095,0.080823,0.012239,0.000000,0.068230,0.634283,0.000000
2.560000,0.137702,-1.207466,-1.005240,2.966227,0.010809,-0.085646,-0.226608,0.995034,-2.366020,-7.761025,0.848805,0.528066,1.711697,6.305764,33.714258,0.081526,0.018609,0.000000,0.071793,0.635870,-0.000000
2.570000,0.167352,-1.207308,-1.006215,2.963574,0.020804,-0.109273,-0.303822,1.004309,-2.358699,-7.661830,1.035859,0.958644,12.515490,22.225652,45.810262,0.082320,0.024962,0.000000,0.089687,0.629070,-0.000000
2.580000,0.196971,-1.207050,-1.007426,2.960154,0.030901,-0.132805,-0.380105,1.015299,-2.347173,-7.628513,1.106930,1.305909,-6.026949,-8.306987,23.420981,0.083281,0.031256,0.000000,0.097649,0.628049,-0.000000
2.590000,0.226553,-1.206690,-1.008871,2.955970,0.041108,-0.156208,-0.456682,1.025946,-2.332944,-7.668848,1.048577,1.559741,3.626857,5.563694,33.967192,0.084230,0.037591,0.000000,0.094445,0.633227,0.000000
2.600000,0.256088,-1.206228,-1.010549,2.951021,0.051421,-0.179453,-0.533033,1.036933,-2.315479,-7.603953,1.142006,1.928625,3.714512,4.196638,33.181308,0.085227,0.043931,0.000000,0.104540,0.630577,0.000000
2.610000,0.285570,-1.205661,-1.012459,2.945311,0.061849,-0.202506,-0.608775,1.048578,-2.294537,-7.540727,1.186588,2.259117,4.687866,3.484071,32.766657,0.086303,0.050251,0.000000,0.110480,0.628410,0.000000
2.620000,0.314992,-1.204990,-1.014599,2.938847,0.072394,-0.225333,-0.684159,1.060540,-2.270323,-7.549119,1.200275,2.582480,-2.229785,0.442100,32.033655,0.087427,0.056574,0.000000,0.113909,0.632556,-0.000000
2.630000,0.344345,-1.204213,-1.016965,2.931628,0.083060,-0.247902,-0.759530,1.072614,-2.242898,-7.498480,1.220418,2.902499,12.496557,3.622504,31.967375,0.088584,0.062933,0.000000,0.117960,0.632296,-0.000000
2.640000,0.373622,-1.203329,-1.019556,2.923660,0.093848,-0.270180,-0.833879,1.084985,-2.212284,-7.382473,1.248593,3.218941,6.548426,0.809259,31.177716,0.089789,0.069250,0.000000,0.122786,0.627072,-0.000000
2.650000,0.402816,-1.202336,-1.022367,2.914953,0.104760,-0.292137,-0.907471,1.097465,-2.178549,-7.331954,1.246871,3.527124,7.716704,0.050058,30.592084,0.091029,0.075551,0.000000,0.125167,0.627629,0.000000
2.660000,0.431918,-1.201233,-1.025397,2.905513,0.115797,-0.313741,-0.980277,1.110072,-2.141668,-7.224398,1.277452,3.850703,9.175338,-0.084762,30.386504,0.092306,0.081837,0.000000,0.130476,0.624010,-0.000000
2.670000,0.460923,-1.200019,-1.028641,2.895350,0.126961,-0.334961,-1.052285,1.122510,-2.101845,-7.190919,1.188589,4.100417,2.009409,-11.715177,23.172374,0.093595,0.088111,0.000000,0.125385,0.626423,-0.000000
2.680000,0.489823,-1.198693,-1.032095,2.884469,0.138244,-0.355770,-1.123837,1.134118,-2.059499,-7.090002,1.168528,4.390067,18.311738,7.887947,34.863730,0.094838,0.094401,0.000000,0.126404,0.623914,-0.000000
2.690000,0.518610,-1.197254,-1.035755,2.872879,0.149645,-0.376139,-1.193805,1.146184,-2.013867,-6.915557,1.225471,4.724261,12.040131,-2.533294,28.309491,0.096150,0.100625,0.000000,0.134379,0.616054,-0.000000
2.700000,0.547278,-1.195700,-1.039616,2.860597,0.161167,-0.396037,-1.262460,1.158143,-1.965316,-6.810921,1.168925,4.987102,13.390772,-2.773897,27.892700,0.097483,0.106804,0.000000,0.132389,0.613796,-0.000000
2.710000,0.575820,-1.194030,-1.043674,2.847633,0.172806,-0.415437,-1.330079,1.169538,-1.914141,-6.716823,1.104724,5.244348,13.479681,-4.115080,26.809852,0.098796,0.112965,0.000000,0.129764,0.612725,-0.000000
2.720000,0.604229,-1.192244,-1.047923,2.834000,0.184557,-0.434311,-1.396139,1.180677,-1.860201,-6.467401,1.141278,5.553103,28.567193,5.633524,31.760779,0.100118,0.119067,0.000000,0.136286,0.599467,0.000000
2.730000,0.632498,-1.190339,-1.052358,2.819719,0.196421,-0.452631,-1.459791,1.192048,-1.803266,-6.310010,1.095801,5.812804,2.655748,-14.916520,20.069339,0.101494,0.125044,0.000000,0.135551,0.593760,0.000000
2.740000,0.660621,-1.188315,-1.056974,2.804806,0.208394,-0.470369,-1.522746,1.202245,-1.744150,-6.256169,0.959845,6.018386,16.004377,-6.439910,24.236246,0.102797,0.131037,0.000000,0.126596,0.596532,0.000000
2.750000,0.688592,-1.186171,-1.061764,2.789269,0.220463,-0.487506,-1.584293,1.211658,-1.682688,-6.057133,0.917357,6.270179,15.923031,-7.880316,22.924762,0.104064,0.136989,0.000000,0.126169,0.587823,0.000000
2.760000,0.716404,-1.183905,-1.066722,2.773126,0.232625,-0.504015,-1.643984,1.220455,-1.618833,-5.878228,0.841375,6.499808,16.677418,-8.787523,21.891385,0.105308,0.142865,0.000000,0.122731,0.580820,-0.000000
2.770000,0.744053,-1.181518,-1.071842,2.756395,0.244870,-0.519875,-1.702091,1.228336,-1.552817,-5.752868,0.728090,6.697720,11.476567,-12.438870,18.753160,0.106504,0.148689,0.000000,0.115750,0.578240,-0.000000
2.780000,0.771530,-1.179008,-1.077117,2.739089,0.257187,-0.535065,-1.758873,1.235054,-1.484865,-5.583982,0.622643,6.897180,22.395068,-8.602885,21.165218,0.107627,0.154483,0.000000,0.109486,0.572188,0.000000
2.790000,0.798832,-1.176374,-1.082541,2.721224,0.269568,-0.549565,-1.813587,1.240833,-1.414856,-5.367400,0.527203,7.099249,17.805534,-11.923401,18.161810,0.108698,0.160185,0.000000,0.104172,0.562254,-0.000000
2.800000,0.825953,-1.173616,-1.088106,2.702823,0.282000,-0.563356,-1.866445,1.245455,-1.343005,-5.201481,0.396510,7.269442,18.479163,-12.772759,16.945964,0.109696,0.165813,0.000000,0.095377,0.556410,-0.000000
2.810000,0.852887,-1.170734,-1.093806,2.683902,0.294472,-0.576420,-1.917527,1.248769,-1.269496,-5.014278,0.264752,7.429979,18.937654,-13.672409,15.572496,0.110606,0.171372,0.000000,0.086346,0.548724,-0.000000
2.820000,0.879629,-1.167726,-1.099632,2.664479,0.306971,-0.588741,-1.966717,1.250713,-1.194418,-4.822986,0.122268,7.584601,19.336560,-14.722026,14.939616,0.111419,0.176853,0.000000,0.076217,0.540705,-0.000000
