time,x,y,z,vx,vy,vz,ax,ay,az,jx,jy,jz,sx,sy,sz,roll,pitch,yaw,p,q,r
0.000000,-3.384194,0.322390,-1.481409,-0.017404,-0.004393,0.005585,0.628930,-0.198997,0.042581,-6.113957,2.599950,-1.357243,115.448706,-23.823643,23.014339,-0.020329,-0.064302,0.000000,0.267523,0.632150,0.000000
0.010000,-3.384338,0.322337,-1.481352,-0.011402,-0.006257,0.005947,0.573382,-0.174156,0.030088,-5.013341,2.371624,-1.148254,104.788653,-21.866623,18.866168,-0.017775,-0.058562,0.000000,0.243554,0.517638,0.000000
0.020000,-3.384424,0.322266,-1.481291,-0.005902,-0.007883,0.006193,0.528319,-0.151502,0.019486,-4.015942,2.162123,-0.978312,94.801214,-20.057724,15.200292,-0.015451,-0.053910,0.000000,0.221663,0.414323,0.000000
0.030000,-3.384457,0.322180,-1.481228,-0.000804,-0.009293,0.006342,0.492741,-0.130855,0.010407,-3.115152,1.969997,-0.842729,85.463011,-18.390650,11.990157,-0.013335,-0.050239,0.000000,0.201670,0.321369,-0.000000
0.040000,-3.384441,0.322081,-1.481164,0.003982,-0.010506,0.006406,0.465715,-0.112049,0.002531,-2.304595,1.793859,-0.737079,76.750749,-16.859101,9.209204,-0.011411,-0.047450,0.000000,0.183406,0.238000,0.000000
0.050000,-3.384378,0.321971,-1.481100,0.008536,-0.011540,0.006395,0.446369,-0.094929,-0.004420,-1.578137,1.632384,-0.657202,68.640167,-15.456775,6.830913,-0.009662,-0.045450,0.000000,0.166713,0.163497,0.000000
0.060000,-3.384271,0.321851,-1.481037,0.012932,-0.012410,0.006319,0.433892,-0.079356,-0.010686,-0.929865,1.484313,-0.599207,61.108814,-14.177381,4.828691,-0.008072,-0.044153,0.000000,0.151442,0.097187,0.000000
0.070000,-3.384120,0.321723,-1.480974,0.017234,-0.013132,0.006183,0.427530,-0.065202,-0.016465,-0.354109,1.348448,-0.559463,54.132892,-13.014620,3.176009,-0.006629,-0.043481,0.000000,0.137457,0.038440,-0.000000
0.080000,-3.383926,0.321588,-1.480913,0.021500,-0.013718,0.005991,0.426586,-0.052350,-0.021925,0.154566,1.223653,-0.534610,47.688915,-11.962195,1.846354,-0.005319,-0.043361,0.000000,0.124629,-0.013336,0.000000
0.090000,-3.383690,0.321449,-1.480854,0.025782,-0.014183,0.005745,0.430415,-0.040696,-0.027197,0.601364,1.108857,-0.521548,41.753326,-11.013819,0.813257,-0.004133,-0.043726,0.000000,0.112841,-0.058699,-0.000000
0.100000,-3.383411,0.321305,-1.480798,0.030123,-0.014536,0.005447,0.438424,-0.030143,-0.032385,0.991257,1.003051,-0.517451,36.303491,-10.163139,0.049553,-0.003060,-0.044515,0.000000,0.101984,-0.098176,0.000000
0.110000,-3.383087,0.321158,-1.480746,0.034562,-0.014789,0.005098,0.450066,-0.020608,-0.037567,1.328975,0.905290,-0.519748,31.315019,-9.403922,-0.470560,-0.002091,-0.045672,0.000000,0.091957,-0.132266,-0.000000
0.120000,-3.382719,0.321010,-1.480697,0.039134,-0.014951,0.004696,0.464844,-0.012014,-0.042794,1.619019,0.814689,-0.526140,26.764845,-8.729846,-0.773904,-0.001218,-0.047144,0.000000,0.082668,-0.161442,-0.000000
0.130000,-3.382304,0.320860,-1.480652,0.043868,-0.015032,0.004242,0.482302,-0.004293,-0.048097,1.865655,0.730430,-0.534592,22.629647,-8.134612,-0.887028,-0.000435,-0.048885,0.000000,0.074033,-0.186152,0.000000
0.140000,-3.381841,0.320709,-1.480612,0.048788,-0.015040,0.003734,0.502026,0.002614,-0.053487,2.072918,0.651755,-0.543335,18.886298,-7.611919,-0.836502,0.000265,-0.050854,0.000000,0.065975,-0.206821,-0.000000
0.150000,-3.381327,0.320559,-1.480577,0.053915,-0.014982,0.003172,0.523642,0.008758,-0.058959,2.244611,0.577971,-0.550865,15.512021,-7.155471,-0.648961,0.000886,-0.053010,0.000000,0.058422,-0.223850,-0.000000
0.160000,-3.380762,0.320410,-1.480549,0.059266,-0.014867,0.002554,0.546811,0.014187,-0.064496,2.384253,0.508445,-0.555946,12.478171,-6.758999,-0.350778,0.001435,-0.055320,0.000000,0.051312,-0.237609,-0.000000
0.170000,-3.380141,0.320262,-1.480527,0.064855,-0.014701,0.001882,0.571231,0.018940,-0.070067,2.495225,0.442612,-0.557602,9.767869,-6.416163,0.031367,0.001914,-0.057752,0.000000,0.044588,-0.248457,-0.000000
0.180000,-3.379464,0.320116,-1.480511,0.070694,-0.014491,0.001153,0.596630,0.023050,-0.075634,2.580602,0.379964,-0.555127,7.355242,-6.120687,0.470932,0.002327,-0.060280,0.000000,0.038199,-0.256721,-0.000000
0.190000,-3.378727,0.319972,-1.480504,0.076790,-0.014242,0.000369,0.622767,0.026548,-0.081154,2.643244,0.320061,-0.548080,5.216900,-5.866287,0.941352,0.002679,-0.062879,0.000000,0.032101,-0.262702,-0.000000
0.200000,-3.377927,0.319831,-1.480504,0.083151,-0.013962,-0.000470,0.649428,0.029459,-0.086580,2.685777,0.262524,-0.536283,3.329343,-5.646575,1.416254,0.002970,-0.065528,0.000000,0.026257,-0.266679,-0.000000
0.210000,-3.377063,0.319693,-1.480513,0.089780,-0.013655,-0.001362,0.676396,0.031819,-0.091986,2.704167,0.210213,-0.547772,1.542223,-5.392541,1.316458,0.003206,-0.068203,0.000000,0.020944,-0.268062,0.000000
0.220000,-3.376131,0.319558,-1.480532,0.096680,-0.013327,-0.002309,0.703550,0.033625,-0.097130,2.727963,0.149323,-0.463724,2.127692,-6.233823,10.604010,0.003385,-0.070895,0.000000,0.014811,-0.270663,-0.000000
0.230000,-3.375128,0.319427,-1.480560,0.103852,-0.012984,-0.003302,0.730854,0.034839,-0.101493,2.723787,0.097130,-0.438350,-2.967690,-4.190529,-5.686941,0.003505,-0.073605,0.000000,0.009548,-0.270080,0.000000
0.240000,-3.374053,0.319299,-1.480598,0.111296,-0.012632,-0.004340,0.757924,0.035603,-0.106155,2.691899,0.054214,-0.478740,-2.249046,-4.956267,2.535715,0.003580,-0.076285,0.000000,0.005206,-0.266219,-0.000000
0.250000,-3.372901,0.319174,-1.480647,0.119009,-0.012274,-0.005425,0.784744,0.035885,-0.110683,2.669716,0.002718,-0.429608,-3.293972,-4.785982,2.370502,0.003606,-0.078937,0.000000,0.000042,-0.264027,0.000000
0.260000,-3.371672,0.319053,-1.480706,0.126990,-0.011916,-0.006552,0.811236,0.035681,-0.114862,2.626519,-0.042999,-0.406053,-4.245109,-4.633256,2.480141,0.003583,-0.081556,0.000000,-0.004541,-0.259560,0.000000
0.270000,-3.370361,0.318936,-1.480778,0.135233,-0.011562,-0.007721,0.837332,0.035007,-0.118789,2.595158,-0.092501,-0.378756,-3.052505,-5.002910,2.836846,0.003513,-0.084135,0.000000,-0.009493,-0.256335,-0.000000
0.280000,-3.368966,0.318822,-1.480861,0.143735,-0.011217,-0.008927,0.863065,0.033848,-0.122441,2.543898,-0.137503,-0.352303,-7.213762,-3.990273,2.446044,0.003395,-0.086676,0.000000,-0.013986,-0.251140,-0.000000
0.290000,-3.367485,0.318711,-1.480956,0.152492,-0.010886,-0.010169,0.888134,0.032275,-0.125840,2.472387,-0.177705,-0.327086,-6.016236,-4.319556,2.734688,0.003235,-0.089150,0.000000,-0.017991,-0.243942,-0.000000
0.300000,-3.365915,0.318604,-1.481064,0.161496,-0.010573,-0.011443,0.912578,0.030277,-0.128970,2.414917,-0.221630,-0.298863,-6.515674,-4.198461,2.766966,0.003034,-0.091561,0.000000,-0.022363,-0.238204,0.000000
0.310000,-3.364254,0.318500,-1.481185,0.170741,-0.010282,-0.012747,0.936376,0.027856,-0.131820,2.343639,-0.262291,-0.271113,-6.949544,-4.081199,2.789563,0.002790,-0.093909,0.000000,-0.026403,-0.231116,-0.000000
0.320000,-3.362500,0.318398,-1.481319,0.180221,-0.010017,-0.014079,0.959501,0.025023,-0.134391,2.283357,-0.304612,-0.243047,-5.851536,-4.240639,2.812400,0.002505,-0.096189,0.000000,-0.030605,-0.225157,0.000000
0.330000,-3.360649,0.318299,-1.481467,0.189929,-0.009783,-0.015434,0.981997,0.021774,-0.136681,2.210946,-0.344113,-0.215097,-8.643810,-3.655145,2.774897,0.002179,-0.098407,0.000000,-0.034522,-0.218019,-0.000000
0.340000,-3.358701,0.318203,-1.481628,0.199858,-0.009583,-0.016811,1.003672,0.018152,-0.138694,2.125984,-0.380598,-0.187424,-7.575572,-3.785713,2.765955,0.001815,-0.100545,0.000000,-0.038135,-0.209660,0.000000
0.350000,-3.356651,0.318108,-1.481803,0.210000,-0.009421,-0.018207,1.024571,0.014155,-0.140430,2.053123,-0.418600,-0.159902,-7.750000,-3.670998,2.728249,0.001415,-0.102606,0.000000,-0.041899,-0.202533,-0.000000
0.360000,-3.354500,0.318014,-1.481992,0.220347,-0.009301,-0.019619,1.044700,0.009789,-0.141894,1.972259,-0.454277,-0.132905,-7.888428,-3.553453,2.677582,0.000978,-0.104592,0.000000,-0.045431,-0.194632,0.000000
0.370000,-3.352244,0.317921,-1.482196,0.230891,-0.009227,-0.021044,1.064055,0.005066,-0.143090,1.900339,-0.490484,-0.106311,-7.000791,-3.600509,2.630946,0.000506,-0.106502,0.000000,-0.049016,-0.187643,-0.000000
0.380000,-3.349881,0.317829,-1.482413,0.241626,-0.009201,-0.022480,1.082680,-0.000012,-0.144023,1.821622,-0.524453,-0.080495,-8.752966,-3.189950,2.530309,-0.000001,-0.108342,0.000000,-0.052379,-0.179995,-0.000000
0.390000,-3.347411,0.317737,-1.482645,0.252542,-0.009228,-0.023924,1.100459,-0.005415,-0.144703,1.735729,-0.556027,-0.055572,-7.904719,-3.211804,2.461046,-0.000541,-0.110100,0.000000,-0.055504,-0.171648,-0.000000
0.400000,-3.344830,0.317645,-1.482892,0.263632,-0.009310,-0.025373,1.117435,-0.011136,-0.145136,1.659236,-0.587928,-0.031371,-7.905220,-3.080465,2.368983,-0.001112,-0.111779,0.000000,-0.058665,-0.164248,0.000000
0.410000,-3.342138,0.317551,-1.483153,0.274888,-0.009452,-0.026826,1.133625,-0.017165,-0.145333,1.578522,-0.617759,-0.007994,-7.888997,-2.943359,2.272841,-0.001713,-0.113383,0.000000,-0.061623,-0.156440,0.000000
0.420000,-3.339332,0.317455,-1.483428,0.286302,-0.009655,-0.028279,1.149035,-0.023491,-0.145302,1.504694,-0.647316,0.013764,-7.208471,-2.910381,2.109048,-0.002344,-0.114911,0.000000,-0.064556,-0.149315,0.000000
0.430000,-3.336411,0.317357,-1.483718,0.297866,-0.009922,-0.029731,1.163705,-0.030104,-0.145059,1.427376,-0.674757,0.034824,-8.263161,-2.575014,2.102977,-0.003004,-0.116368,0.000000,-0.067282,-0.141852,-0.000000
0.440000,-3.333374,0.317257,-1.484023,0.309573,-0.010258,-0.031180,1.177567,-0.036978,-0.144608,1.346250,-0.699945,0.055170,-7.622068,-2.519011,1.933684,-0.003689,-0.117746,0.000000,-0.069788,-0.134018,0.000000
0.450000,-3.330219,0.317152,-1.484342,0.321415,-0.010663,-0.032623,1.190659,-0.044102,-0.143962,1.272082,-0.724630,0.073750,-7.545002,-2.359870,1.813233,-0.004399,-0.119051,0.000000,-0.072247,-0.126866,-0.000000
0.460000,-3.326945,0.317043,-1.484675,0.333384,-0.011140,-0.034058,1.202998,-0.051463,-0.143136,1.195840,-0.747220,0.091220,-7.464033,-2.194076,1.686068,-0.005133,-0.120283,0.000000,-0.074502,-0.119507,-0.000000
0.470000,-3.323551,0.316929,-1.485023,0.345473,-0.011693,-0.035485,1.214598,-0.059044,-0.142142,1.125015,-0.768831,0.107516,-6.931287,-2.091145,1.566910,-0.005889,-0.121443,0.000000,-0.076664,-0.112681,-0.000000
0.480000,-3.320035,0.316809,-1.485385,0.357674,-0.012322,-0.036901,1.225491,-0.066832,-0.140991,1.052372,-0.788269,0.122427,-7.603895,-1.794133,1.414830,-0.006666,-0.122536,0.000000,-0.078613,-0.105666,-0.000000
0.490000,-3.316397,0.316682,-1.485761,0.369980,-0.013030,-0.038304,1.235636,-0.074802,-0.139698,0.977624,-0.805419,0.135926,-7.112096,-1.671002,1.290689,-0.007461,-0.123556,0.000000,-0.080338,-0.098432,0.000000
0.500000,-3.312635,0.316548,-1.486151,0.382384,-0.013819,-0.039694,1.245065,-0.082937,-0.138276,0.908165,-0.821359,0.148181,-7.013749,-1.479944,1.155084,-0.008272,-0.124506,0.000000,-0.081946,-0.091713,-0.000000
0.510000,-3.308749,0.316406,-1.486555,0.394879,-0.014689,-0.041069,1.253794,-0.091221,-0.136738,0.837776,-0.835041,0.159391,-6.917385,-1.281806,1.026850,-0.009099,-0.125389,0.000000,-0.083334,-0.084894,-0.000000
0.520000,-3.304738,0.316254,-1.486972,0.407458,-0.015643,-0.042429,1.261836,-0.099633,-0.135098,0.771164,-0.847216,0.168166,-6.547523,-1.126527,0.786698,-0.009938,-0.126206,0.000000,-0.084573,-0.078421,0.000000
0.530000,-3.300600,0.316093,-1.487403,0.420113,-0.016682,-0.043771,1.269214,-0.108157,-0.133376,0.703828,-0.857014,0.176354,-6.924526,-0.831097,0.852947,-0.010789,-0.126958,0.000000,-0.085578,-0.071872,-0.000000
0.540000,-3.296335,0.315920,-1.487848,0.432840,-0.017807,-0.045096,1.275908,-0.116765,-0.131572,0.635546,-0.864335,0.184049,-6.588725,-0.657906,0.627486,-0.011649,-0.127643,0.000000,-0.086341,-0.065225,0.000000
0.550000,-3.291943,0.315736,-1.488305,0.445629,-0.019018,-0.046402,1.281939,-0.125439,-0.129704,0.570826,-0.869931,0.189413,-6.499761,-0.434700,0.504142,-0.012516,-0.128264,0.000000,-0.086932,-0.058902,-0.000000
0.560000,-3.287422,0.315540,-1.488776,0.458476,-0.020316,-0.047690,1.287322,-0.134155,-0.127785,0.505779,-0.873040,0.194185,-6.416323,-0.204995,0.386565,-0.013387,-0.128821,0.000000,-0.087278,-0.052539,-0.000000
0.570000,-3.282773,0.315329,-1.489259,0.471374,-0.021701,-0.048958,1.292065,-0.142893,-0.125829,0.443350,-0.874185,0.196562,-6.161421,-0.004693,0.151655,-0.014261,-0.129315,0.000000,-0.087427,-0.046404,0.000000
0.580000,-3.277995,0.315105,-1.489755,0.484315,-0.023174,-0.050206,1.296187,-0.151630,-0.123854,0.380617,-0.872730,0.198536,-6.388973,0.297220,0.245550,-0.015135,-0.129749,0.000000,-0.087319,-0.040233,-0.000000
0.590000,-3.273087,0.314866,-1.490263,0.497295,-0.024734,-0.051435,1.299675,-0.160339,-0.121859,0.317400,-0.868593,0.200223,-6.163141,0.512613,0.029516,-0.016006,-0.130120,0.000000,-0.086945,-0.034009,0.000000
0.600000,-3.268049,0.314610,-1.490783,0.510307,-0.026380,-0.052643,1.302545,-0.168995,-0.119859,0.256552,-0.862303,0.199671,-6.099483,0.764757,-0.076598,-0.016873,-0.130430,0.000000,-0.086355,-0.027988,-0.000000
0.610000,-3.262880,0.314338,-1.491316,0.523344,-0.028113,-0.053832,1.304805,-0.177576,-0.117868,0.195470,-0.853309,0.198357,-6.042445,1.022264,-0.183717,-0.017732,-0.130680,0.000000,-0.085494,-0.021933,0.000000
0.620000,-3.257582,0.314048,-1.491860,0.536401,-0.029931,-0.055001,1.306462,-0.186054,-0.115895,0.136409,-0.841957,0.196026,-5.846266,1.261189,-0.283665,-0.018582,-0.130869,0.000000,-0.084398,-0.016061,-0.000000
0.630000,-3.252152,0.313739,-1.492416,0.549471,-0.031834,-0.056150,1.307531,-0.194405,-0.113950,0.076938,-0.827813,0.192656,-6.051286,1.568667,-0.389786,-0.019419,-0.131001,0.000000,-0.083021,-0.010133,-0.000000
0.640000,-3.246592,0.313411,-1.492983,0.562550,-0.033819,-0.057280,1.307999,-0.202600,-0.112045,0.016896,-0.810816,0.188281,-5.881645,1.819254,-0.482751,-0.020241,-0.131072,0.000000,-0.081357,-0.004132,-0.000000
0.650000,-3.240901,0.313062,-1.493561,0.575629,-0.035885,-0.058391,1.307876,-0.210613,-0.110188,-0.041364,-0.791310,0.183001,-5.846982,2.094902,-0.574667,-0.021046,-0.131084,0.000000,-0.079441,0.001707,-0.000000
0.660000,-3.235080,0.312693,-1.494151,0.588705,-0.038031,-0.059484,1.307170,-0.218417,-0.108387,-0.099914,-0.768900,0.177028,-5.817609,2.375097,-0.658180,-0.021829,-0.131037,0.000000,-0.077233,0.007588,0.000000
0.670000,-3.229127,0.312301,-1.494751,0.601771,-0.040253,-0.060559,1.305883,-0.225983,-0.106653,-0.157305,-0.743912,0.169495,-5.706328,2.635338,-0.810032,-0.022589,-0.130932,0.000000,-0.074762,0.013377,-0.000000
0.680000,-3.223044,0.311887,-1.495362,0.614821,-0.042549,-0.061617,1.304022,-0.233285,-0.104998,-0.215001,-0.715926,0.161631,-5.834895,2.962879,-0.760975,-0.023323,-0.130770,0.000000,-0.071990,0.019203,-0.000000
0.690000,-3.216831,0.311450,-1.495983,0.627849,-0.044917,-0.062659,1.301581,-0.240291,-0.103421,-0.273106,-0.684892,0.153528,-5.741350,3.231965,-0.896871,-0.024028,-0.130548,0.000000,-0.068911,0.025076,-0.000000
0.700000,-3.210487,0.310989,-1.496615,0.640851,-0.047354,-0.063686,1.298564,-0.246974,-0.101933,-0.330233,-0.651173,0.144032,-5.729197,3.524647,-0.964111,-0.024701,-0.130268,0.000000,-0.065558,0.030874,-0.000000
0.710000,-3.204014,0.310503,-1.497257,0.653819,-0.049856,-0.064698,1.294975,-0.253304,-0.100542,-0.387639,-0.614389,0.134074,-5.720738,3.820253,-1.029566,-0.025338,-0.129930,0.000000,-0.061896,0.036707,-0.000000
0.720000,-3.197411,0.309992,-1.497909,0.666748,-0.052419,-0.065697,1.290814,-0.259253,-0.099254,-0.444365,-0.574874,0.123428,-5.655789,4.094880,-1.096331,-0.025938,-0.129534,0.000000,-0.057956,0.042485,0.000000
0.730000,-3.190679,0.309454,-1.498571,0.679633,-0.055039,-0.066684,1.286086,-0.264791,-0.098075,-0.501410,-0.532235,0.112218,-5.754573,4.433430,-1.144921,-0.026496,-0.129080,0.000000,-0.053699,0.048305,0.000000
0.740000,-3.183819,0.308891,-1.499243,0.692468,-0.057713,-0.067659,1.280784,-0.269887,-0.097011,-0.558840,-0.486442,0.100487,-5.700515,4.713369,-1.203405,-0.027011,-0.128568,0.000000,-0.049123,0.054172,0.000000
0.750000,-3.176830,0.308300,-1.499924,0.705247,-0.060436,-0.068624,1.274912,-0.274511,-0.096067,-0.615684,-0.437864,0.088186,-5.700114,5.014471,-1.253381,-0.027478,-0.127996,0.000000,-0.044264,0.059990,-0.000000
0.760000,-3.169714,0.307682,-1.500615,0.717964,-0.063202,-0.069581,1.268470,-0.278634,-0.095249,-0.672781,-0.386144,0.075349,-5.700885,5.316704,-1.301155,-0.027895,-0.127367,0.000000,-0.039085,0.065842,-0.000000
0.770000,-3.162471,0.307036,-1.501316,0.730614,-0.066007,-0.070530,1.261458,-0.282225,-0.094561,-0.729532,-0.331648,0.062289,-5.667262,5.594917,-1.322154,-0.028259,-0.126679,0.000000,-0.033625,0.071664,0.000000
0.780000,-3.155102,0.306361,-1.502026,0.743192,-0.068844,-0.071472,1.253878,-0.285256,-0.094005,-0.786502,-0.273985,0.048667,-5.727175,5.937908,-1.401915,-0.028566,-0.125933,0.000000,-0.027843,0.077516,0.000000
0.790000,-3.147607,0.305659,-1.502745,0.755690,-0.071710,-0.072410,1.245727,-0.287694,-0.093589,-0.843708,-0.213145,0.034505,-5.695619,6.217388,-1.417874,-0.028814,-0.125128,0.000000,-0.021739,0.083399,0.000000
0.800000,-3.139988,0.304927,-1.503474,0.768104,-0.074596,-0.073345,1.237005,-0.289510,-0.093315,-0.900570,-0.149535,0.020221,-5.693861,6.516841,-1.450419,-0.029000,-0.124265,0.000000,-0.015353,0.089251,0.000000
0.810000,-3.132246,0.304167,-1.504212,0.780428,-0.077498,-0.074277,1.227715,-0.290674,-0.093187,-0.957515,-0.082808,0.005424,-5.688977,6.815160,-1.481383,-0.029120,-0.123342,0.000000,-0.008650,0.095117,0.000000
0.820000,-3.124380,0.303377,-1.504959,0.792657,-0.080407,-0.075209,1.217856,-0.291157,-0.093206,-1.014288,-0.013361,-0.009146,-5.670647,7.086511,-1.458075,-0.029172,-0.122362,0.000000,-0.001673,0.100963,0.000000
0.830000,-3.116393,0.302559,-1.505716,0.804784,-0.083319,-0.076142,1.207429,-0.290931,-0.093372,-1.071032,0.059182,-0.024272,-5.677566,7.421974,-1.567185,-0.029153,-0.121322,0.000000,0.005619,0.106813,-0.000000
0.840000,-3.108285,0.301711,-1.506482,0.816803,-0.086224,-0.077077,1.196435,-0.289963,-0.093693,-1.127715,0.134808,-0.039947,-5.652942,7.689794,-1.540772,-0.029059,-0.120224,0.000000,0.013224,0.112663,-0.000000
0.850000,-3.100057,0.300834,-1.507258,0.828710,-0.089115,-0.078016,1.184876,-0.288226,-0.094169,-1.184123,0.213074,-0.055295,-5.633441,7.975626,-1.554373,-0.028887,-0.119068,0.000000,0.021095,0.118480,0.000000
0.860000,-3.091711,0.299929,-1.508042,0.840499,-0.091985,-0.078961,1.172754,-0.285692,-0.094801,-1.240276,0.294309,-0.071097,-5.605536,8.257740,-1.566723,-0.028636,-0.117854,0.000000,0.029268,0.124276,-0.000000
0.870000,-3.083248,0.298995,-1.508837,0.852164,-0.094826,-0.079913,1.160071,-0.282332,-0.095588,-1.296267,0.378097,-0.086279,-5.585143,8.511231,-1.504601,-0.028301,-0.116582,0.000000,0.037696,0.130046,-0.000000
0.880000,-3.074668,0.298032,-1.509641,0.863699,-0.097629,-0.080873,1.146830,-0.278120,-0.096528,-1.351820,0.464772,-0.101923,-5.524002,8.823211,-1.624371,-0.027881,-0.115252,0.000000,0.046417,0.135775,-0.000000
0.890000,-3.065974,0.297042,-1.510454,0.875098,-0.100386,-0.081844,1.133036,-0.273027,-0.097629,-1.406853,0.554293,-0.118024,-5.487839,9.067550,-1.558748,-0.027372,-0.113865,0.000000,0.055425,0.141456,-0.000000
0.900000,-3.057167,0.296025,-1.511278,0.886357,-0.103087,-0.082826,1.118694,-0.267026,-0.098886,-1.461509,0.646206,-0.133385,-5.433825,9.326115,-1.548407,-0.026772,-0.112422,0.000000,0.064672,0.147086,0.000000
0.910000,-3.048247,0.294981,-1.512111,0.897470,-0.105723,-0.083822,1.103809,-0.260094,-0.100298,-1.515424,0.740787,-0.149093,-5.368767,9.577806,-1.535603,-0.026078,-0.110923,0.000000,0.074188,0.152644,0.000000
0.920000,-3.039218,0.293911,-1.512954,0.908432,-0.108285,-0.084833,1.088386,-0.252203,-0.101863,-1.569048,0.837633,-0.163553,-5.334075,9.800701,-1.410073,-0.025287,-0.109368,0.000000,0.083927,0.158154,0.000000
0.930000,-3.030079,0.292815,-1.513808,0.919236,-0.110764,-0.085860,1.072431,-0.243332,-0.103571,-1.621645,0.937000,-0.178422,-5.183092,10.071567,-1.564039,-0.024398,-0.107759,0.000000,0.093920,0.163562,-0.000000
0.940000,-3.020834,0.291696,-1.514671,0.929879,-0.113149,-0.086905,1.055957,-0.233455,-0.105433,-1.673090,1.038815,-0.193697,-5.124838,10.278872,-1.434245,-0.023408,-0.106096,0.000000,0.104157,0.168854,-0.000000
0.950000,-3.011482,0.290553,-1.515546,0.940354,-0.115430,-0.087969,1.038971,-0.222550,-0.107439,-1.723926,1.142637,-0.207540,-5.020706,10.494772,-1.388838,-0.022314,-0.104381,0.000000,0.114591,0.174066,0.000000
0.960000,-3.002027,0.289387,-1.516431,0.950656,-0.117596,-0.089054,1.021484,-0.210595,-0.109582,-1.773403,1.248664,-0.220978,-4.903757,10.700390,-1.327307,-0.021115,-0.102615,0.000000,0.125242,0.179132,-0.000000
0.970000,-2.992470,0.288201,-1.517327,0.960782,-0.119638,-0.090161,1.003505,-0.197570,-0.111859,-1.822249,1.356529,-0.234332,-4.833344,10.878829,-1.312370,-0.019809,-0.100798,0.000000,0.136073,0.184129,0.000000
0.980000,-2.982812,0.286995,-1.518234,0.970725,-0.121544,-0.091291,0.985044,-0.183458,-0.114265,-1.869401,1.466375,-0.246571,-4.594357,11.088657,-1.132779,-0.018393,-0.098932,0.000000,0.147096,0.188939,-0.000000
0.990000,-2.973056,0.285771,-1.519153,0.980481,-0.123303,-0.092447,0.966123,-0.168237,-0.116786,-1.914704,1.578092,-0.257546,-4.494472,11.244295,-1.090012,-0.016866,-0.097019,0.000000,0.158300,0.193547,0.000000
1.000000,-2.963203,0.284529,-1.520083,0.990046,-0.124905,-0.093627,0.946753,-0.151891,-0.119415,-1.958980,1.691287,-0.268079,-4.329865,11.400805,-0.985120,-0.015227,-0.095061,0.000000,0.169646,0.198041,-0.000000
1.010000,-2.953256,0.283273,-1.521025,0.999415,-0.126337,-0.094835,0.926950,-0.134406,-0.122146,-2.001398,1.806039,-0.277906,-4.154767,11.543228,-0.880748,-0.013473,-0.093059,0.000000,0.181141,0.202338,-0.000000
1.020000,-2.943215,0.282003,-1.521980,1.008584,-0.127589,-0.096071,0.906731,-0.115766,-0.124962,-2.042062,1.922067,-0.284756,-3.972735,11.663609,-0.581437,-0.011604,-0.091015,0.000000,0.192752,0.206425,-0.000000
1.030000,-2.933085,0.280722,-1.522947,1.017548,-0.128649,-0.097335,0.886115,-0.095960,-0.127841,-2.080743,2.039340,-0.291470,-3.761102,11.788513,-0.761914,-0.009618,-0.088931,0.000000,0.204481,0.210309,0.000000
1.040000,-2.922865,0.279431,-1.523927,1.026305,-0.129505,-0.098628,0.865123,-0.074976,-0.130791,-2.117302,2.157706,-0.298034,-3.551576,11.878150,-0.453120,-0.007514,-0.086809,0.000000,0.216312,0.213974,-0.000000
1.050000,-2.912559,0.278133,-1.524920,1.034849,-0.130144,-0.099951,0.843776,-0.052803,-0.133789,-2.151701,2.276880,-0.301288,-3.322792,11.957493,-0.289882,-0.005291,-0.084652,0.000000,0.228211,0.217389,-0.000000
1.060000,-2.902169,0.276829,-1.525926,1.043179,-0.130557,-0.101304,0.822098,-0.029435,-0.136813,-2.183489,2.396812,-0.303135,-3.075289,12.019718,-0.100827,-0.002949,-0.082462,0.000000,0.240178,0.220528,0.000000
1.070000,-2.891696,0.275522,-1.526946,1.051290,-0.130729,-0.102687,0.800112,-0.004866,-0.139847,-2.213554,2.517157,-0.303468,-2.893752,12.052150,0.060889,-0.000487,-0.080242,0.000000,0.252176,0.223479,-0.000000
1.080000,-2.881144,0.274215,-1.527980,1.059180,-0.130650,-0.104101,0.777838,0.020909,-0.142874,-2.240441,2.637917,-0.301360,-2.479860,12.096804,0.364624,0.002094,-0.077994,0.000000,0.264207,0.226090,0.000000
1.090000,-2.870513,0.272910,-1.529028,1.066846,-0.130307,-0.105544,0.755314,0.047893,-0.145865,-2.263946,2.758906,-0.296585,-2.260878,12.091697,0.569879,0.004797,-0.075721,0.000000,0.276253,0.228341,0.000000
1.100000,-2.859808,0.271610,-1.530091,1.074286,-0.129688,-0.107018,0.732566,0.076087,-0.148799,-2.285249,2.879733,-0.289691,-1.955667,12.076271,0.836142,0.007619,-0.073427,0.000000,0.288276,0.230357,-0.000000
1.110000,-2.849029,0.270317,-1.531168,1.081497,-0.128781,-0.108520,0.709622,0.105487,-0.151646,-2.303010,3.000364,-0.279151,-1.634229,12.039929,1.137512,0.010562,-0.071115,0.000000,0.300275,0.231994,0.000000
1.120000,-2.838178,0.269035,-1.532261,1.088478,-0.127574,-0.110050,0.686513,0.136092,-0.154383,-2.318254,3.120399,-0.268137,-1.373264,11.969495,1.202847,0.013625,-0.068788,0.000000,0.312209,0.233378,0.000000
1.130000,-2.827260,0.267767,-1.533369,1.095227,-0.126055,-0.111607,0.663270,0.167893,-0.156991,-2.329609,3.239810,-0.252212,-0.894066,11.908985,1.990001,0.016806,-0.066449,0.000000,0.324082,0.234345,-0.000000
1.140000,-2.816275,0.266515,-1.534493,1.101743,-0.124212,-0.113189,0.639935,0.200885,-0.159408,-2.336875,3.358373,-0.230969,-0.596023,11.793444,2.127313,0.020106,-0.064102,0.000000,0.335878,0.234876,0.000000
1.150000,-2.805226,0.265284,-1.535633,1.108025,-0.122034,-0.114795,0.616542,0.235056,-0.161609,-2.341157,3.475651,-0.208451,-0.217792,11.664282,2.515289,0.023523,-0.061751,0.000000,0.347548,0.235111,-0.000000
1.160000,-2.794115,0.264076,-1.536789,1.114074,-0.119507,-0.116421,0.593125,0.270394,-0.163560,-2.341443,3.591572,-0.181134,0.171429,11.510164,2.920708,0.027057,-0.059400,0.000000,0.359098,0.234928,0.000000
1.170000,-2.782945,0.262895,-1.537962,1.119888,-0.116622,-0.118065,0.569727,0.306882,-0.165220,-2.337602,3.705717,-0.150249,0.590716,11.319758,3.290269,0.030705,-0.057052,0.000000,0.370487,0.234326,0.000000
1.180000,-2.771718,0.261745,-1.539151,1.125468,-0.113366,-0.119724,0.546387,0.344502,-0.166549,-2.329758,3.817991,-0.114622,0.980213,11.130658,3.839843,0.034466,-0.054712,0.000000,0.381715,0.233314,-0.000000
1.190000,-2.760436,0.260629,-1.540356,1.130816,-0.109728,-0.121395,0.523145,0.383235,-0.167496,-2.317782,3.928130,-0.073988,1.425662,10.887040,4.260157,0.038338,-0.052385,0.000000,0.392763,0.231881,0.000000
1.200000,-2.749102,0.259551,-1.541579,1.135932,-0.105698,-0.123072,0.500046,0.423056,-0.168015,-2.301269,4.035683,-0.029085,1.870924,10.624232,4.754412,0.042320,-0.050073,0.000000,0.403592,0.229996,0.000000
1.210000,-2.737719,0.258516,-1.542818,1.140817,-0.101264,-0.124753,0.477135,0.463939,-0.168056,-2.280180,4.140536,0.021966,2.330960,10.332874,5.287587,0.046410,-0.047782,0.000000,0.414206,0.227648,-0.000000
1.220000,-2.726287,0.257527,-1.544074,1.145475,-0.096415,-0.126432,0.454456,0.505856,-0.167572,-2.254808,4.242164,0.075153,2.766181,9.995873,5.520314,0.050604,-0.045516,0.000000,0.424542,0.224889,0.000000
1.230000,-2.714810,0.256589,-1.545346,1.149907,-0.091143,-0.128103,0.432056,0.548772,-0.166526,-2.224384,4.340520,0.135949,3.321329,9.670311,6.647395,0.054900,-0.043280,0.000000,0.434630,0.221621,-0.000000
1.240000,-2.703289,0.255706,-1.546636,1.154117,-0.085437,-0.129760,0.409986,0.592654,-0.164825,-2.188750,4.435301,0.204787,3.787051,9.272432,6.954756,0.059295,-0.041079,0.000000,0.444459,0.217831,-0.000000
1.250000,-2.691728,0.254882,-1.547942,1.158108,-0.079287,-0.131397,0.388296,0.637464,-0.162423,-2.148423,4.525928,0.276538,4.300800,8.855726,7.566693,0.063788,-0.038917,0.000000,0.453952,0.213597,0.000000
1.260000,-2.680128,0.254122,-1.549264,1.161885,-0.072685,-0.133006,0.367037,0.683159,-0.159265,-2.102502,4.612263,0.356312,4.831698,8.405166,8.205781,0.068373,-0.036800,0.000000,0.463138,0.208810,-0.000000
1.270000,-2.668491,0.253430,-1.550602,1.165451,-0.065621,-0.134580,0.346260,0.729693,-0.155291,-2.052242,4.693914,0.439005,5.274348,7.919634,8.514797,0.073049,-0.034733,0.000000,0.471958,0.203617,0.000000
1.280000,-2.656820,0.252811,-1.551955,1.168812,-0.058088,-0.136109,0.326013,0.777020,-0.150454,-1.995880,4.770546,0.530422,6.001598,7.400826,9.776435,0.077811,-0.032719,0.000000,0.480430,0.197824,-0.000000
1.290000,-2.645116,0.252270,-1.553324,1.171973,-0.050078,-0.137585,0.306363,0.825086,-0.144650,-1.933228,4.841803,0.630943,6.478139,6.844224,10.148414,0.082657,-0.030766,0.000000,0.488543,0.191415,0.000000
1.300000,-2.633381,0.251811,-1.554706,1.174941,-0.041584,-0.138999,0.287363,0.873837,-0.137827,-1.865835,4.907311,0.734965,7.054767,6.251437,10.837851,0.087581,-0.028879,0.000000,0.496230,0.184563,-0.000000
1.310000,-2.621617,0.251440,-1.556103,1.177723,-0.032599,-0.140338,0.269070,0.923212,-0.129920,-1.791635,4.966567,0.847820,7.653073,5.618185,11.544514,0.092580,-0.027063,0.000000,0.503501,0.177046,-0.000000
1.320000,-2.609827,0.251161,-1.557513,1.180325,-0.023118,-0.141593,0.251540,0.973149,-0.120862,-1.713973,5.019775,0.964128,8.010494,4.992874,11.901727,0.097649,-0.025324,0.000000,0.510345,0.169212,-0.000000
1.330000,-2.598011,0.250979,-1.558935,1.182756,-0.013135,-0.142752,0.234817,1.023583,-0.110605,-1.628673,5.065789,1.089727,9.054956,4.202513,13.224048,0.102785,-0.023665,0.000000,0.516717,0.160628,-0.000000
1.340000,-2.586172,0.250900,-1.560368,1.185024,-0.002645,-0.143801,0.218994,1.074439,-0.099035,-1.535477,5.104179,1.224884,9.454252,3.493165,13.621193,0.107982,-0.022097,0.000000,0.522601,0.151265,0.000000
1.350000,-2.574311,0.250928,-1.561810,1.187139,0.008355,-0.144728,0.204118,1.125643,-0.086098,-1.438458,5.135311,1.363717,10.081268,2.702051,14.329836,0.113235,-0.020623,0.000000,0.527990,0.141541,0.000000
1.360000,-2.562430,0.251068,-1.563262,1.189110,0.019869,-0.145518,0.190254,1.177116,-0.071724,-1.333173,5.157831,1.512373,10.731362,1.863638,15.057728,0.118540,-0.019251,0.000000,0.532832,0.130992,0.000000
1.370000,-2.550530,0.251327,-1.564720,1.190948,0.031898,-0.146157,0.177457,1.228776,-0.055854,-1.226078,5.173075,1.661687,10.925564,1.111627,15.134808,0.123890,-0.017985,0.000000,0.537172,0.120277,0.000000
1.380000,-2.538612,0.251708,-1.566184,1.192663,0.044445,-0.146630,0.165765,1.280544,-0.038452,-1.109673,5.178527,1.821987,12.362571,-0.030217,16.932777,0.129281,-0.016830,0.000000,0.540896,0.108616,0.000000
1.390000,-2.526677,0.252217,-1.567652,1.194267,0.057509,-0.146921,0.155297,1.332312,-0.019374,-0.983643,5.173674,1.993558,12.602662,-0.880514,17.042364,0.134706,-0.015798,0.000000,0.543985,0.095966,-0.000000
1.400000,-2.514727,0.252860,-1.569122,1.195773,0.071091,-0.147012,0.146095,1.383990,0.001415,-0.855595,5.160204,2.165602,13.244662,-1.887415,17.695443,0.140159,-0.014894,0.000000,0.546481,0.083099,0.000000
1.410000,-2.502762,0.253641,-1.570592,1.197194,0.085188,-0.146886,0.138213,1.435475,0.023977,-0.719655,5.134988,2.347939,13.871001,-2.955871,18.343319,0.145633,-0.014123,0.000000,0.548217,0.069394,-0.000000
1.420000,-2.490783,0.254566,-1.572059,1.198542,0.099799,-0.146526,0.131717,1.486670,0.048361,-0.578861,5.102850,2.528454,14.354320,-3.679698,18.163370,0.151122,-0.013493,0.000000,0.549513,0.055159,-0.000000
1.430000,-2.478791,0.255639,-1.573521,1.199833,0.114920,-0.145913,0.126660,1.537485,0.074584,-0.431174,5.057037,2.719680,15.182857,-5.496208,20.086827,0.156620,-0.013009,0.000000,0.549889,0.040150,-0.000000
1.440000,-2.466786,0.256866,-1.574976,1.201080,0.130547,-0.145028,0.123117,1.587762,0.102794,-0.276647,4.996853,2.921718,15.650163,-6.344529,19.897501,0.162117,-0.012682,0.000000,0.549300,0.024354,-0.000000
1.450000,-2.454769,0.258251,-1.576421,1.202300,0.146674,-0.143851,0.121140,1.637398,0.133002,-0.117647,4.928289,3.120957,16.215374,-7.577074,20.353111,0.167605,-0.012518,0.000000,0.548132,0.008005,0.000000
1.460000,-2.442740,0.259801,-1.577852,1.203508,0.163293,-0.142361,0.120769,1.686276,0.165220,0.043714,4.845172,3.322704,16.685059,-8.857554,20.645042,0.173075,-0.012521,0.000000,0.545849,-0.008713,-0.000000
1.470000,-2.430699,0.261519,-1.579267,1.204721,0.180396,-0.140539,0.122081,1.734274,0.199518,0.221801,4.752808,3.539696,18.314891,-9.810814,22.101553,0.178521,-0.012702,0.000000,0.543214,-0.027312,-0.000000
1.480000,-2.418646,0.263410,-1.580662,1.205956,0.197975,-0.138364,0.125191,1.781279,0.235990,0.397052,4.644858,3.751053,16.712477,-11.790955,20.137196,0.183935,-0.013075,0.000000,0.539224,-0.045801,0.000000
1.490000,-2.406580,0.265480,-1.582033,1.207231,0.216018,-0.135813,0.130005,1.827116,0.274510,0.568395,4.520707,3.955135,18.172037,-12.853763,21.312604,0.189300,-0.013633,0.000000,0.533755,-0.064086,0.000000
1.500000,-2.394501,0.267732,-1.583377,1.208562,0.234513,-0.132866,0.136621,1.871662,0.315145,0.755157,4.386051,4.171550,18.559884,-14.273286,21.312699,0.194609,-0.014388,0.000000,0.527743,-0.084217,0.000000
1.510000,-2.382409,0.270172,-1.584689,1.209969,0.253446,-0.129503,0.145125,1.914776,0.357928,0.946803,4.234186,4.385088,19.046265,-15.750135,21.282246,0.199850,-0.015353,0.000000,0.520205,-0.105132,-0.000000
1.520000,-2.370301,0.272802,-1.585965,1.211471,0.272803,-0.125701,0.155514,1.956325,0.402837,1.129388,4.074218,4.595999,18.164864,-16.591505,20.981015,0.205011,-0.016530,0.000000,0.512047,-0.125415,-0.000000
1.530000,-2.358179,0.275629,-1.587202,1.213086,0.292567,-0.121439,0.167760,1.996194,0.449847,1.324672,3.895057,4.806418,20.909197,-19.255151,21.090319,0.210085,-0.017921,0.000000,0.502151,-0.147364,0.000000
1.540000,-2.346039,0.278655,-1.588393,1.214833,0.312721,-0.116697,0.182058,2.034157,0.498961,1.533355,3.696004,5.015555,20.117573,-20.211237,20.624383,0.215048,-0.019550,0.000000,0.490387,-0.171113,-0.000000
1.550000,-2.333882,0.281885,-1.589534,1.216734,0.333244,-0.111453,0.198384,2.070090,0.550139,1.732899,3.487829,5.219400,20.488289,-21.772204,20.224142,0.219890,-0.021421,0.000000,0.477736,-0.194331,-0.000000
1.560000,-2.321704,0.285321,-1.590620,1.218808,0.354115,-0.105687,0.216749,2.103842,0.603340,1.940750,3.259665,5.420028,20.807489,-23.376754,19.732079,0.224596,-0.023538,0.000000,0.463072,-0.218894,0.000000
1.570000,-2.309505,0.288968,-1.591646,1.221076,0.375313,-0.099379,0.237187,2.135269,0.658509,2.146447,3.024739,5.612287,20.584667,-24.079934,18.848983,0.229149,-0.025912,0.000000,0.447586,-0.243730,-0.000000
1.580000,-2.297282,0.292828,-1.592606,1.223558,0.396812,-0.092511,0.259699,2.164261,0.715571,2.357751,2.768173,5.799729,21.676399,-27.247647,18.625014,0.233539,-0.028548,0.000000,0.429757,-0.269711,-0.000000
1.590000,-2.285033,0.296905,-1.593494,1.226277,0.418589,-0.085062,0.284363,2.190554,0.774486,2.574547,2.489336,5.981417,21.411340,-28.042797,17.543958,0.237736,-0.031461,0.000000,0.409412,-0.296876,0.000000
1.600000,-2.272755,0.301201,-1.594305,1.229253,0.440614,-0.077015,0.311174,2.214032,0.835158,2.788029,2.203318,6.151471,21.536707,-29.632189,16.594092,0.241724,-0.034658,0.000000,0.387903,-0.324301,0.000000
1.610000,-2.260447,0.305718,-1.595032,1.232507,0.462860,-0.068353,0.340117,2.234549,0.897459,3.000261,1.897199,6.306322,21.517379,-31.213724,15.394284,0.245484,-0.038143,0.000000,0.363688,-0.352221,0.000000
1.620000,-2.248104,0.310459,-1.595670,1.236062,0.485295,-0.059061,0.371228,2.251954,0.961327,3.223854,1.582575,6.468497,22.591284,-32.068903,16.011309,0.248996,-0.041928,0.000000,0.338478,-0.382146,-0.000000
1.630000,-2.235725,0.315425,-1.596211,1.239939,0.507888,-0.049121,0.404563,2.266132,1.026736,3.439287,1.248314,6.604954,20.465817,-34.788355,11.227595,0.252243,-0.046028,0.000000,0.310137,-0.411849,0.000000
1.640000,-2.223304,0.320617,-1.596650,1.244160,0.530606,-0.038522,0.439977,2.276852,1.093323,3.645080,0.894296,6.713029,21.286809,-35.640825,11.384558,0.255187,-0.050432,0.000000,0.278423,-0.441121,-0.000000
1.650000,-2.210840,0.326037,-1.596980,1.248746,0.553413,-0.027251,0.477504,2.283999,1.161023,3.859667,0.532555,6.823590,21.015622,-37.063485,9.691407,0.257808,-0.055153,0.000000,0.245341,-0.472187,-0.000000
1.660000,-2.198328,0.331685,-1.597193,1.253717,0.576273,-0.015298,0.517154,2.287442,1.229699,4.070086,0.153602,6.908262,20.748941,-38.434099,7.868814,0.260082,-0.060199,0.000000,0.208968,-0.503465,-0.000000
1.670000,-2.185764,0.337563,-1.597283,1.259096,0.599149,-0.002655,0.558871,2.287049,1.299178,4.271579,-0.233300,6.986510,19.836354,-39.207720,7.134637,0.261982,-0.065572,0.000000,0.170745,-0.534535,-0.000000
1.680000,-2.173145,0.343668,-1.597244,1.264902,0.622001,0.010687,0.602587,2.282721,1.369333,4.472842,-0.636039,7.037413,20.413170,-41.334818,3.007369,0.263485,-0.071270,0.000000,0.129061,-0.566210,-0.000000
1.690000,-2.160465,0.350002,-1.597067,1.271154,0.644790,0.024733,0.648328,2.274275,1.439823,4.673545,-1.054161,7.058963,19.412853,-41.997575,1.917108,0.264551,-0.077303,0.000000,0.083742,-0.598392,0.000000
1.700000,-2.147720,0.356564,-1.596747,1.277875,0.667473,0.039485,0.696017,2.261623,1.510489,4.863396,-1.478011,7.070025,18.844451,-43.030724,-0.352862,0.265154,-0.083667,0.000000,0.036315,-0.630018,-0.000000
1.710000,-2.134906,0.363351,-1.596275,1.285081,0.690008,0.054943,0.745574,2.244677,1.581111,5.046773,-1.912656,7.050004,18.138741,-43.932350,-2.781432,0.265265,-0.090358,0.000000,-0.014532,-0.661328,-0.000000
1.720000,-2.122017,0.370363,-1.595645,1.292792,0.712352,0.071106,0.796953,2.223338,1.651478,5.228844,-2.356754,7.022260,17.949369,-44.815324,-3.644031,0.264854,-0.097375,0.000000,-0.068069,-0.693091,0.000000
1.730000,-2.109048,0.377598,-1.594851,1.301026,0.734460,0.087971,0.850109,2.197521,1.721431,5.398929,-2.807459,6.958744,16.043511,-45.302015,-9.099527,0.263893,-0.104716,0.000000,-0.124904,-0.723665,-0.000000
1.740000,-2.095994,0.385052,-1.593884,1.309800,0.756287,0.105532,0.904885,2.167172,1.790521,5.555728,-3.263380,6.857445,15.616379,-45.910609,-10.302561,0.262345,-0.112361,0.000000,-0.185015,-0.752677,0.000000
1.750000,-2.082850,0.392722,-1.592738,1.319129,0.777788,0.123778,0.961215,2.132234,1.858558,5.708287,-3.724743,6.745084,14.566898,-46.285103,-13.047907,0.260184,-0.120302,0.000000,-0.247690,-0.781406,0.000000
1.760000,-2.069610,0.400606,-1.591406,1.329029,0.798916,0.142698,1.018997,2.092680,1.925287,5.845950,-4.186096,6.595400,13.398490,-46.453321,-15.905245,0.257382,-0.128525,0.000000,-0.313088,-0.808052,0.000000
1.770000,-2.056268,0.408699,-1.589882,1.339513,0.819626,0.162278,1.078130,2.048469,1.990451,5.980078,-4.657814,6.435957,12.978003,-47.383064,-16.952292,0.253911,-0.137012,0.000000,-0.381623,-0.834223,-0.000000
1.780000,-2.042818,0.416997,-1.588158,1.350596,0.839870,0.182502,1.138535,1.999548,2.053864,6.096095,-5.123124,6.236039,10.197077,-45.635077,-23.065386,0.249744,-0.145751,0.000000,-0.452159,-0.857471,0.000000
1.790000,-2.029254,0.425495,-1.586229,1.362287,0.859602,0.203348,1.199983,1.946040,2.115024,6.192515,-5.579628,5.994065,9.511063,-46.119866,-24.359372,0.244863,-0.154698,0.000000,-0.524296,-0.877259,0.000000
1.800000,-2.015570,0.434187,-1.584089,1.374599,0.878775,0.224794,1.262371,1.887932,2.173724,6.282305,-6.040800,5.740594,7.995344,-45.600891,-27.303331,0.239250,-0.163831,0.000000,-0.598655,-0.895520,-0.000000
1.810000,-2.001760,0.443068,-1.581732,1.387538,0.897345,0.246814,1.325547,1.825285,2.229703,6.349629,-6.486627,5.450094,6.326861,-44.785723,-30.234809,0.232890,-0.173117,0.000000,-0.673286,-0.909555,-0.000000
1.820000,-1.987817,0.452132,-1.579151,1.401112,0.915266,0.269378,1.389377,1.758128,2.282674,6.416590,-6.947406,5.141131,6.207229,-46.122671,-32.093214,0.225770,-0.182523,0.000000,-0.751237,-0.922253,-0.000000
1.830000,-1.973735,0.461371,-1.576342,1.415327,0.932492,0.292456,1.453780,1.686430,2.332405,6.455777,-7.382919,4.797007,1.591768,-40.909982,-36.739629,0.217872,-0.192023,0.000000,-0.827586,-0.929577,0.000000
1.840000,-1.959508,0.470779,-1.573300,1.430188,0.948981,0.316014,1.518387,1.610575,2.378492,6.465293,-7.789559,4.417508,1.153619,-41.613333,-38.601184,0.209228,-0.201544,0.000000,-0.901393,-0.930951,-0.000000
1.850000,-1.945130,0.480348,-1.570021,1.445695,0.964690,0.340013,1.583089,1.530591,2.420706,6.471392,-8.204126,4.020601,-0.794617,-40.044703,-41.310327,0.199837,-0.211050,0.000000,-0.976543,-0.929919,0.000000
1.860000,-1.930592,0.490070,-1.566499,1.461849,0.979579,0.364414,1.647705,1.446603,2.458813,6.447908,-8.589751,3.596604,-2.860961,-38.233648,-43.846000,0.189711,-0.220497,0.000000,-1.048044,-0.922726,-0.000000
1.870000,-1.915890,0.499937,-1.562731,1.478648,0.993609,0.389175,1.712063,1.358763,2.492525,6.423676,-8.979080,3.140613,-3.010845,-38.452477,-46.968845,0.178872,-0.229835,0.000000,-1.119834,-0.912701,0.000000
1.880000,-1.901017,0.509940,-1.558714,1.496089,1.006742,0.414249,1.776060,1.267145,2.521563,6.366183,-9.334070,2.665282,-8.524817,-32.480197,-48.063249,0.167335,-0.239023,0.000000,-1.186049,-0.895928,-0.000000
1.890000,-1.885966,0.520069,-1.554445,1.514167,1.018941,0.439590,1.839262,1.172216,2.545776,6.273705,-9.651356,2.172475,-8.945574,-32.108997,-50.839779,0.155174,-0.247983,0.000000,-1.245670,-0.872166,-0.000000
1.900000,-1.870732,0.530315,-1.549922,1.532872,1.030176,0.465148,1.901543,1.074107,2.564914,6.178488,-9.965840,1.652132,-11.123658,-29.603673,-52.835994,0.142426,-0.256671,0.000000,-1.303109,-0.845173,-0.000000
1.910000,-1.855307,0.540669,-1.545142,1.552194,1.040414,0.490871,1.962751,0.973042,2.578781,6.059899,-10.241800,1.118626,-13.173919,-26.868859,-54.598928,0.129140,-0.265042,0.000000,-1.352861,-0.812798,-0.000000
1.920000,-1.839686,0.551120,-1.540104,1.572122,1.049627,0.516705,2.022626,0.869258,2.587169,5.909696,-10.514742,0.553745,-16.301708,-26.428719,-57.604890,0.115376,-0.273039,0.000000,-1.399426,-0.773432,0.000000
1.930000,-1.823863,0.561658,-1.534807,1.592641,1.057790,0.542595,2.080903,0.762905,2.589841,5.745737,-10.743313,-0.017265,-16.469088,-19.224445,-56.540299,0.101184,-0.280603,0.000000,-1.436679,-0.730368,0.000000
1.940000,-1.807831,0.572272,-1.529252,1.613735,1.064879,0.568483,2.137502,0.654560,2.586819,5.569005,-10.924461,-0.591357,-19.441057,-18.265311,-58.990448,0.086677,-0.287712,0.000000,-1.463966,-0.684057,-0.000000
1.950000,-1.791586,0.582952,-1.523438,1.635385,1.070875,0.594312,2.192172,0.544421,2.577919,5.361849,-11.097391,-1.189996,-21.417564,-15.028164,-59.954711,0.071917,-0.294315,0.000000,-1.486456,-0.631694,-0.000000
1.960000,-1.775122,0.593686,-1.517366,1.657571,1.075762,0.620021,2.244685,0.432774,2.563038,5.137591,-11.225870,-1.786578,-23.394815,-11.666306,-60.599164,0.056982,-0.300370,0.000000,-1.499073,-0.576258,-0.000000
1.970000,-1.758433,0.604463,-1.511038,1.680271,1.079527,0.645552,2.294861,0.319934,2.542066,4.894393,-11.339778,-2.412960,-25.266212,-10.121256,-63.398457,0.041953,-0.305844,0.000000,-1.505977,-0.516589,-0.000000
1.980000,-1.741515,0.615273,-1.504456,1.703460,1.082158,0.670842,2.342509,0.206139,2.514827,4.631820,-11.407467,-3.027728,-27.239462,-3.377504,-59.476425,0.026897,-0.310704,0.000000,-1.502835,-0.454594,0.000000
1.990000,-1.724362,0.626103,-1.497622,1.727112,1.083648,0.695829,2.387434,0.091953,2.481574,4.350427,-11.427071,-3.626755,-28.997432,-1.530106,-61.539458,0.011930,-0.314935,0.000000,-1.489801,-0.390897,0.000000
2.000000,-1.706971,0.636942,-1.490541,1.751199,1.083996,0.720453,2.429460,-0.022362,2.442199,4.051852,-11.429569,-4.247070,-30.734917,2.021302,-61.234742,-0.002882,-0.318513,0.000000,-1.471277,-0.324574,-0.000000
2.010000,-1.689337,0.647779,-1.483215,1.775691,1.083202,0.744652,2.468408,-0.136500,2.396700,3.734735,-11.392322,-4.851173,-32.418047,5.503914,-60.639841,-0.017468,-0.321424,0.000000,-1.444669,-0.257324,-0.000000
2.020000,-1.671456,0.658602,-1.475649,1.800556,1.081268,0.768367,2.504121,-0.250086,2.345110,3.406147,-11.318835,-5.469116,-33.532452,9.114712,-61.844551,-0.031752,-0.323657,0.000000,-1.410839,-0.189132,0.000000
2.030000,-1.653325,0.669401,-1.467849,1.825762,1.078203,0.791534,2.536468,-0.362766,2.287399,3.059200,-11.211705,-6.064924,-35.847336,12.301976,-57.242703,-0.045664,-0.325208,0.000000,-1.370713,-0.120935,-0.000000
2.040000,-1.634940,0.680163,-1.459821,1.851274,1.074017,0.814095,2.565244,-0.474211,2.223907,2.694590,-11.071459,-6.634650,-36.804868,15.812357,-57.734624,-0.059147,-0.326080,0.000000,-1.325032,-0.053266,-0.000000
2.050000,-1.616298,0.690877,-1.451569,1.877055,1.068724,0.835993,2.590335,-0.584077,2.154670,2.321367,-10.896328,-7.209691,-38.069289,19.125661,-56.163407,-0.072146,-0.326277,0.000000,-1.273892,0.013815,-0.000000
2.060000,-1.597398,0.701533,-1.443103,1.903068,1.062342,0.857170,2.611681,-0.692041,2.079909,1.947479,-10.691487,-7.736208,-38.941552,22.303906,-53.892854,-0.084613,-0.325818,0.000000,-1.218899,0.077084,0.000000
2.070000,-1.578236,0.712120,-1.434429,1.929275,1.054891,0.877573,2.629075,-0.797764,1.999636,1.522228,-10.446207,-8.330898,-43.900592,26.270818,-60.362202,-0.096504,-0.324700,0.000000,-1.158286,0.146757,0.000000
2.080000,-1.558812,0.722628,-1.425554,1.955635,1.046395,0.897143,2.642204,-0.900887,1.913593,1.115807,-10.176183,-8.845204,-37.294259,27.698322,-42.323510,-0.107773,-0.322898,0.000000,-1.095695,0.208778,-0.000000
2.090000,-1.539123,0.733045,-1.416489,1.982107,1.036882,0.915830,2.651485,-1.001215,1.823064,0.732517,-9.883327,-9.270849,-41.550850,31.316544,-47.472804,-0.118415,-0.320530,0.000000,-1.032152,0.262629,-0.000000
2.100000,-1.519169,0.743362,-1.407241,2.008651,1.026381,0.933589,2.656665,-1.098424,1.727902,0.303941,-9.554322,-9.754346,-41.943193,33.992752,-44.527320,-0.128402,-0.317584,0.000000,-0.964886,0.321429,0.000000
2.110000,-1.498950,0.753569,-1.397820,2.035226,1.014925,0.950373,2.657559,-1.192251,1.628064,-0.127182,-9.207439,-10.211816,-42.546548,36.417515,-42.283829,-0.137713,-0.314058,0.000000,-0.897228,0.377159,-0.000000
2.120000,-1.478465,0.763658,-1.388237,2.061788,1.002549,0.966137,2.654243,-1.282409,1.524121,-0.530805,-8.816788,-10.556765,-39.821127,40.652307,-31.216100,-0.146339,-0.310005,0.000000,-0.827799,0.423667,0.000000
2.130000,-1.457714,0.773617,-1.378501,2.088297,0.989290,0.980844,2.646851,-1.368562,1.416798,-0.958116,-8.416643,-10.930861,-45.671136,39.312709,-43.728835,-0.154271,-0.305485,0.000000,-0.758900,0.471712,-0.000000
2.140000,-1.436699,0.783441,-1.368624,2.114710,0.975191,0.994458,2.634985,-1.450729,1.305353,-1.410118,-8.010344,-11.339455,-43.026440,42.953667,-33.404696,-0.161520,-0.300450,0.000000,-0.690761,0.521329,0.000000
2.150000,-1.415421,0.793119,-1.358616,2.140982,0.960290,1.006940,2.618777,-1.528628,1.190457,-1.832432,-7.567087,-11.637455,-43.087372,44.626126,-30.735312,-0.168085,-0.294956,0.000000,-0.622363,0.562120,0.000000
2.160000,-1.393880,0.802644,-1.348489,2.167071,0.944633,1.018258,2.598325,-1.602074,1.072626,-2.257023,-7.120499,-11.922941,-42.784290,46.002799,-27.548878,-0.173975,-0.289052,0.000000,-0.556025,0.600950,-0.000000
2.170000,-1.372080,0.812009,-1.338254,2.192934,0.928264,1.028383,2.573570,-1.670886,0.952009,-2.696614,-6.635361,-12.199202,-44.158651,49.681092,-26.522650,-0.179197,-0.282752,0.000000,-0.488050,0.639307,0.000000
2.180000,-1.350022,0.821207,-1.327925,2.218528,0.911231,1.037289,2.544454,-1.734807,0.828807,-3.119738,-6.155062,-12.428630,-40.410376,46.300725,-19.313878,-0.183749,-0.276075,0.000000,-0.423602,0.672959,0.000000
2.190000,-1.327710,0.830231,-1.317513,2.243810,0.893583,1.044953,2.511247,-1.794027,0.703609,-3.523514,-5.683646,-12.608842,-41.277393,49.264568,-17.895123,-0.187683,-0.269080,0.000000,-0.363038,0.701883,0.000000
2.200000,-1.305147,0.839077,-1.307030,2.268739,0.875367,1.051356,2.473936,-1.848355,0.576652,-3.936617,-5.181731,-12.776324,-40.361074,49.764928,-14.417046,-0.191005,-0.261786,0.000000,-0.301766,0.730178,0.000000
2.210000,-1.282337,0.847737,-1.296490,2.293275,0.856633,1.056481,2.432641,-1.897711,0.448342,-4.318640,-4.689850,-12.876434,-39.017979,49.968466,-10.430460,-0.193735,-0.254229,0.000000,-0.244687,0.752589,-0.000000
2.220000,-1.259283,0.856208,-1.285905,2.317379,0.837430,1.060319,2.387367,-1.942036,0.318864,-4.744088,-4.170277,-13.029309,-43.137702,52.555908,-15.455574,-0.195890,-0.246424,0.000000,-0.186053,0.779657,0.000000
2.230000,-1.235991,0.864484,-1.275288,2.341009,0.817810,1.062854,2.337947,-1.981184,0.188107,-5.119835,-3.667875,-13.087146,-31.899436,47.845884,4.030567,-0.197474,-0.238363,0.000000,-0.132574,0.798675,-0.000000
2.240000,-1.212465,0.872563,-1.264652,2.364127,0.797822,1.064082,2.285177,-2.015475,0.057495,-5.440561,-3.186703,-13.043679,-35.165751,49.719220,-0.079962,-0.198561,-0.230165,0.000000,-0.084542,0.809681,0.000000
2.250000,-1.188710,0.880440,-1.254011,2.386701,0.777517,1.064004,2.228962,-2.044828,-0.073011,-5.797848,-2.685792,-13.048812,-33.346041,49.066518,3.754810,-0.199158,-0.221823,0.000000,-0.035479,0.824982,-0.000000
2.260000,-1.164733,0.888112,-1.243376,2.408695,0.756942,1.062622,2.169327,-2.069271,-0.203406,-6.126843,-2.204848,-13.028949,-31.706126,48.177026,6.482210,-0.199284,-0.213345,0.000000,0.009836,0.836786,0.000000
2.270000,-1.140538,0.895578,-1.232763,2.430077,0.736147,1.059938,2.106541,-2.088870,-0.332990,-6.424971,-1.712892,-12.861761,-28.619331,49.127203,20.836767,-0.198971,-0.204773,0.000000,0.052216,0.842749,-0.000000
2.280000,-1.116133,0.902835,-1.222182,2.450816,0.715181,1.055968,2.040853,-2.103618,-0.460840,-6.713953,-1.245080,-12.740673,-29.189438,44.372308,3.168680,-0.198248,-0.196149,0.000000,0.092014,0.849023,-0.000000
2.290000,-1.091524,0.909881,-1.211647,2.470884,0.694090,1.050723,1.972285,-2.113871,-0.588038,-6.994184,-0.804674,-12.675461,-26.130236,44.746262,16.008167,-0.197140,-0.187452,0.000000,0.129239,0.855578,0.000000
2.300000,-1.066718,0.916716,-1.201172,2.490253,0.672918,1.044213,1.901088,-2.119677,-0.713785,-7.242510,-0.359747,-12.473218,-24.244625,43.150494,18.282495,-0.195673,-0.178719,0.000000,0.163573,0.857124,-0.000000
2.310000,-1.041722,0.923339,-1.190767,2.508898,0.651711,1.036454,1.827447,-2.121172,-0.837520,-7.483451,0.057134,-12.268401,-22.443149,41.345056,21.005658,-0.193880,-0.169975,0.000000,0.194544,0.858433,0.000000
2.320000,-1.016543,0.929750,-1.180447,2.526795,0.630509,1.027469,1.751601,-2.118504,-0.959199,-7.677515,0.477218,-12.068761,-17.815408,41.541119,20.504807,-0.191781,-0.161237,0.000000,0.225300,0.856130,-0.000000
2.330000,-0.991188,0.935950,-1.170222,2.543924,0.609354,1.017277,1.673891,-2.111746,-1.078737,-7.870126,0.864266,-11.825068,-20.747672,35.815192,28.259871,-0.189390,-0.152533,0.000000,0.251758,0.853641,0.000000
2.340000,-0.965667,0.941938,-1.160105,2.560266,0.588286,1.005904,1.594186,-2.101347,-1.195538,-8.063040,1.215615,-11.536532,-16.366889,35.558488,27.801365,-0.186761,-0.143853,0.000000,0.273902,0.851235,0.000000
2.350000,-0.939986,0.947716,-1.150108,2.575802,0.567339,0.993376,1.512809,-2.087419,-1.309522,-8.209822,1.565638,-11.255812,-14.445911,33.316568,29.930655,-0.183910,-0.135220,0.000000,0.295806,0.845617,-0.000000
2.360000,-0.914153,0.953285,-1.140241,2.590517,0.546549,0.979723,1.430069,-2.070079,-1.420586,-8.333496,1.900195,-10.955057,-12.200411,31.324194,31.628977,-0.180851,-0.126655,0.000000,0.315800,0.838525,-0.000000
2.370000,-0.888178,0.958647,-1.130517,2.604399,0.525948,0.964975,1.346059,-2.049666,-1.528452,-8.471406,2.171125,-10.610588,-13.523529,25.044122,35.841048,-0.177619,-0.118163,0.000000,0.329482,0.832993,-0.000000
2.380000,-0.862068,0.963805,-1.120945,2.617434,0.505564,0.949166,1.260803,-2.026624,-1.632815,-8.564971,2.446918,-10.268109,-5.132518,30.173938,32.581575,-0.174258,-0.109740,0.000000,0.343635,0.824531,0.000000
2.390000,-0.835832,0.968759,-1.111537,2.629613,0.485425,0.932330,1.174930,-2.000686,-1.733844,-8.611676,2.730078,-9.931339,-6.086945,24.236353,36.150401,-0.170742,-0.101431,0.000000,0.358482,0.813017,-0.000000
2.400000,-0.809479,0.973514,-1.102302,2.640931,0.465559,0.914501,1.088495,-1.972271,-1.831294,-8.670875,2.950278,-9.557659,-3.889174,22.002217,37.151696,-0.167111,-0.093232,0.000000,0.367520,0.803138,0.000000
2.410000,-0.783017,0.978072,-1.093250,2.651382,0.445987,0.895716,1.001641,-1.941749,-1.925078,-8.695975,3.148807,-9.199860,-1.780972,19.395781,37.697394,-0.163396,-0.085148,0.000000,0.375118,0.791412,0.000000
2.420000,-0.756454,0.982435,-1.084391,2.660963,0.426730,0.876012,0.914592,-1.909244,-2.015006,-8.712593,3.353726,-8.773735,-0.930431,19.933726,44.280603,-0.159608,-0.077190,0.000000,0.382468,0.779424,0.000000
2.430000,-0.729800,0.986607,-1.075733,2.669673,0.407808,0.855430,0.827486,-1.874840,-2.100692,-8.701745,3.512771,-8.382376,3.106205,11.821104,33.866013,-0.155758,-0.069363,0.000000,0.386730,0.766341,0.000000
2.440000,-0.703064,0.990592,-1.067285,2.677514,0.389237,0.834010,0.740654,-1.839163,-2.182815,-8.663369,3.623495,-8.031732,3.923818,11.988906,39.491907,-0.151885,-0.061680,0.000000,0.387795,0.752079,0.000000
2.450000,-0.676253,0.994393,-1.059055,2.684488,0.371029,0.811787,0.654230,-1.802327,-2.261068,-8.618277,3.738425,-7.620554,5.702776,9.338980,39.483912,-0.148001,-0.054145,0.000000,0.388702,0.737831,0.000000
2.460000,-0.649377,0.998014,-1.051052,2.690600,0.353194,0.788802,0.568273,-1.764521,-2.335232,-8.572806,3.818392,-7.210021,6.929758,6.800208,39.877765,-0.144120,-0.046756,0.000000,0.387082,0.724443,-0.000000
2.470000,-0.622444,1.001458,-1.043282,2.695856,0.335741,0.765095,0.483102,-1.726032,-2.405479,-8.447349,3.875845,-6.848429,14.688843,4.560552,35.070932,-0.140261,-0.039528,0.000000,0.384552,0.705588,0.000000
2.480000,-0.595462,1.004730,-1.035752,2.700266,0.318675,0.740704,0.399200,-1.687094,-2.472069,-8.351928,3.906895,-6.453353,4.267241,1.654661,44.010938,-0.136437,-0.032491,0.000000,0.379800,0.689881,-0.000000
2.490000,-0.568441,1.007833,-1.028470,2.703841,0.302000,0.715668,0.315916,-1.647982,-2.534405,-8.292549,3.911919,-6.022076,11.075046,-0.499713,39.556416,-0.132673,-0.025586,0.000000,0.372922,0.677793,-0.000000
2.500000,-0.541388,1.010771,-1.021441,2.706588,0.285715,0.690030,0.233653,-1.608923,-2.592721,-8.160412,3.895986,-5.639854,11.858784,-2.810253,39.535953,-0.128980,-0.018837,0.000000,0.365273,0.660749,-0.000000
2.510000,-0.514312,1.013549,-1.014671,2.708518,0.269820,0.663827,0.152571,-1.570063,-2.647108,-8.057039,3.874453,-5.237062,12.364295,-4.669503,39.422379,-0.125367,-0.012247,0.000000,0.357302,0.646718,-0.000000
2.520000,-0.487221,1.016169,-1.008166,2.709644,0.254312,0.637100,0.072817,-1.531753,-2.697596,-7.880627,3.773571,-4.866319,19.446113,-12.397982,36.244511,-0.121857,-0.005822,0.000000,0.343738,0.627622,0.000000
2.530000,-0.460122,1.018636,-1.001931,2.709981,0.239182,0.609887,-0.005190,-1.494505,-2.744372,-7.740967,3.691754,-4.480284,8.367936,-3.853422,40.991646,-0.118485,0.000413,0.000000,0.331871,0.612126,-0.000000
2.540000,-0.433024,1.020954,-0.995970,2.709543,0.224420,0.582226,-0.082170,-1.457813,-2.787135,-7.643458,3.634215,-4.077956,14.619476,-10.762974,37.902837,-0.115211,0.006523,0.000000,0.322094,0.600616,0.000000
2.550000,-0.405934,1.023126,-0.990288,2.708342,0.210022,0.554157,-0.157773,-1.422120,-2.826071,-7.478315,3.503304,-3.709473,14.926213,-12.291888,37.318177,-0.112064,0.012485,0.000000,0.307197,0.584377,-0.000000
2.560000,-0.378859,1.025156,-0.984888,2.706393,0.195974,0.525717,-0.231701,-1.387785,-2.861566,-7.303590,3.359353,-3.398107,15.905851,-14.190584,35.357601,-0.109067,0.018283,0.000000,0.292072,0.567887,-0.000000
2.570000,-0.351808,1.027046,-0.979774,2.703713,0.182262,0.496938,-0.304146,-1.354809,-2.893254,-7.198029,3.240887,-2.906758,9.198128,-11.712871,52.788568,-0.106219,0.023938,0.000000,0.277721,0.557668,-0.000000
2.580000,-0.324787,1.028802,-0.974950,2.700314,0.168873,0.467868,-0.375443,-1.323130,-2.920241,-7.035813,3.078684,-2.554818,23.370871,-20.780697,17.278276,-0.103519,0.029484,0.000000,0.261437,0.543367,0.000000
2.590000,-0.297804,1.030425,-0.970418,2.696212,0.155792,0.438541,-0.444623,-1.293405,-2.944943,-6.811329,2.870649,-2.356651,17.497726,-18.561180,32.566544,-0.100998,0.034845,0.000000,0.243015,0.524249,-0.000000
2.600000,-0.270865,1.031919,-0.966180,2.691428,0.142999,0.408980,-0.511956,-1.265590,-2.966634,-6.651627,2.688763,-1.990024,18.459797,-20.035610,30.594499,-0.098654,0.040048,0.000000,0.225518,0.511046,0.000000
2.610000,-0.243978,1.033286,-0.962239,2.685979,0.130474,0.379219,-0.577461,-1.239690,-2.984771,-6.445969,2.490333,-1.632087,19.513096,-21.081079,30.524398,-0.096491,0.045102,0.000000,0.207017,0.494716,-0.000000
2.620000,-0.217148,1.034529,-0.958596,2.679885,0.118198,0.349294,-0.641097,-1.215934,-3.000129,-6.290461,2.254217,-1.475654,14.648333,-24.711263,10.953582,-0.094519,0.050004,0.000000,0.187286,0.481916,0.000000
2.630000,-0.190382,1.035651,-0.955254,2.673162,0.106147,0.319222,-0.703094,-1.194568,-3.013808,-6.088779,2.026133,-1.199049,25.777454,-20.839123,44.702600,-0.092746,0.054772,0.000000,0.167397,0.466256,-0.000000
2.640000,-0.163687,1.036653,-0.952212,2.665831,0.094299,0.289031,-0.762682,-1.175363,-3.023578,-5.837040,1.809383,-0.787102,21.468603,-23.910728,27.430851,-0.091170,0.059359,0.000000,0.147556,0.447726,0.000000
2.650000,-0.137068,1.037537,-0.949473,2.657916,0.082632,0.258760,-0.820049,-1.158513,-3.030356,-5.633356,1.560453,-0.562917,22.338900,-24.434506,27.658736,-0.089799,0.063778,0.000000,0.126697,0.432403,0.000000
2.660000,-0.110530,1.038306,-0.947037,2.649437,0.071121,0.228433,-0.875358,-1.144101,-3.034528,-5.430524,1.322276,-0.269934,22.462985,-24.740390,27.663307,-0.088634,0.068045,0.000000,0.106275,0.417762,0.000000
2.670000,-0.084081,1.038960,-0.944905,2.640416,0.059742,0.198078,-0.928311,-1.132202,-3.036020,-5.145278,1.051711,-0.039724,30.450013,-27.835490,21.571132,-0.087682,0.072139,0.000000,0.083812,0.396702,-0.000000
2.680000,-0.057724,1.039501,-0.943076,2.630880,0.048468,0.167720,-0.978455,-1.123000,-3.035173,-4.908349,0.797809,0.228476,16.794196,-22.877125,32.169988,-0.086953,0.076026,0.000000,0.062437,0.379818,0.000000
2.690000,-0.031465,1.039930,-0.941550,2.620853,0.037274,0.137385,-1.026693,-1.116167,-3.031284,-4.726235,0.563906,0.539191,23.779105,-25.414172,26.752949,-0.086428,0.079783,0.000000,0.042374,0.367671,0.000000
2.700000,-0.005308,1.040247,-0.940328,2.610354,0.026136,0.107103,-1.072655,-1.111839,-3.024642,-4.468335,0.302897,0.790760,23.641423,-25.244308,26.761146,-0.086113,0.083381,0.000000,0.020577,0.349545,-0.000000
2.710000,0.020741,1.040452,-0.939408,2.599408,0.015029,0.076900,-1.116147,-1.110090,-3.015636,-4.229713,0.046591,1.003323,23.747096,-25.159010,25.443267,-0.086014,0.086806,0.000000,-0.000615,0.332829,0.000000
2.720000,0.046678,1.040547,-0.938789,2.588039,0.003926,0.046800,-1.157273,-1.110834,-3.003832,-3.996572,-0.192209,1.388734,23.189889,-23.399842,42.222831,-0.086125,0.090070,0.000000,-0.021647,0.317898,-0.000000
2.730000,0.072500,1.040531,-0.938471,2.576271,-0.007196,0.016837,-1.196062,-1.113964,-2.988344,-3.759417,-0.438200,1.650112,24.243492,-25.807501,9.757313,-0.086446,0.093184,0.000000,-0.042490,0.302012,0.000000
2.740000,0.098203,1.040403,-0.938452,2.564126,-0.018362,-0.012963,-1.232445,-1.119629,-2.971361,-3.518263,-0.691533,1.774299,23.660188,-24.019429,24.585059,-0.086974,0.096128,0.000000,-0.063075,0.284911,-0.000000
2.750000,0.123782,1.040163,-0.938730,2.551630,-0.029596,-0.042583,-1.266455,-1.127715,-2.952150,-3.283628,-0.925262,2.061248,23.579626,-23.531539,23.341564,-0.087707,0.098911,0.000000,-0.083342,0.269616,0.000000
2.760000,0.149234,1.039811,-0.939303,2.538805,-0.040924,-0.071997,-1.298101,-1.138133,-2.930222,-3.045426,-1.157241,2.327940,23.503009,-22.891979,23.488525,-0.088641,0.101540,0.000000,-0.103479,0.254009,0.000000
2.770000,0.174557,1.039345,-0.940169,2.525675,-0.052367,-0.101180,-1.327412,-1.150840,-2.906115,-2.818761,-1.383192,2.471266,22.359651,-22.240757,11.514303,-0.089771,0.104011,0.000000,-0.122439,0.238383,0.000000
2.780000,0.199747,1.038763,-0.941326,2.512264,-0.063948,-0.130115,-1.354456,-1.165769,-2.880494,-2.587103,-1.600873,2.691279,23.983240,-21.279241,32.696614,-0.091090,0.106327,0.000000,-0.141443,0.223016,-0.000000
2.790000,0.224801,1.038065,-0.942771,2.498594,-0.075689,-0.158779,-1.379131,-1.182827,-2.851952,-2.350037,-1.809332,2.997407,22.884107,-20.440569,22.151109,-0.092601,0.108492,0.000000,-0.160541,0.208009,-0.000000
2.800000,0.249718,1.037249,-0.944500,2.484689,-0.087611,-0.187146,-1.401506,-1.201927,-2.821040,-2.124937,-2.009037,3.188700,22.669637,-19.443931,22.481434,-0.094296,0.110505,0.000000,-0.178332,0.192995,0.000000
2.810000,0.274494,1.036312,-0.946512,2.470572,-0.099734,-0.215193,-1.421620,-1.222968,-2.788044,-1.898273,-2.197179,3.410028,22.416152,-18.346783,22.375762,-0.096166,0.112369,0.000000,-0.195649,0.178119,0.000000
2.820000,0.299129,1.035253,-0.948803,2.456264,-0.112077,-0.242899,-1.439500,-1.245847,-2.752795,-1.678941,-2.377323,3.641701,21.679431,-17.497965,23.393866,-0.098208,0.114087,0.000000,-0.212642,0.163904,0.000000
