time,x,y,z,vx,vy,vz,ax,ay,az,jx,jy,jz,sx,sy,sz,roll,pitch,yaw,p,q,r
0.000000,-3.388548,-0.245503,-1.483633,-0.018939,-0.004383,0.010628,0.656625,-0.198214,-0.183742,-6.694075,2.583515,5.184995,126.260213,-43.672217,-121.198970,-0.019789,-0.065609,0.000000,0.246769,0.632881,0.000000
0.010000,-3.388705,-0.245557,-1.483535,-0.012687,-0.006243,0.009031,0.595792,-0.174478,-0.137651,-5.492575,2.172095,4.062739,114.175738,-38.677221,-103.550193,-0.017506,-0.059821,0.000000,0.210196,0.525720,-0.000000
0.020000,-3.388803,-0.245627,-1.483451,-0.006986,-0.007885,0.007841,0.546384,-0.154612,-0.101929,-4.407888,1.808689,3.108181,102.892852,-34.066762,-87.644412,-0.015574,-0.055068,0.000000,0.176907,0.426073,0.000000
0.030000,-3.388846,-0.245714,-1.483377,-0.001725,-0.009347,0.006963,0.507271,-0.138156,-0.074985,-3.432145,1.489532,2.304335,92.381998,-29.824612,-73.393151,-0.013957,-0.051272,0.000000,0.146966,0.334332,-0.000000
0.040000,-3.388839,-0.245814,-1.483311,0.003191,-0.010659,0.006316,0.477403,-0.124686,-0.055393,-2.557773,1.211023,1.635098,82.613500,-25.934547,-60.707951,-0.012623,-0.048354,0.000000,0.120347,0.250640,-0.000000
0.050000,-3.388783,-0.245926,-1.483250,0.007850,-0.011849,0.005835,0.455802,-0.113812,-0.041885,-1.777487,0.969721,1.085254,73.558983,-22.380324,-49.500083,-0.011539,-0.046233,0.000000,0.096947,0.174938,0.000000
0.060000,-3.388682,-0.246050,-1.483194,0.012331,-0.012942,0.005462,0.441563,-0.105178,-0.033338,-1.084312,0.762351,0.640467,65.187636,-19.145732,-39.681349,-0.010674,-0.044829,0.000000,0.076616,0.107017,-0.000000
0.070000,-3.388537,-0.246185,-1.483141,0.016703,-0.013959,0.005155,0.433848,-0.098462,-0.028770,-0.471554,0.585796,0.287292,57.470457,-16.214537,-31.163150,-0.009998,-0.044067,0.000000,0.059163,0.046548,-0.000000
0.080000,-3.388348,-0.246329,-1.483091,0.021027,-0.014917,0.004876,0.431885,-0.093370,-0.027329,0.067180,0.437103,0.013164,50.377978,-13.570512,-23.856981,-0.009482,-0.043875,0.000000,0.044377,-0.006874,-0.000000
0.090000,-3.388117,-0.246483,-1.483043,0.025358,-0.015831,0.004600,0.434965,-0.089636,-0.028283,0.537990,0.313482,-0.193593,43.880761,-11.197431,-17.674299,-0.009102,-0.044183,0.000000,0.032030,-0.053706,0.000000
0.100000,-3.387841,-0.246646,-1.482999,0.029741,-0.016713,0.004305,0.442438,-0.087025,-0.031012,0.946677,0.212305,-0.343774,37.948961,-9.079057,-12.526850,-0.008834,-0.044928,0.000000,0.021896,-0.094432,0.000000
0.110000,-3.387521,-0.246817,-1.482957,0.034219,-0.017574,0.003976,0.453710,-0.085324,-0.035003,1.298755,0.131106,-0.447286,32.553532,-7.199173,-8.325879,-0.008657,-0.046053,0.000000,0.013747,-0.129546,-0.000000
0.120000,-3.387156,-0.246997,-1.482919,0.038826,-0.018422,0.003602,0.468242,-0.084344,-0.039833,1.599437,0.067581,-0.513152,27.664824,-5.541547,-4.982990,-0.008553,-0.047502,0.000000,0.007363,-0.159539,-0.000000
0.130000,-3.386744,-0.247186,-1.482885,0.043593,-0.019263,0.003177,0.485544,-0.083920,-0.045167,1.853642,0.019588,-0.549511,23.253341,-4.089951,-2.409709,-0.008505,-0.049228,0.000000,0.002537,-0.184886,-0.000000
0.140000,-3.386284,-0.247383,-1.482856,0.048545,-0.020102,0.002698,0.505175,-0.083907,-0.050749,2.065996,-0.014851,-0.563617,19.289577,-2.828157,-0.517591,-0.008498,-0.051186,0.000000,-0.000929,-0.206041,-0.000000
0.150000,-3.385773,-0.247588,-1.482832,0.053703,-0.020942,0.002162,0.526739,-0.084178,-0.056387,2.240828,-0.037553,-0.561839,15.744015,-1.739933,0.781772,-0.008519,-0.053337,0.000000,-0.003214,-0.223432,0.000000
0.160000,-3.385209,-0.247801,-1.482813,0.059085,-0.021786,0.001570,0.549880,-0.084625,-0.061951,2.382174,-0.050174,-0.549654,12.587371,-0.809064,1.577611,-0.008559,-0.055644,0.000000,-0.004485,-0.237460,-0.000000
0.170000,-3.384590,-0.248024,-1.482800,0.064705,-0.022635,0.000924,0.574283,-0.085153,-0.067361,2.493773,-0.054205,-0.531669,9.789919,-0.019311,1.957474,-0.008606,-0.058076,0.000000,-0.004891,-0.248495,0.000000
0.180000,-3.383914,-0.248254,-1.482795,0.070574,-0.023489,0.000224,0.599668,-0.085685,-0.072577,2.579071,-0.050977,-0.511595,7.322263,0.645546,2.010199,-0.008654,-0.060605,0.000000,-0.004565,-0.256875,-0.000000
0.190000,-3.383178,-0.248493,-1.482796,0.076701,-0.024348,-0.000527,0.625788,-0.086152,-0.077595,2.641219,-0.041656,-0.492260,5.154965,1.201720,1.824263,-0.008696,-0.063206,0.000000,-0.003627,-0.262911,0.000000
0.200000,-3.382379,-0.248741,-1.482805,0.083091,-0.025212,-0.001328,0.652425,-0.086501,-0.082432,2.683072,-0.027250,-0.475609,3.258340,1.665518,1.488233,-0.008725,-0.065857,0.000000,-0.002175,-0.266883,0.000000
0.210000,-3.381515,-0.248998,-1.482823,0.089750,-0.026078,-0.002174,0.679343,-0.086639,-0.086749,2.696490,0.001513,-0.377813,1.391581,2.252986,2.768540,-0.008734,-0.068536,0.000000,0.000647,-0.268566,-0.000000
0.220000,-3.380583,-0.249263,-1.482849,0.096679,-0.026944,-0.003062,0.706453,-0.086600,-0.091189,2.729375,0.000820,-0.561081,3.350091,-0.634505,-24.589212,-0.008724,-0.071230,0.000000,0.000745,-0.270232,0.000000
0.230000,-3.379581,-0.249537,-1.482884,0.103880,-0.027810,-0.004005,0.733792,-0.086524,-0.097240,2.724884,0.025739,-0.558123,-4.275147,5.663985,25.641442,-0.008709,-0.073931,0.000000,0.003255,-0.269379,0.000000
0.240000,-3.378505,-0.249819,-1.482929,0.111354,-0.028673,-0.005000,0.760809,-0.085980,-0.101545,2.682316,0.078157,-0.348502,-2.321451,3.026513,1.299566,-0.008649,-0.076610,0.000000,0.008343,-0.266347,-0.000000
0.250000,-3.377353,-0.250110,-1.482984,0.119095,-0.029528,-0.006034,0.787549,-0.085090,-0.105358,2.662959,0.101266,-0.404958,-3.407056,3.366798,2.340141,-0.008554,-0.079261,0.000000,0.010709,-0.263652,0.000000
0.260000,-3.376122,-0.250409,-1.483050,0.127103,-0.030374,-0.007108,0.813962,-0.083890,-0.109261,2.617273,0.139481,-0.374694,-4.374467,3.621844,2.536686,-0.008429,-0.081875,0.000000,0.014511,-0.259005,0.000000
0.270000,-3.374810,-0.250717,-1.483127,0.135373,-0.031205,-0.008219,0.839973,-0.082345,-0.112941,2.588169,0.167613,-0.365082,-2.718348,2.626596,0.519482,-0.008269,-0.084448,0.000000,0.017313,-0.255870,-0.000000
0.280000,-3.373414,-0.251033,-1.483214,0.143902,-0.032020,-0.009366,0.865639,-0.080502,-0.116505,2.536151,0.205083,-0.340490,-7.707059,4.881115,4.431254,-0.008079,-0.086985,0.000000,0.021034,-0.250588,-0.000000
0.290000,-3.371931,-0.251358,-1.483314,0.152684,-0.032813,-0.010548,0.890607,-0.078206,-0.119688,2.460541,0.252417,-0.299528,-6.092840,3.946323,2.609855,-0.007844,-0.089452,0.000000,0.025725,-0.243128,-0.000000
0.300000,-3.370359,-0.251690,-1.483425,0.161712,-0.033582,-0.011759,0.914935,-0.075500,-0.122582,2.403521,0.289295,-0.278602,-6.597860,4.056771,2.717115,-0.007569,-0.091855,0.000000,0.029379,-0.237379,0.000000
0.310000,-3.368696,-0.252029,-1.483549,0.170980,-0.034322,-0.012998,0.938613,-0.072396,-0.125230,2.331050,0.331605,-0.250946,-7.028082,4.129243,2.742373,-0.007254,-0.094194,0.000000,0.033568,-0.230178,-0.000000
0.320000,-3.366939,-0.252376,-1.483686,0.180482,-0.035029,-0.014263,0.961612,-0.068888,-0.127606,2.271127,0.369295,-0.224427,-5.778175,3.668181,2.624205,-0.006900,-0.096465,0.000000,0.037292,-0.224248,-0.000000
0.330000,-3.365086,-0.252730,-1.483835,0.190210,-0.035699,-0.015550,0.983987,-0.064997,-0.129715,2.198211,0.410424,-0.197139,-8.820559,4.562007,2.832789,-0.006507,-0.098674,0.000000,0.041358,-0.217059,0.000000
0.340000,-3.363134,-0.253090,-1.483997,0.200159,-0.036327,-0.016856,1.005525,-0.060665,-0.131546,2.111775,0.455129,-0.169145,-7.615899,4.109508,2.697613,-0.006071,-0.100801,0.000000,0.045778,-0.208561,-0.000000
0.350000,-3.361082,-0.253456,-1.484172,0.210318,-0.036911,-0.018180,1.026282,-0.055916,-0.133105,2.038929,0.494805,-0.142670,-7.784888,4.087657,2.660749,-0.005594,-0.102851,0.000000,0.049696,-0.201430,0.000000
0.360000,-3.358927,-0.253828,-1.484360,0.220682,-0.037444,-0.019517,1.046267,-0.050761,-0.134399,1.957618,0.536120,-0.116375,-7.916313,4.044075,2.605627,-0.005076,-0.104826,0.000000,0.053777,-0.193481,0.000000
0.370000,-3.356667,-0.254205,-1.484562,0.231241,-0.037924,-0.020867,1.065476,-0.045206,-0.135433,1.885833,0.574446,-0.090512,-6.971883,3.742709,2.555883,-0.004519,-0.106725,0.000000,0.057561,-0.186500,0.000000
0.380000,-3.354301,-0.254586,-1.484778,0.241989,-0.038347,-0.022225,1.083957,-0.039269,-0.136212,1.807015,0.613533,-0.065483,-8.803035,4.075760,2.447953,-0.003925,-0.108553,0.000000,0.061423,-0.178836,-0.000000
0.390000,-3.351827,-0.254972,-1.485007,0.252917,-0.038708,-0.023590,1.101587,-0.032931,-0.136746,1.720744,0.653391,-0.041404,-7.903936,3.767575,2.375360,-0.003291,-0.110299,0.000000,0.065365,-0.170443,-0.000000
0.400000,-3.349242,-0.255360,-1.485249,0.264018,-0.039004,-0.024959,1.118414,-0.026214,-0.137043,1.644421,0.689903,-0.018086,-7.898164,3.657753,2.278052,-0.002619,-0.111967,0.000000,0.068976,-0.163051,-0.000000
0.410000,-3.346546,-0.255751,-1.485506,0.275283,-0.039232,-0.026330,1.134456,-0.019133,-0.137111,1.563760,0.726199,0.004348,-7.875559,3.533354,2.176765,-0.001911,-0.113558,0.000000,0.072569,-0.155238,-0.000000
0.420000,-3.343736,-0.256145,-1.485776,0.286705,-0.039386,-0.027701,1.149719,-0.011700,-0.136962,1.490240,0.759920,0.025142,-7.170184,3.272739,2.010816,-0.001168,-0.115074,0.000000,0.075909,-0.148132,-0.000000
0.430000,-3.340811,-0.256539,-1.486060,0.298275,-0.039464,-0.029069,1.164246,-0.003936,-0.136610,1.413172,0.792953,0.045169,-8.251848,3.333884,1.994467,-0.000393,-0.116519,0.000000,0.079185,-0.140680,-0.000000
0.440000,-3.337770,-0.256934,-1.486357,0.309987,-0.039464,-0.030432,1.177967,0.004157,-0.136061,1.332218,0.825267,0.064410,-7.589230,3.062339,1.822856,0.000415,-0.117886,0.000000,0.082394,-0.132848,-0.000000
0.450000,-3.334611,-0.257328,-1.486668,0.321832,-0.039380,-0.031789,1.190921,0.012558,-0.135329,1.258464,0.854712,0.081863,-7.506674,2.889172,1.697290,0.001254,-0.119179,0.000000,0.085323,-0.125721,0.000000
0.460000,-3.331333,-0.257721,-1.486993,0.333803,-0.039211,-0.033138,1.203126,0.021248,-0.134427,1.182609,0.882858,0.098147,-7.421112,2.705118,1.565327,0.002121,-0.120400,0.000000,0.088127,-0.118383,0.000000
0.470000,-3.327935,-0.258112,-1.487331,0.345892,-0.038954,-0.034477,1.214595,0.030206,-0.133370,1.112289,0.908475,0.113218,-6.877128,2.448915,1.442143,0.003015,-0.121549,0.000000,0.090683,-0.111588,0.000000
0.480000,-3.324415,-0.258500,-1.487683,0.358092,-0.038607,-0.035805,1.225364,0.039412,-0.132168,1.040147,0.932484,0.126853,-7.557925,2.352347,1.284553,0.003934,-0.122631,0.000000,0.093084,-0.104603,-0.000000
0.490000,-3.320773,-0.258884,-1.488047,0.370397,-0.038165,-0.037120,1.235389,0.048851,-0.130837,0.965890,0.954839,0.139029,-7.056049,2.084604,1.156628,0.004877,-0.123640,0.000000,0.095326,-0.097397,0.000000
0.500000,-3.317007,-0.259263,-1.488425,0.382798,-0.037629,-0.038422,1.244704,0.058499,-0.129392,0.897016,0.974425,0.149928,-6.955264,1.863789,1.017328,0.005840,-0.124581,0.000000,0.097295,-0.090713,0.000000
0.510000,-3.313116,-0.259636,-1.488816,0.395288,-0.036995,-0.039708,1.253324,0.068333,-0.127842,0.827220,0.992022,0.159757,-6.856150,1.635143,0.885830,0.006822,-0.125454,0.000000,0.099071,-0.083930,-0.000000
0.520000,-3.309101,-0.260002,-1.489219,0.407862,-0.036262,-0.040978,1.261263,0.078330,-0.126206,0.761249,1.006926,0.167070,-6.481908,1.363136,0.637918,0.007820,-0.126261,0.000000,0.100581,-0.077497,-0.000000
0.530000,-3.304959,-0.260361,-1.489635,0.420511,-0.035428,-0.042232,1.268546,0.088464,-0.124502,0.694563,1.019652,0.173798,-6.860309,1.181511,0.709912,0.008833,-0.127004,0.000000,0.101877,-0.070988,-0.000000
0.540000,-3.300690,-0.260710,-1.490064,0.433231,-0.034492,-0.043468,1.275150,0.098716,-0.122731,0.626934,1.030158,0.180043,-6.521139,0.899645,0.477954,0.009857,-0.127680,0.000000,0.102956,-0.064381,0.000000
0.550000,-3.296294,-0.261050,-1.490504,0.446012,-0.033453,-0.044686,1.281099,0.109058,-0.120910,0.562905,1.037785,0.183891,-6.430582,0.643469,0.352942,0.010891,-0.128293,0.000000,0.103749,-0.058100,-0.000000
0.560000,-3.291770,-0.261379,-1.490957,0.458850,-0.032311,-0.045886,1.286406,0.119464,-0.119054,0.498558,1.042965,0.187162,-6.345914,0.381351,0.234293,0.011931,-0.128842,0.000000,0.104301,-0.051781,-0.000000
0.570000,-3.287117,-0.261696,-1.491422,0.471738,-0.031064,-0.047067,1.291081,0.129907,-0.117177,0.436834,1.045299,0.187965,-6.090582,0.094486,-0.007501,0.012976,-0.129329,0.000000,0.104568,-0.045690,-0.000000
0.580000,-3.282335,-0.262000,-1.491899,0.484670,-0.029712,-0.048230,1.295141,0.140361,-0.115296,0.374818,1.045047,0.188400,-6.316448,-0.145272,0.097073,0.014022,-0.129756,0.000000,0.104579,-0.039563,0.000000
0.590000,-3.277423,-0.262290,-1.492387,0.497639,-0.028257,-0.049373,1.298575,0.150800,-0.113409,0.312329,1.042175,0.188593,-6.090413,-0.440013,-0.124031,0.015067,-0.130120,0.000000,0.104331,-0.033385,-0.000000
0.600000,-3.272382,-0.262565,-1.492886,0.510639,-0.026697,-0.050498,1.301397,0.161194,-0.111533,0.252210,1.036318,0.186495,-6.025948,-0.722101,-0.228821,0.016108,-0.130424,0.000000,0.103782,-0.027411,0.000000
0.610000,-3.267211,-0.262824,-1.493397,0.523665,-0.025033,-0.051604,1.303617,0.171517,-0.109681,0.191852,1.027680,0.183659,-5.969735,-1.008614,-0.335497,0.017141,-0.130668,0.000000,0.102956,-0.021401,-0.000000
0.620000,-3.261909,-0.263065,-1.493918,0.536710,-0.023267,-0.052692,1.305242,0.181738,-0.107863,0.133503,1.016113,0.179791,-5.775669,-1.303134,-0.437295,0.018166,-0.130853,0.000000,0.101835,-0.015574,0.000000
0.630000,-3.256476,-0.263289,-1.494450,0.549768,-0.021399,-0.053761,1.306285,0.191829,-0.106089,0.074753,1.001651,0.174926,-5.977647,-1.589646,-0.534980,0.019177,-0.130980,0.000000,0.100424,-0.009692,-0.000000
0.640000,-3.250913,-0.263493,-1.494993,0.562833,-0.019430,-0.054813,1.306735,0.201761,-0.104368,0.015441,0.984266,0.169106,-5.810519,-1.890188,-0.628329,0.020173,-0.131047,0.000000,0.098719,-0.003740,-0.000000
0.650000,-3.245220,-0.263677,-1.495547,0.575901,-0.017364,-0.055849,1.306601,0.211505,-0.102710,-0.042111,0.963857,0.162375,-5.776233,-2.189781,-0.717213,0.021151,-0.131055,0.000000,0.096710,0.002053,0.000000
0.660000,-3.239395,-0.263840,-1.496110,0.588964,-0.015201,-0.056868,1.305891,0.221029,-0.101122,-0.099953,0.940448,0.155007,-5.747663,-2.491940,-0.796918,0.022106,-0.131006,0.000000,0.094398,0.007885,-0.000000
0.670000,-3.233440,-0.263981,-1.496684,0.602017,-0.012944,-0.057872,1.304607,0.230303,-0.099615,-0.156664,0.914016,0.146071,-5.639398,-2.795252,-0.949336,0.023038,-0.130898,0.000000,0.091778,0.013629,0.000000
0.680000,-3.227355,-0.264098,-1.497268,0.615054,-0.010596,-0.058861,1.302756,0.239299,-0.098201,-0.213679,0.884527,0.136878,-5.765677,-3.102749,-0.887322,0.023941,-0.130733,0.000000,0.088851,0.019408,0.000000
0.690000,-3.221139,-0.264192,-1.497861,0.628070,-0.008159,-0.059836,1.300332,0.247984,-0.096878,-0.271104,0.851965,0.127528,-5.675621,-3.409269,-1.022503,0.024814,-0.130509,0.000000,0.085615,0.025233,-0.000000
0.700000,-3.214794,-0.264261,-1.498464,0.641059,-0.005637,-0.060798,1.297338,0.256328,-0.095656,-0.327579,0.816334,0.116792,-5.664455,-3.717594,-1.084095,0.025652,-0.130228,0.000000,0.082066,0.030984,-0.000000
0.710000,-3.208318,-0.264305,-1.499077,0.654015,-0.003034,-0.061749,1.293779,0.264300,-0.094543,-0.384340,0.777590,0.105671,-5.657568,-4.027083,-1.143651,0.026454,-0.129889,0.000000,0.078202,0.036770,0.000000
0.720000,-3.201714,-0.264322,-1.499699,0.666932,-0.000353,-0.062690,1.289654,0.271870,-0.093545,-0.440456,0.735832,0.093894,-5.596086,-4.328695,-1.206818,0.027215,-0.129493,0.000000,0.074032,0.042503,0.000000
0.730000,-3.194980,-0.264311,-1.500331,0.679806,0.002402,-0.063621,1.284968,0.279006,-0.092667,-0.496899,0.690926,0.081635,-5.693677,-4.652547,-1.244276,0.027933,-0.129039,0.000000,0.069543,0.048277,-0.000000
0.740000,-3.188118,-0.264273,-1.500972,0.692630,0.005226,-0.064543,1.279715,0.285678,-0.091914,-0.553731,0.642869,0.068940,-5.642850,-4.954598,-1.298212,0.028605,-0.128527,0.000000,0.064735,0.054096,-0.000000
0.750000,-3.181127,-0.264207,-1.501622,0.705398,0.008114,-0.065459,1.273896,0.291854,-0.091290,-0.610021,0.591800,0.055721,-5.645095,-5.263199,-1.340938,0.029227,-0.127957,0.000000,0.059620,0.059869,-0.000000
0.760000,-3.174010,-0.264111,-1.502281,0.718106,0.011061,-0.066370,1.267513,0.297503,-0.090801,-0.666577,0.537590,0.042049,-5.648223,-5.571187,-1.381233,0.029796,-0.127329,0.000000,0.054187,0.065676,0.000000
0.770000,-3.166766,-0.263985,-1.502949,0.730747,0.014062,-0.067276,1.260566,0.302596,-0.090449,-0.722821,0.480449,0.028215,-5.618168,-5.863919,-1.396099,0.030310,-0.126643,0.000000,0.048457,0.071454,0.000000
0.780000,-3.159395,-0.263830,-1.503626,0.743315,0.017111,-0.068179,1.253056,0.307102,-0.090238,-0.779305,0.420169,0.013907,-5.679136,-6.191965,-1.465159,0.030764,-0.125899,0.000000,0.042409,0.077263,0.000000
0.790000,-3.151899,-0.263643,-1.504313,0.755806,0.020202,-0.069081,1.244979,0.310989,-0.090173,-0.836049,0.356762,-0.000850,-5.651932,-6.481893,-1.474310,0.031157,-0.125097,0.000000,0.036042,0.083104,-0.000000
0.800000,-3.144279,-0.263425,-1.505008,0.768213,0.023329,-0.069983,1.236336,0.314227,-0.090255,-0.892481,0.290479,-0.015664,-5.652505,-6.781287,-1.498761,0.031484,-0.124236,0.000000,0.029385,0.088914,-0.000000
0.810000,-3.136536,-0.263176,-1.505712,0.780531,0.026484,-0.070887,1.227129,0.316788,-0.090488,-0.949028,0.221132,-0.030900,-5.650877,-7.078090,-1.521344,0.031744,-0.123317,0.000000,0.022417,0.094740,-0.000000
0.820000,-3.128669,-0.262896,-1.506426,0.792754,0.029662,-0.071793,1.217356,0.318641,-0.090872,-1.005438,0.149015,-0.045834,-5.636093,-7.353782,-1.490424,0.031932,-0.122340,0.000000,0.015170,0.100548,0.000000
0.830000,-3.120681,-0.262583,-1.507148,0.804876,0.032855,-0.072705,1.207020,0.319758,-0.091406,-1.061853,0.073879,-0.061233,-5.646507,-7.672966,-1.589584,0.032046,-0.121305,0.000000,0.007616,0.106361,-0.000000
0.840000,-3.112572,-0.262238,-1.507880,0.816892,0.036055,-0.073622,1.196119,0.320108,-0.092098,-1.118246,-0.004245,-0.077092,-5.625921,-7.942001,-1.555559,0.032083,-0.120212,0.000000,-0.000240,0.112175,0.000000
0.850000,-3.104343,-0.261862,-1.508621,0.828796,0.039254,-0.074547,1.184656,0.319664,-0.092946,-1.174405,-0.085022,-0.092550,-5.610746,-8.221661,-1.561128,0.032040,-0.119061,0.000000,-0.008363,0.117960,-0.000000
0.860000,-3.095996,-0.261453,-1.509371,0.840583,0.042445,-0.075481,1.172632,0.318398,-0.093951,-1.230346,-0.168667,-0.108361,-5.586672,-8.496320,-1.564140,0.031915,-0.117852,0.000000,-0.016776,0.123725,-0.000000
0.870000,-3.087532,-0.261013,-1.510130,0.852247,0.045619,-0.076427,1.160049,0.316283,-0.095110,-1.286164,-0.254834,-0.123478,-5.569891,-8.746061,-1.494037,0.031704,-0.116585,0.000000,-0.025442,0.129467,-0.000000
0.880000,-3.078952,-0.260541,-1.510899,0.863782,0.048768,-0.077384,1.146910,0.313292,-0.096422,-1.341596,-0.343774,-0.138970,-5.515180,-9.041146,-1.604639,0.031405,-0.115261,0.000000,-0.034387,0.135172,-0.000000
0.890000,-3.070257,-0.260038,-1.511678,0.875184,0.051882,-0.078356,1.133219,0.309398,-0.097891,-1.396566,-0.435434,-0.154834,-5.483699,-9.279595,-1.531299,0.031015,-0.113881,0.000000,-0.043606,0.140831,-0.000000
0.900000,-3.061449,-0.259504,-1.512466,0.886445,0.054953,-0.079342,1.118980,0.304576,-0.099515,-1.451191,-0.529426,-0.169878,-5.434051,-9.527501,-1.512704,0.030532,-0.112443,0.000000,-0.053057,0.146444,0.000000
0.910000,-3.052528,-0.258939,-1.513265,0.897561,0.057971,-0.080346,1.104197,0.298801,-0.101290,-1.505140,-0.625957,-0.185187,-5.374422,-9.767882,-1.491961,0.029953,-0.110951,0.000000,-0.062764,0.151987,-0.000000
0.920000,-3.043498,-0.258344,-1.514073,0.908527,0.060926,-0.081369,1.088877,0.292050,-0.103213,-1.558834,-0.724668,-0.199179,-5.343377,-9.981983,-1.359647,0.029276,-0.109402,0.000000,-0.072683,0.157487,-0.000000
0.930000,-3.034358,-0.257721,-1.514892,0.919337,0.063808,-0.082411,1.073024,0.284300,-0.105275,-1.611569,-0.825760,-0.213498,-5.201491,-10.235251,-1.504526,0.028499,-0.107800,0.000000,-0.082842,0.162890,-0.000000
0.940000,-3.025112,-0.257069,-1.515722,0.929986,0.066608,-0.083475,1.056650,0.275527,-0.107485,-1.663223,-0.929154,-0.228143,-5.147119,-10.432565,-1.368208,0.027619,-0.106144,0.000000,-0.093230,0.168183,0.000000
0.950000,-3.015759,-0.256389,-1.516562,0.940468,0.069315,-0.084561,1.039761,0.265711,-0.109832,-1.714318,-1.034457,-0.241298,-5.049812,-10.635505,-1.316226,0.026634,-0.104435,0.000000,-0.103804,0.173400,0.000000
0.960000,-3.006303,-0.255683,-1.517413,0.950779,0.071919,-0.085672,1.022368,0.254831,-0.112309,-1.764125,-1.141825,-0.253971,-4.939382,-10.827992,-1.248170,0.025542,-0.102675,0.000000,-0.114580,0.178477,0.000000
0.970000,-2.996744,-0.254951,-1.518275,0.960914,0.074408,-0.086808,1.004480,0.242868,-0.114912,-1.813342,-1.250904,-0.266517,-4.873289,-10.993831,-1.228923,0.024341,-0.100865,0.000000,-0.125523,0.183489,-0.000000
0.980000,-2.987085,-0.254195,-1.519149,0.970867,0.076773,-0.087970,0.986107,0.229806,-0.117635,-1.860948,-1.361828,-0.277877,-4.645068,-11.189280,-1.040529,0.023031,-0.099005,0.000000,-0.136645,0.188323,0.000000
0.990000,-2.977328,-0.253416,-1.520035,0.980635,0.079001,-0.089161,0.967267,0.215626,-0.120465,-1.906785,-1.474487,-0.287906,-4.549483,-11.332290,-0.994073,0.021608,-0.097098,0.000000,-0.147933,0.192961,-0.000000
1.000000,-2.967473,-0.252615,-1.520933,0.990211,0.081081,-0.090380,0.947974,0.200312,-0.123392,-1.951656,-1.588498,-0.297463,-4.392930,-11.475718,-0.884677,0.020072,-0.095145,0.000000,-0.159350,0.197493,-0.000000
1.010000,-2.957524,-0.251795,-1.521843,0.999593,0.083003,-0.091629,0.928240,0.183851,-0.126412,-1.994748,-1.703961,-0.306269,-4.225260,-11.605869,-0.776381,0.018420,-0.093148,0.000000,-0.170906,0.201835,0.000000
1.020000,-2.947482,-0.250956,-1.522765,1.008775,0.084754,-0.092909,0.908084,0.166230,-0.129506,-2.036135,-1.820486,-0.312046,-4.048140,-11.705176,-0.472074,0.016653,-0.091108,0.000000,-0.182556,0.205973,0.000000
1.030000,-2.937349,-0.250100,-1.523701,1.017753,0.086324,-0.094219,0.887524,0.147437,-0.132653,-2.075631,-1.938194,-0.317667,-3.848782,-11.834097,-0.652759,0.014769,-0.089028,0.000000,-0.194318,0.209917,-0.000000
1.040000,-2.927128,-0.249230,-1.524650,1.026524,0.087699,-0.095562,0.866578,0.127462,-0.135860,-2.113101,-2.056943,-0.323126,-3.644887,-11.904458,-0.340515,0.012767,-0.086910,0.000000,-0.206177,0.213652,0.000000
1.050000,-2.916819,-0.248347,-1.525612,1.035083,0.088869,-0.096937,0.845269,0.106297,-0.139103,-2.148461,-2.176302,-0.325242,-3.423638,-11.973053,-0.175911,0.010645,-0.084756,0.000000,-0.218085,0.217143,0.000000
1.060000,-2.906427,-0.247453,-1.526589,1.043428,0.089821,-0.098344,0.823618,0.083934,-0.142360,-2.181304,-2.296328,-0.325941,-3.184097,-12.024646,0.013840,0.008405,-0.082568,0.000000,-0.230052,0.220368,0.000000
1.070000,-2.895952,-0.246551,-1.527579,1.051555,0.090544,-0.099784,0.801648,0.060369,-0.145617,-2.212477,-2.416693,-0.325138,-3.007765,-12.049827,0.174036,0.006044,-0.080349,0.000000,-0.242043,0.223411,-0.000000
1.080000,-2.885396,-0.245643,-1.528584,1.059460,0.091025,-0.101256,0.779379,0.035599,-0.148855,-2.240567,-2.537359,-0.321890,-2.606523,-12.080418,0.479348,0.003564,-0.078101,0.000000,-0.254056,0.226125,-0.000000
1.090000,-2.874763,-0.244732,-1.529604,1.067141,0.091252,-0.102761,0.756847,0.009621,-0.152046,-2.265372,-2.658146,-0.315979,-2.392760,-12.069193,0.681576,0.000963,-0.075827,0.000000,-0.266074,0.228491,-0.000000
1.100000,-2.864054,-0.243819,-1.530640,1.074596,0.091213,-0.104297,0.734078,-0.017563,-0.155168,-2.288034,-2.778716,-0.307985,-2.095907,-12.046078,0.945097,-0.001758,-0.073532,0.000000,-0.278064,0.230628,0.000000
1.110000,-2.853272,-0.242908,-1.531690,1.081822,0.090896,-0.105864,0.711099,-0.045952,-0.158192,-2.307240,-2.899009,-0.296376,-1.782313,-12.002975,1.242745,-0.004598,-0.071216,0.000000,-0.290022,0.232396,0.000000
1.120000,-2.842419,-0.242002,-1.532757,1.088818,0.090290,-0.107460,0.687941,-0.075541,-0.161096,-2.323994,-3.018649,-0.284325,-1.527907,-11.927382,1.304211,-0.007558,-0.068884,0.000000,-0.301911,0.233920,0.000000
1.130000,-2.831496,-0.241104,-1.533840,1.095581,0.089382,-0.109085,0.664632,-0.106323,-0.163862,-2.336944,-3.137609,-0.267422,-1.058470,-11.861067,2.084167,-0.010636,-0.066539,0.000000,-0.313733,0.235037,0.000000
1.140000,-2.820508,-0.240216,-1.534939,1.102110,0.088160,-0.110737,0.641215,-0.138290,-0.166426,-2.345891,-3.255676,-0.245269,-0.767102,-11.742480,2.215268,-0.013832,-0.064185,0.000000,-0.325472,0.235727,-0.000000
1.150000,-2.809455,-0.239341,-1.536055,1.108405,0.086612,-0.112413,0.617723,-0.171432,-0.168765,-2.351910,-3.372432,-0.221905,-0.395750,-11.610874,2.595612,-0.017145,-0.061825,0.000000,-0.337085,0.236128,0.000000
1.160000,-2.798340,-0.238484,-1.537187,1.114464,0.084727,-0.114111,0.594190,-0.205734,-0.170847,-2.354010,-3.487844,-0.193852,-0.013514,-11.456238,2.991608,-0.020574,-0.059463,0.000000,-0.348578,0.236122,-0.000000
1.170000,-2.787166,-0.237648,-1.538337,1.120288,0.082493,-0.115829,0.570657,-0.241182,-0.172631,-2.352056,-3.601372,-0.162249,0.398501,-11.256036,3.358463,-0.024116,-0.057103,0.000000,-0.359899,0.235705,-0.000000
1.180000,-2.775935,-0.236836,-1.539504,1.125877,0.079900,-0.117563,0.547162,-0.277756,-0.174077,-2.346163,-3.713108,-0.126064,0.782292,-11.087243,3.882925,-0.027771,-0.054749,0.000000,-0.371066,0.234886,0.000000
1.190000,-2.764650,-0.236051,-1.540688,1.131232,0.076935,-0.119309,0.523747,-0.315438,-0.175136,-2.336200,-3.822810,-0.085048,1.220735,-10.837716,4.297591,-0.031537,-0.052405,0.000000,-0.382062,0.233655,0.000000
1.200000,-2.753312,-0.235298,-1.541890,1.136353,0.073587,-0.121064,0.500453,-0.354203,-0.175764,-2.321771,-3.929865,-0.039817,1.659168,-10.579820,4.778459,-0.035412,-0.050075,0.000000,-0.392831,0.231979,-0.000000
1.210000,-2.741923,-0.234581,-1.543109,1.141242,0.069847,-0.122823,0.477327,-0.394026,-0.175912,-2.302796,-4.034306,0.011355,2.115266,-10.294604,5.295059,-0.039393,-0.047764,0.000000,-0.403391,0.229846,-0.000000
1.220000,-2.730487,-0.233903,-1.544346,1.145900,0.065703,-0.124581,0.454411,-0.434879,-0.175533,-2.279618,-4.135581,0.064604,2.543786,-9.964205,5.520255,-0.043478,-0.045476,0.000000,-0.413678,0.227311,0.000000
1.230000,-2.719006,-0.233268,-1.545601,1.150331,0.061146,-0.126332,0.431751,-0.476727,-0.174594,-2.251428,-4.233674,0.125232,3.097096,-9.649602,6.613546,-0.047666,-0.043215,0.000000,-0.423722,0.224273,0.000000
1.240000,-2.707482,-0.232681,-1.546873,1.154536,0.056166,-0.128070,0.409400,-0.519541,-0.173001,-2.218061,-4.328298,0.193653,3.557005,-9.261556,6.909893,-0.051952,-0.040987,0.000000,-0.433511,0.220718,0.000000
1.250000,-2.695916,-0.232146,-1.548162,1.158520,0.050752,-0.129789,0.387405,-0.563280,-0.170714,-2.180055,-4.418875,0.264884,4.067113,-8.857304,7.501806,-0.056335,-0.038796,0.000000,-0.442971,0.216725,0.000000
1.260000,-2.684312,-0.231668,-1.549469,1.162286,0.044897,-0.131482,0.365818,-0.607904,-0.167676,-2.136482,-4.505300,0.343856,4.594775,-8.420907,8.118895,-0.060810,-0.036647,0.000000,-0.452132,0.212184,0.000000
1.270000,-2.672671,-0.231250,-1.550792,1.165838,0.038591,-0.133140,0.344689,-0.653371,-0.163830,-2.088624,-4.587172,0.425687,5.032269,-7.949391,8.420692,-0.065376,-0.034546,0.000000,-0.460935,0.207244,0.000000
1.280000,-2.660996,-0.230897,-1.552131,1.169181,0.031827,-0.134756,0.324066,-0.699632,-0.159133,-2.034674,-4.664204,0.515908,5.761314,-7.451389,9.630906,-0.070028,-0.032496,0.000000,-0.469399,0.201706,-0.000000
1.290000,-2.649288,-0.230615,-1.553487,1.172321,0.024596,-0.136320,0.304017,-0.746637,-0.153482,-1.974438,-4.736059,0.614878,6.233878,-6.912560,9.991793,-0.074763,-0.030504,0.000000,-0.477512,0.195554,-0.000000
1.300000,-2.637550,-0.230407,-1.554858,1.175263,0.016892,-0.137822,0.284592,-0.794334,-0.146827,-1.909498,-4.802349,0.717249,6.809472,-6.340905,10.655456,-0.079577,-0.028575,0.000000,-0.485211,0.188964,-0.000000
1.310000,-2.625784,-0.230279,-1.556243,1.178015,0.008707,-0.139253,0.265850,-0.842664,-0.139107,-1.837753,-4.862623,0.828082,7.407074,-5.730811,11.334460,-0.084466,-0.026715,0.000000,-0.492504,0.181711,-0.000000
1.320000,-2.613990,-0.230235,-1.557642,1.180583,0.000037,-0.140601,0.247846,-0.891568,-0.130257,-1.762558,-4.917056,0.942320,7.763661,-5.127314,11.686013,-0.089426,-0.024928,0.000000,-0.499383,0.174144,-0.000000
1.330000,-2.602172,-0.230280,-1.559055,1.182975,-0.009126,-0.141854,0.230626,-0.940982,-0.120229,-1.679718,-4.964574,1.065424,8.809729,-4.369399,12.940176,-0.094452,-0.023220,0.000000,-0.505802,0.165828,0.000000
1.340000,-2.590331,-0.230419,-1.560479,1.185198,-0.018784,-0.143001,0.214279,-0.990835,-0.108917,-1.588971,-5.004770,1.197636,9.209379,-3.686064,13.327825,-0.099540,-0.021600,0.000000,-0.511745,0.156734,-0.000000
1.350000,-2.578469,-0.230657,-1.561914,1.187263,-0.028944,-0.144028,0.198857,-1.041055,-0.096268,-1.494394,-5.037974,1.333451,9.838079,-2.925665,14.006958,-0.104685,-0.020071,0.000000,-0.517208,0.147281,-0.000000
1.360000,-2.566587,-0.230999,-1.563359,1.189179,-0.039606,-0.144921,0.184421,-1.091565,-0.082214,-1.391474,-5.062815,1.478693,10.491515,-2.118369,14.704711,-0.109882,-0.018641,0.000000,-0.522129,0.136998,-0.000000
1.370000,-2.554686,-0.231451,-1.564812,1.190955,-0.050776,-0.145667,0.171028,-1.142290,-0.066698,-1.286903,-5.080967,1.624425,10.670489,-1.425367,14.764759,-0.115126,-0.017315,0.000000,-0.526595,0.126567,-0.000000
1.380000,-2.542768,-0.232016,-1.566272,1.192603,-0.062453,-0.146250,0.158717,-1.193152,-0.049687,-1.172864,-5.089512,1.780763,12.144887,-0.274548,16.509911,-0.120412,-0.016096,0.000000,-0.530441,0.115178,-0.000000
1.390000,-2.530834,-0.232701,-1.567737,1.194133,-0.074639,-0.146656,0.147606,-1.244046,-0.031044,-1.049021,-5.087940,1.947979,12.373088,0.515127,16.601412,-0.125733,-0.014998,0.000000,-0.533645,0.102786,-0.000000
1.400000,-2.518886,-0.233511,-1.569205,1.195559,-0.087333,-0.146866,0.137738,-1.294886,-0.010732,-0.923297,-5.078390,2.115497,13.020147,1.481987,17.224762,-0.131083,-0.014024,0.000000,-0.536304,0.090196,0.000000
1.410000,-2.506923,-0.234450,-1.570673,1.196893,-0.100536,-0.146864,0.129167,-1.345577,0.011303,-0.789797,-5.058019,2.292839,13.647284,2.495706,17.841163,-0.136457,-0.013181,0.000000,-0.538270,0.076784,-0.000000
1.420000,-2.494948,-0.235523,-1.572141,1.198147,-0.114244,-0.146634,0.121960,-1.396020,0.035112,-0.650672,-5.029291,2.468549,14.206035,3.356832,17.679460,-0.141847,-0.012476,0.000000,-0.539643,0.062768,0.000000
1.430000,-2.482961,-0.236736,-1.573605,1.199337,-0.128455,-0.146156,0.116176,-1.446122,0.060711,-0.505086,-4.988645,2.654372,14.909627,4.782059,19.489532,-0.147247,-0.011916,0.000000,-0.540240,0.048031,-0.000000
1.440000,-2.470962,-0.238094,-1.575063,1.200476,-0.143165,-0.145413,0.111880,-1.495751,0.088237,-0.353141,-4.935543,2.850386,15.446029,5.743971,19.315816,-0.152649,-0.011508,0.000000,-0.540030,0.032563,-0.000000
1.450000,-2.458951,-0.239601,-1.576513,1.201579,-0.158368,-0.144385,0.109130,-1.544802,0.117703,-0.195968,-4.872775,3.043804,16.015726,6.916948,19.745472,-0.158045,-0.011259,0.000000,-0.539102,0.016473,-0.000000
1.460000,-2.446930,-0.241263,-1.577950,1.202663,-0.174059,-0.143053,0.107966,-1.593157,0.149118,-0.036345,-4.795899,3.239389,16.497687,8.156444,20.015009,-0.163427,-0.011175,0.000000,-0.537082,0.000015,-0.000000
1.470000,-2.434898,-0.243084,-1.579372,1.203744,-0.190229,-0.141396,0.108467,-1.640703,0.182552,0.139371,-4.712357,3.449883,18.066771,8.857207,21.439069,-0.168787,-0.011266,0.000000,-0.534934,-0.018248,-0.000000
1.480000,-2.422855,-0.245069,-1.580777,1.204839,-0.206870,-0.139394,0.110741,-1.687347,0.218092,0.312845,-4.612357,3.654636,16.606676,11.157974,19.479629,-0.174121,-0.011545,0.000000,-0.531333,-0.036450,-0.000000
1.490000,-2.410801,-0.247223,-1.582159,1.205965,-0.223972,-0.137028,0.114708,-1.732891,0.255615,0.483070,-4.495135,3.852045,18.015496,11.990061,20.629157,-0.179408,-0.012005,0.000000,-0.526137,-0.054503,-0.000000
1.500000,-2.398736,-0.249550,-1.583516,1.207139,-0.241524,-0.134275,0.120463,-1.777228,0.295185,0.668167,-4.369886,4.061535,18.420822,13.365863,20.618159,-0.184643,-0.012660,0.000000,-0.520621,-0.074331,0.000000
1.510000,-2.386658,-0.252055,-1.584843,1.208380,-0.259512,-0.131117,0.128090,-1.820227,0.336833,0.858471,-4.227433,4.268113,18.922160,14.789456,20.579913,-0.189815,-0.013521,0.000000,-0.513567,-0.094959,-0.000000
1.520000,-2.374568,-0.254742,-1.586137,1.209707,-0.277923,-0.127532,0.137590,-1.861756,0.380536,1.039964,-4.077136,4.471900,18.065811,15.603629,20.264453,-0.194913,-0.014590,0.000000,-0.505907,-0.114965,0.000000
1.530000,-2.362464,-0.257615,-1.587392,1.211138,-0.296742,-0.123499,0.148937,-1.901706,0.426270,1.234264,-3.908360,4.675233,20.811589,18.165499,20.390397,-0.199927,-0.015870,0.000000,-0.496572,-0.136628,-0.000000
1.540000,-2.350345,-0.260678,-1.588605,1.212693,-0.315951,-0.119000,0.162326,-1.939857,0.474037,1.442076,-3.720435,4.877366,20.045943,19.089227,19.918998,-0.204838,-0.017385,0.000000,-0.485438,-0.160081,0.000000
1.550000,-2.338209,-0.263935,-1.589771,1.214391,-0.335533,-0.114012,0.177737,-1.976091,0.523798,1.641026,-3.523697,5.074168,20.435920,20.592570,19.526640,-0.209634,-0.019138,0.000000,-0.473448,-0.183010,0.000000
1.560000,-2.326056,-0.267390,-1.590884,1.216254,-0.355466,-0.108517,0.195180,-2.010265,0.575512,1.848282,-3.308404,5.267854,20.772069,22.123549,19.046036,-0.214300,-0.021133,0.000000,-0.459595,-0.207260,-0.000000
1.570000,-2.313884,-0.271045,-1.591939,1.218302,-0.375731,-0.102496,0.214694,-2.042236,0.629125,2.054154,-3.084369,5.453387,20.625261,23.017532,18.186689,-0.218823,-0.023381,0.000000,-0.444730,-0.231840,0.000000
1.580000,-2.301690,-0.274905,-1.592932,1.220555,-0.396303,-0.095929,0.236283,-2.071886,0.684565,2.265468,-2.841050,5.634244,21.636960,25.656429,17.970922,-0.223188,-0.025887,0.000000,-0.427776,-0.257519,0.000000
1.590000,-2.289472,-0.278973,-1.593856,1.223035,-0.417160,-0.088798,0.260022,-2.098989,0.741793,2.482078,-2.578005,5.809532,21.444334,26.614437,16.923015,-0.227371,-0.028666,0.000000,-0.408592,-0.284331,-0.000000
1.600000,-2.277228,-0.283249,-1.594706,1.225762,-0.438274,-0.081087,0.285912,-2.123422,0.800715,2.696152,-2.305936,5.973551,21.592180,28.132595,16.005031,-0.231356,-0.031725,0.000000,-0.388089,-0.311458,-0.000000
1.610000,-2.264956,-0.287739,-1.595476,1.228760,-0.459619,-0.072779,0.313940,-2.145039,0.861210,2.909310,-2.014763,6.122912,21.603780,29.660761,14.847410,-0.235123,-0.035068,0.000000,-0.365034,-0.339087,-0.000000
1.620000,-2.252652,-0.292443,-1.596160,1.232048,-0.481165,-0.063858,0.344144,-2.163702,0.923214,3.133310,-1.716830,6.279299,22.628912,30.345996,15.439357,-0.238655,-0.038706,0.000000,-0.341182,-0.368622,-0.000000
1.630000,-2.240314,-0.297363,-1.596751,1.235650,-0.502883,-0.054309,0.376578,-2.179307,0.986706,3.349981,-1.399029,6.410922,20.677217,33.221626,10.834930,-0.241936,-0.042654,0.000000,-0.314263,-0.398000,-0.000000
1.640000,-2.227938,-0.302501,-1.597244,1.239587,-0.524740,-0.044120,0.411110,-2.191612,1.051334,3.557915,-1.061125,6.515231,21.461382,33.923016,10.986790,-0.244929,-0.046903,0.000000,-0.284035,-0.427025,0.000000
1.650000,-2.215521,-0.307858,-1.597631,1.243880,-0.546704,-0.033279,0.447774,-2.200516,1.117036,3.774216,-0.717085,6.621938,21.226900,35.303938,9.358626,-0.247615,-0.051464,0.000000,-0.252660,-0.457754,0.000000
1.660000,-2.203059,-0.313435,-1.597907,1.248550,-0.568739,-0.021776,0.486581,-2.205894,1.183681,3.986875,-0.356149,6.703828,20.994689,36.628573,7.609082,-0.249971,-0.056347,0.000000,-0.218148,-0.488729,0.000000
1.670000,-2.190548,-0.319233,-1.598064,1.253618,-0.590809,-0.009603,0.527478,-2.207616,1.251102,4.191129,0.013020,6.779343,20.134406,37.430840,6.884653,-0.251972,-0.061551,0.000000,-0.181835,-0.519519,0.000000
1.680000,-2.177985,-0.325251,-1.598097,1.259106,-0.612879,0.003248,0.570406,-2.205582,1.319176,4.395416,0.397206,6.828752,20.719873,39.400714,2.960632,-0.253596,-0.067078,0.000000,-0.142300,-0.550924,-0.000000
1.690000,-2.165365,-0.331490,-1.597997,1.265033,-0.634908,0.016782,0.615388,-2.199621,1.387579,4.599407,0.795955,6.850154,19.772635,40.094882,1.899037,-0.254807,-0.072936,0.000000,-0.099387,-0.582854,0.000000
1.700000,-2.152683,-0.337949,-1.597759,1.271420,-0.656858,0.031000,0.662354,-2.189646,1.456156,4.793096,1.200831,6.861330,19.243944,41.102997,-0.275017,-0.255578,-0.079122,0.000000,-0.054443,-0.614267,0.000000
1.710000,-2.139935,-0.344627,-1.597375,1.278287,-0.678687,0.045905,0.711230,-2.175569,1.524698,4.980781,1.616150,6.842797,18.581213,41.989202,-2.601549,-0.255884,-0.085632,0.000000,-0.006309,-0.645417,-0.000000
1.720000,-2.127116,-0.351522,-1.596838,1.285651,-0.700355,0.061493,0.761971,-2.157292,1.593001,5.167199,2.040671,6.816771,18.396996,42.851049,-3.437390,-0.255696,-0.092467,0.000000,0.044348,-0.677004,-0.000000
1.730000,-2.114220,-0.358633,-1.596143,1.293532,-0.721819,0.077763,0.814534,-2.134733,1.660913,5.342320,2.471831,6.756569,16.603720,43.358842,-8.641453,-0.254987,-0.099623,0.000000,0.098088,-0.707502,-0.000000
1.740000,-2.101243,-0.365958,-1.595281,1.301947,-0.743035,0.094709,0.868773,-2.107838,1.728006,5.504878,2.908327,6.660280,16.187432,43.963284,-9.800296,-0.253724,-0.107084,0.000000,0.154890,-0.736560,-0.000000
1.750000,-2.088179,-0.373493,-1.594246,1.310913,-0.763961,0.112320,0.924623,-2.076548,1.794098,5.663280,3.350255,6.553324,15.184608,44.353649,-12.425878,-0.251882,-0.114841,0.000000,0.214087,-0.765355,-0.000000
1.760000,-2.075023,-0.381236,-1.593032,1.320445,-0.784551,0.130587,0.981987,-2.040836,1.858944,5.807345,3.792134,6.410866,14.061695,44.540904,-15.154679,-0.249434,-0.122882,0.000000,0.275769,-0.792198,-0.000000
1.770000,-2.061768,-0.389183,-1.591633,1.330557,-0.804763,0.149494,1.040767,-2.000657,1.922298,5.948342,4.245567,6.258546,13.687983,45.592087,-16.206998,-0.246355,-0.131190,0.000000,0.340574,-0.818641,-0.000000
1.780000,-2.048410,-0.397330,-1.590040,1.341265,-0.824550,0.169027,1.100891,-1.955951,1.983980,6.071679,4.692369,6.067904,10.951258,43.724775,-21.953099,-0.242617,-0.139754,0.000000,0.407119,-0.842317,-0.000000
1.790000,-2.034941,-0.405672,-1.588250,1.352579,-0.843867,0.189167,1.162134,-1.906844,2.043516,6.175873,5.130184,5.837472,10.312108,44.342948,-23.234550,-0.238209,-0.148532,0.000000,0.475022,-0.862717,-0.000000
1.800000,-2.021356,-0.414205,-1.586255,1.364511,-0.862672,0.209890,1.224396,-1.853317,2.100707,6.273902,5.574136,5.595558,8.841970,43.887258,-26.044885,-0.233109,-0.157505,0.000000,0.545202,-0.881716,-0.000000
1.810000,-2.007649,-0.422924,-1.584050,1.377070,-0.880919,0.231172,1.287533,-1.795411,2.155301,6.350321,6.005538,5.318155,7.226845,43.197345,-28.850126,-0.227304,-0.166642,0.000000,0.615850,-0.896741,-0.000000
1.820000,-1.993813,-0.431822,-1.581630,1.390264,-0.898565,0.252986,1.351412,-1.733165,2.207025,6.425521,6.445156,5.024005,7.024951,43.887490,-30.538908,-0.220782,-0.175911,0.000000,0.688849,-0.910457,0.000000
1.830000,-1.979841,-0.440893,-1.578989,1.404100,-0.915568,0.275302,1.415949,-1.666578,2.255663,6.474288,6.865702,4.695663,2.691990,40.166102,-35.138425,-0.213530,-0.185285,0.000000,0.760950,-0.919135,0.000000
1.840000,-1.965729,-0.450131,-1.576122,1.418584,-0.931883,0.298088,1.480798,-1.595931,2.300818,6.494807,7.264234,4.332865,2.183063,40.326228,-36.839381,-0.205569,-0.194700,0.000000,0.831377,-0.922231,-0.000000
1.850000,-1.951468,-0.459528,-1.573026,1.433717,-0.947473,0.321306,1.545845,-1.521272,2.342277,6.511081,7.664680,3.954285,0.281285,38.918210,-39.430545,-0.196899,-0.204121,0.000000,0.902392,-0.922993,-0.000000
1.860000,-1.937052,-0.469078,-1.569695,1.449501,-0.962296,0.344920,1.610911,-1.442742,2.379817,6.498223,8.037658,3.549913,-1.752441,37.206284,-41.845643,-0.187535,-0.213502,0.000000,0.970038,-0.917860,0.000000
1.870000,-1.922475,-0.478771,-1.566126,1.465935,-0.976315,0.368889,1.675831,-1.360452,2.413163,6.486075,8.422553,3.113884,-1.761293,38.230561,-44.934835,-0.177490,-0.222799,0.000000,1.039158,-0.910251,0.000000
1.880000,-1.907731,-0.488601,-1.562316,1.483017,-0.989493,0.393168,1.740512,-1.274427,2.442039,6.440262,8.769929,2.660151,-7.440579,31.168896,-45.777286,-0.166772,-0.231975,0.000000,1.102512,-0.896064,0.000000
1.890000,-1.892813,-0.498558,-1.558262,1.500742,-1.001793,0.417714,1.804509,-1.185204,2.466316,6.358947,9.075979,2.190580,-7.739370,31.541160,-48.522828,-0.155464,-0.240949,0.000000,1.159075,-0.875043,0.000000
1.900000,-1.877714,-0.508634,-1.553961,1.519104,-1.013186,0.442479,1.867705,-1.092864,2.485752,6.276184,9.387250,1.693678,-9.898311,29.164624,-50.422398,-0.143590,-0.249682,0.000000,1.214801,-0.851103,0.000000
1.910000,-1.862429,-0.518819,-1.549412,1.538093,-1.023641,0.467412,1.929951,-0.997603,2.500156,6.169868,9.660101,1.184601,-11.931296,26.599767,-52.102115,-0.131194,-0.258131,0.000000,1.263240,-0.821920,0.000000
1.920000,-1.846950,-0.529104,-1.544612,1.557699,-1.033129,0.492464,1.990989,-0.899651,2.509331,6.032358,9.929992,0.645437,-15.019972,26.174129,-54.984951,-0.118331,-0.266239,0.000000,1.308879,-0.785983,-0.000000
1.930000,-1.831273,-0.539478,-1.539562,1.577908,-1.041625,0.517581,2.050556,-0.799150,2.513051,5.881045,10.158337,0.100546,-15.223006,19.437837,-53.939107,-0.105046,-0.273950,0.000000,1.346044,-0.746423,-0.000000
1.940000,-1.815390,-0.549933,-1.534261,1.598705,-1.049106,0.542707,2.108571,-0.696641,2.511338,5.716847,10.342288,-0.447164,-18.167415,18.527977,-56.291444,-0.091442,-0.281241,0.000000,1.374122,-0.703647,-0.000000
1.950000,-1.799297,-0.560457,-1.528708,1.620074,-1.055552,0.567789,2.164783,-0.592309,2.504016,5.522498,10.518427,-1.018461,-20.144171,15.494395,-57.212707,-0.077575,-0.288061,0.000000,1.397899,-0.654933,-0.000000
1.960000,-1.782987,-0.571040,-1.522905,1.641994,-1.060947,0.592769,2.218968,-0.486413,2.490986,5.311171,10.655370,-1.588058,-22.120637,12.394165,-57.834975,-0.063515,-0.294370,0.000000,1.412962,-0.603117,0.000000
1.970000,-1.766455,-0.581672,-1.516853,1.664446,-1.065276,0.617589,2.270941,-0.379265,2.472143,5.080176,10.770792,-2.185125,-24.065100,10.182381,-60.412193,-0.049335,-0.300134,0.000000,1.421829,-0.547039,0.000000
1.980000,-1.749696,-0.592342,-1.510554,1.687405,-1.068529,0.642191,2.320508,-0.271127,2.447326,4.830150,10.848388,-2.771843,-25.931067,5.313419,-56.858093,-0.035107,-0.305317,0.000000,1.422166,-0.488521,0.000000
1.990000,-1.732705,-0.603039,-1.504010,1.710847,-1.070697,0.666517,2.367482,-0.162431,2.416763,4.561640,10.886995,-3.344359,-27.765880,2.905111,-58.746307,-0.020921,-0.309905,0.000000,1.414127,-0.428142,-0.000000
2.000000,-1.715478,-0.613753,-1.497225,1.734745,-1.071776,0.690507,2.411681,-0.053457,2.380354,4.275104,10.902146,-3.936308,-29.524808,-0.377998,-58.468127,-0.006843,-0.313872,0.000000,1.400067,-0.364969,0.000000
2.010000,-1.698009,-0.624471,-1.490202,1.759071,-1.071766,0.714104,2.452919,0.055485,2.338100,3.969489,10.880541,-4.513053,-31.247244,-3.666336,-57.908278,0.007055,-0.317201,0.000000,1.378522,-0.300569,0.000000
2.020000,-1.680295,-0.635184,-1.482944,1.783793,-1.070668,0.737250,2.491042,0.164067,2.290029,3.653546,10.831397,-5.103503,-32.254359,-6.427506,-59.107342,0.020708,-0.319881,0.000000,1.351037,-0.235173,-0.000000
2.030000,-1.662332,-0.645881,-1.475458,1.808881,-1.068487,0.759885,2.525921,0.271991,2.236109,3.317829,10.746451,-5.672679,-34.882987,-10.564170,-54.656332,0.034054,-0.321904,0.000000,1.317031,-0.169331,0.000000
2.040000,-1.644116,-0.656550,-1.467749,1.834300,-1.065231,0.781954,2.557332,0.378874,2.176667,2.962861,10.625689,-6.216794,-35.761776,-13.308583,-55.172990,0.047029,-0.323269,0.000000,1.277115,-0.103547,-0.000000
2.050000,-1.625645,-0.667182,-1.459821,1.860016,-1.060914,0.803400,2.585159,0.484421,2.111736,2.600158,10.478186,-6.766490,-37.089008,-16.450066,-53.685821,0.059582,-0.323978,0.000000,1.232715,-0.038210,0.000000
2.060000,-1.606915,-0.677765,-1.451683,1.885991,-1.055548,0.824171,2.609339,0.588344,2.041526,2.235599,10.301819,-7.269500,-38.028528,-19.426882,-51.526246,0.071670,-0.324048,0.000000,1.184376,0.023784,0.000000
2.070000,-1.587924,-0.688290,-1.443340,1.912190,-1.049153,0.844213,2.629660,0.690309,1.966044,1.819508,10.084278,-7.839083,-43.009051,-23.464997,-57.848958,0.083248,-0.323472,0.000000,1.130270,0.092340,0.000000
2.080000,-1.568671,-0.698745,-1.434801,1.938570,-1.041750,0.863473,2.645805,0.789963,1.885036,1.421186,9.845468,-8.331197,-36.567668,-24.258937,-40.404425,0.094270,-0.322222,0.000000,1.074272,0.153742,-0.000000
2.090000,-1.549152,-0.709121,-1.426074,1.965093,-1.033362,0.881900,2.658174,0.887159,1.799740,1.044846,9.587380,-8.737864,-40.861763,-27.942454,-45.457085,0.104732,-0.320412,0.000000,1.017343,0.207438,-0.000000
2.100000,-1.529368,-0.719409,-1.417166,1.991720,-1.024016,0.899453,2.666512,0.981576,1.710010,0.622864,9.292212,-9.201249,-41.341198,-30.463733,-42.662822,0.114601,-0.318025,0.000000,0.956391,0.266256,0.000000
2.110000,-1.509318,-0.729598,-1.408088,2.018409,-1.013741,0.916085,2.670623,1.072959,1.615795,0.197367,8.981079,-9.640739,-42.033697,-32.761290,-40.568577,0.123859,-0.315060,0.000000,0.894916,0.322369,-0.000000
2.120000,-1.489000,-0.739681,-1.398848,2.045119,-1.002568,0.931755,2.670576,1.161041,1.517645,-0.201727,8.628095,-9.969524,-39.419535,-36.814633,-29.685367,0.132492,-0.311564,0.000000,0.831402,0.369578,0.000000
2.130000,-1.468416,-0.749647,-1.389456,2.071808,-0.990532,0.946428,2.666494,1.245499,1.416269,-0.625355,8.266209,-10.328892,-45.336682,-35.502716,-42.314682,0.140488,-0.307594,0.000000,0.768190,0.418590,-0.000000
2.140000,-1.447564,-0.759489,-1.379923,2.098434,-0.977670,0.960067,2.657971,1.326354,1.310911,-1.074550,7.898530,-10.724241,-42.809391,-39.006116,-32.185243,0.147858,-0.303100,0.000000,0.705493,0.469446,-0.000000
2.150000,-1.426447,-0.769198,-1.370258,2.124953,-0.964018,0.972635,2.645127,1.403333,1.202226,-1.495265,7.495219,-11.010996,-42.975746,-40.624164,-29.691901,0.154595,-0.298136,0.000000,0.642195,0.511719,0.000000
2.160000,-1.405066,-0.778766,-1.360474,2.151322,-0.949617,0.984102,2.628051,1.476258,1.090709,-1.919157,7.088084,-11.286657,-42.779696,-41.980306,-26.681327,0.160708,-0.292747,0.000000,0.580574,0.552228,0.000000
2.170000,-1.383421,-0.788188,-1.350580,2.177499,-0.934507,0.994440,2.606672,1.544955,0.976492,-2.359576,6.645135,-11.555896,-44.307161,-45.402852,-25.934782,0.166199,-0.286945,0.000000,0.517250,0.592551,0.000000
2.180000,-1.361517,-0.797454,-1.340589,2.203441,-0.918733,1.003624,2.580919,1.609180,0.859752,-2.784389,6.205334,-11.779520,-40.599690,-42.487356,-18.739861,0.171064,-0.280747,0.000000,0.456934,0.628290,-0.000000
2.190000,-1.339354,-0.806560,-1.330511,2.229104,-0.902338,1.011629,2.551053,1.669093,0.741071,-3.190720,5.772311,-11.955111,-41.621870,-45.268684,-17.597668,0.175350,-0.274210,0.000000,0.399979,0.659391,0.000000
2.200000,-1.316936,-0.815499,-1.320360,2.254448,-0.885366,1.018439,2.517051,1.724510,0.620661,-3.607981,5.310700,-12.120833,-40.826220,-45.838426,-14.311091,0.179059,-0.267352,0.000000,0.342209,0.690088,0.000000
2.210000,-1.294266,-0.824266,-1.310147,2.279432,-0.867863,1.024038,2.479012,1.775342,0.498901,-3.996329,4.855769,-12.222577,-39.629064,-46.164596,-10.555789,0.182207,-0.260207,0.000000,0.287978,0.715113,0.000000
2.220000,-1.271348,-0.832855,-1.299883,2.304015,-0.849874,1.028413,2.436938,1.821533,0.375968,-4.425941,4.378413,-12.373499,-43.543223,-48.254182,-15.238004,0.184811,-0.252788,0.000000,0.232611,0.744509,-0.000000
2.230000,-1.248187,-0.841262,-1.289582,2.328156,-0.831448,1.031553,2.390667,1.862957,0.251761,-4.809492,3.912746,-12.435201,-33.060784,-44.814520,3.030901,0.186875,-0.245088,0.000000,0.181520,0.766218,-0.000000
2.240000,-1.224787,-0.849483,-1.279256,2.351817,-0.812630,1.033449,2.340940,1.899846,0.127615,-5.141928,3.462151,-12.401814,-36.160830,-46.301274,-0.794271,0.188458,-0.237221,0.000000,0.134986,0.780244,-0.000000
2.250000,-1.201152,-0.857513,-1.268918,2.374963,-0.793467,1.034105,2.287665,1.932131,0.003497,-5.508978,2.996096,-12.413700,-34.488166,-45.852534,2.819697,0.189570,-0.229182,0.000000,0.087797,0.798273,-0.000000
2.260000,-1.177289,-0.865351,-1.258578,2.397559,-0.774003,1.033519,2.230859,1.959827,-0.120586,-5.850138,2.544746,-12.401417,-32.982786,-45.194002,5.407417,0.190226,-0.220977,0.000000,0.043747,0.812930,-0.000000
2.270000,-1.153203,-0.872993,-1.248251,2.419569,-0.754285,1.031695,2.170774,1.982985,-0.243977,-6.161499,2.085390,-12.252678,-30.001885,-45.864915,18.703363,0.190455,-0.212648,0.000000,0.002539,0.821821,0.000000
2.280000,-1.128900,-0.880436,-1.237949,2.440964,-0.734358,1.028645,2.107649,2.001602,-0.365820,-6.465159,1.644461,-12.145693,-30.741999,-42.268406,2.497540,0.190283,-0.204235,0.000000,-0.036538,0.830985,0.000000
2.290000,-1.104386,-0.887679,-1.227682,2.461712,-0.714267,1.024380,2.041490,2.015951,-0.487104,-6.761480,1.224731,-12.089503,-27.781276,-42.441143,14.390860,0.189731,-0.195721,0.000000,-0.073507,0.840414,0.000000
2.300000,-1.079668,-0.894721,-1.217465,2.481785,-0.694054,1.018908,1.972536,2.026076,-0.607088,-7.026826,0.802873,-11.906444,-26.009741,-41.117180,16.547459,0.188823,-0.187140,0.000000,-0.107639,0.844848,0.000000
2.310000,-1.054753,-0.901560,-1.207308,2.501154,-0.673759,1.012244,1.900971,2.032071,-0.725275,-7.283645,0.398448,-11.726673,-24.267930,-39.699950,18.988875,0.187586,-0.178518,0.000000,-0.139445,0.848911,0.000000
2.320000,-1.029647,-0.908196,-1.197224,2.519796,-0.653425,1.004409,1.827009,2.034098,-0.841574,-7.502129,0.009744,-11.530733,-20.470079,-38.060473,20.564769,0.186042,-0.169872,0.000000,-0.168955,0.849648,-0.000000
2.330000,-1.004359,-0.914628,-1.187224,2.537687,-0.633090,0.995420,1.750940,2.032318,-0.955796,-7.714920,-0.363206,-11.307682,-22.115564,-36.509348,24.036545,0.184215,-0.161227,0.000000,-0.196001,0.849942,-0.000000
2.340000,-0.978896,-0.920858,-1.177319,2.554808,-0.612791,0.985301,1.672718,2.026890,-1.067637,-7.923155,-0.719167,-11.058243,-18.469494,-34.619706,25.439565,0.182130,-0.152581,0.000000,-0.220614,0.849986,-0.000000
2.350000,-0.953266,-0.926884,-1.167522,2.571136,-0.592564,0.974076,1.592623,2.018001,-1.176925,-8.093200,-1.055569,-10.796019,-16.588895,-32.684193,27.371876,0.179810,-0.143954,0.000000,-0.242982,0.847087,-0.000000
2.360000,-0.927476,-0.932709,-1.157841,2.586655,-0.572442,0.961771,1.510936,2.005905,-1.283443,-8.239659,-1.358374,-10.503171,-14.427129,-30.360679,29.344538,0.177284,-0.135368,0.000000,-0.261676,0.842414,0.000000
2.370000,-0.901535,-0.938334,-1.148290,2.601349,-0.552456,0.948416,1.427762,1.990709,-1.387074,-8.397592,-1.685482,-10.226452,-15.482139,-32.620824,27.748749,0.174565,-0.126828,0.000000,-0.282435,0.839620,-0.000000
2.380000,-0.875452,-0.943759,-1.138877,2.615205,-0.532638,0.934039,1.343135,1.972390,-1.487831,-8.514105,-1.959602,-9.911457,-7.768877,-22.116803,35.278040,0.171654,-0.118329,0.000000,-0.297935,0.833513,0.000000
2.390000,-0.849234,-0.948987,-1.129612,2.628209,-0.513016,0.918671,1.257638,1.951726,-1.585159,-8.586914,-2.176729,-9.557379,-8.487993,-23.751200,33.715495,0.168626,-0.109921,0.000000,-0.308022,0.824085,0.000000
2.400000,-0.822891,-0.954020,-1.120506,2.640355,-0.493612,0.902347,1.171334,1.928747,-1.679074,-8.669576,-2.413720,-9.222551,-6.362883,-21.201665,35.004349,0.165484,-0.101601,0.000000,-0.320046,0.816519,-0.000000
2.410000,-0.796430,-0.958860,-1.111568,2.651634,-0.474448,0.885101,1.084357,1.903535,-1.769687,-8.722441,-2.626196,-8.902897,-4.367386,-19.046558,35.277408,0.162231,-0.093371,0.000000,-0.330256,0.807334,-0.000000
2.420000,-0.769861,-0.963510,-1.102807,2.662041,-0.455547,0.866966,0.996939,1.876477,-1.856607,-8.758477,-2.774001,-8.458898,-2.704399,-12.694768,47.299402,0.158906,-0.085245,0.000000,-0.333491,0.796632,-0.000000
2.430000,-0.743192,-0.967972,-1.094232,2.671572,-0.436923,0.847984,0.909258,1.848025,-1.939153,-8.773697,-2.925888,-8.087515,-0.347203,-17.753911,26.756733,0.155554,-0.077235,0.000000,-0.338265,0.785657,-0.000000
2.440000,-0.716432,-0.972249,-1.085850,2.680226,-0.418592,0.828192,0.821534,1.817918,-2.018682,-8.768626,-3.085068,-7.798966,1.200455,-11.886435,37.182764,0.152133,-0.069341,0.000000,-0.344826,0.774268,0.000000
2.450000,-0.689590,-0.976345,-1.077671,2.688003,-0.400569,0.807622,0.733932,1.786568,-2.094646,-8.748751,-3.182400,-7.397385,2.904016,-9.778600,36.881394,0.148683,-0.061573,0.000000,-0.345039,0.761785,0.000000
2.460000,-0.662675,-0.980262,-1.069700,2.694905,-0.382864,0.786312,0.646513,1.754264,-2.166745,-8.735381,-3.275652,-7.021398,4.023076,-7.697417,37.017410,0.145230,-0.053928,0.000000,-0.345467,0.750809,0.000000
2.470000,-0.635695,-0.984003,-1.061947,2.700935,-0.365486,0.764300,0.559607,1.721220,-2.235175,-8.629338,-3.325618,-6.669124,13.026015,-3.448353,34.669499,0.141785,-0.046426,0.000000,-0.342933,0.733108,0.000000
2.480000,-0.608659,-0.987573,-1.054417,2.706101,-0.348441,0.741620,0.473766,1.687766,-2.300069,-8.562171,-3.368815,-6.302100,0.262742,-5.234376,38.763710,0.138372,-0.039102,0.000000,-0.339894,0.719335,0.000000
2.490000,-0.581576,-0.990973,-1.047116,2.710411,-0.331733,0.718311,0.388179,1.653850,-2.361155,-8.540546,-3.407282,-5.919225,8.231795,-1.310133,36.546043,0.134988,-0.031883,0.000000,-0.336544,0.709968,0.000000
2.500000,-0.554454,-0.994208,-1.040052,2.713867,-0.315364,0.694410,0.303314,1.619776,-2.418556,-8.433307,-3.404999,-5.560646,9.034512,0.605599,36.416577,0.131652,-0.024799,0.000000,-0.330479,0.694427,-0.000000
2.510000,-0.527302,-0.997282,-1.033230,2.716480,-0.299337,0.669953,0.219491,1.585838,-2.472131,-8.328371,-3.378062,-5.148597,10.228890,2.765740,37.146666,0.128387,-0.017869,0.000000,-0.322161,0.679720,0.000000
2.520000,-0.500127,-1.000196,-1.026655,2.718260,-0.283647,0.644979,0.136646,1.552123,-2.522223,-8.244694,-3.368349,-4.899221,8.159371,1.112882,21.292779,0.125193,-0.011080,0.000000,-0.317153,0.667602,0.000000
2.530000,-0.472939,-1.002956,-1.020332,2.719216,-0.268294,0.619516,0.054711,1.518630,-2.569696,-8.130470,-3.315163,-4.542954,14.727742,9.572145,50.212051,0.122060,-0.004419,0.000000,-0.307815,0.653469,0.000000
2.540000,-0.445746,-1.005563,-1.014266,2.719359,-0.253271,0.593601,-0.025843,1.485986,-2.612621,-7.983971,-3.216584,-4.068869,12.883637,8.162540,35.924348,0.119053,0.002080,0.000000,-0.294061,0.637468,0.000000
2.550000,-0.418555,-1.008022,-1.008461,2.718704,-0.238571,0.567276,-0.105069,1.454205,-2.651746,-7.858739,-3.135550,-3.751449,13.826128,9.986109,36.162030,0.116164,0.008431,0.000000,-0.283491,0.623814,0.000000
2.560000,-0.391374,-1.010336,-1.002922,2.717262,-0.224184,0.540576,-0.183016,1.423294,-2.687888,-7.731271,-3.046556,-3.489909,14.310396,11.197070,33.723885,0.113382,0.014643,0.000000,-0.273021,0.610440,-0.000000
2.570000,-0.364212,-1.012507,-0.997651,2.715048,-0.210101,0.513531,-0.259463,1.393589,-2.720198,-7.548298,-2.880675,-2.915491,19.704096,18.658685,64.056437,0.110740,0.020704,0.000000,-0.253957,0.593675,0.000000
2.580000,-0.337076,-1.014539,-0.992652,2.712079,-0.196307,0.486191,-0.334088,1.365561,-2.747080,-7.391334,-2.743077,-2.567788,11.603269,8.739639,4.938198,0.108285,0.026599,0.000000,-0.239457,0.579353,-0.000000
2.590000,-0.309973,-1.016434,-0.987928,2.708371,-0.182787,0.458593,-0.407410,1.338588,-2.772526,-7.264255,-2.639432,-2.471275,16.407531,15.305778,31.608980,0.105931,0.032368,0.000000,-0.229908,0.567174,0.000000
2.600000,-0.282911,-1.018195,-0.983481,2.703936,-0.169530,0.430751,-0.479154,1.313065,-2.795228,-7.085271,-2.465601,-2.081981,16.800182,16.121415,29.067595,0.103720,0.037994,0.000000,-0.212546,0.552027,-0.000000
2.610000,-0.255896,-1.019825,-0.979314,2.698793,-0.156520,0.402700,-0.549065,1.289246,-2.814333,-6.893241,-2.296052,-1.732963,17.785988,17.128397,29.011354,0.101676,0.043465,0.000000,-0.196060,0.536254,-0.000000
2.620000,-0.228937,-1.021327,-0.975428,2.692961,-0.143739,0.374473,-0.617297,1.267123,-2.830842,-6.764685,-2.129263,-1.609412,11.633248,16.840685,7.111077,0.099789,0.048795,0.000000,-0.181748,0.525044,0.000000
2.630000,-0.202039,-1.022701,-0.971825,2.686452,-0.131172,0.346087,-0.684153,1.246719,-2.845988,-6.582724,-1.946385,-1.351132,24.874715,19.740085,44.920798,0.098049,0.054005,0.000000,-0.165197,0.510394,-0.000000
2.640000,-0.175210,-1.023951,-0.968506,2.679285,-0.118798,0.317567,-0.748727,1.228254,-2.857269,-6.342206,-1.747407,-0.941101,19.484786,19.409553,25.602034,0.096493,0.059039,0.000000,-0.146356,0.492257,-0.000000
2.650000,-0.148456,-1.025077,-0.965474,2.671484,-0.106600,0.288950,-0.811261,1.211745,-2.865710,-6.161280,-1.553108,-0.741044,20.429203,20.066385,25.893242,0.095113,0.063914,0.000000,-0.129607,0.478189,-0.000000
2.660000,-0.121783,-1.026083,-0.962728,2.663067,-0.094557,0.260261,-0.871801,1.197252,-2.871668,-5.944379,-1.343831,-0.446455,21.296177,20.715957,26.291378,0.093909,0.068637,0.000000,-0.111053,0.462079,-0.000000
2.670000,-0.095197,-1.026969,-0.960269,2.654055,-0.082648,0.231525,-0.930255,1.184802,-2.875173,-5.750657,-1.148824,-0.277077,19.042337,19.298490,14.137600,0.092882,0.073203,0.000000,-0.094605,0.447382,-0.000000
2.680000,-0.068703,-1.027736,-0.958097,2.644468,-0.070854,0.202763,-0.986713,1.174340,-2.876890,-5.530076,-0.936582,-0.026169,25.114672,23.166721,36.250342,0.092024,0.077618,0.000000,-0.076250,0.431276,-0.000000
2.690000,-0.042309,-1.028386,-0.956214,2.634329,-0.059154,0.173999,-1.040748,1.166138,-2.875342,-5.280970,-0.706596,0.315478,23.077989,21.776841,25.466051,0.091365,0.081860,0.000000,-0.055891,0.413815,0.000000
2.700000,-0.016019,-1.028920,-0.954617,2.623661,-0.047524,0.145265,-1.092438,1.160137,-2.871089,-5.055053,-0.492562,0.539110,23.702501,22.047332,25.836556,0.090897,0.085935,0.000000,-0.037647,0.397680,0.000000
2.710000,0.010163,-1.029337,-0.953308,2.612488,-0.035944,0.116585,-1.141923,1.156288,-2.864734,-4.844995,-0.277851,0.722215,23.551774,22.022502,24.219377,0.090611,0.089852,0.000000,-0.019639,0.382694,-0.000000
2.720000,0.036230,-1.029639,-0.952285,2.600831,-0.024391,0.087979,-1.188917,1.154671,-2.855607,-4.535936,-0.041924,1.146989,33.144802,24.035204,47.677421,0.090519,0.093595,0.000000,0.001813,0.361941,-0.000000
2.730000,0.062178,-1.029825,-0.951548,2.588720,-0.012842,0.059487,-1.232888,1.155392,-2.842458,-4.289468,0.179192,1.401639,15.977476,20.136275,2.839721,0.090638,0.097136,0.000000,0.020923,0.345104,0.000000
2.740000,0.088002,-1.029896,-0.951095,2.576179,-0.001276,0.031132,-1.274981,1.158188,-2.828306,-4.113400,0.382940,1.467718,24.376726,21.718251,23.550262,0.090927,0.100542,0.000000,0.037355,0.332411,-0.000000
2.750000,0.113700,-1.029850,-0.950925,2.563228,0.010328,0.002928,-1.314761,1.163127,-2.812117,-3.845838,0.603708,1.760854,23.994603,21.301425,21.952828,0.091399,0.103789,0.000000,0.056866,0.314477,0.000000
2.760000,0.139266,-1.029689,-0.951036,2.549892,0.021993,-0.025101,-1.351964,1.170219,-2.793231,-3.593137,0.813800,2.020750,24.167545,20.845286,22.130811,0.092060,0.106863,0.000000,0.075402,0.297591,0.000000
2.770000,0.164697,-1.029410,-0.951426,2.536197,0.033740,-0.052930,-1.386812,1.179398,-2.772337,-3.384416,1.021631,2.130960,19.874264,20.566256,7.594894,0.092902,0.109776,0.000000,0.092763,0.282970,0.000000
2.780000,0.189989,-1.029014,-0.952094,2.522163,0.045588,-0.080545,-1.419541,1.190625,-2.750246,-3.147399,1.221895,2.333965,27.596615,19.467506,33.256741,0.093916,0.112541,0.000000,0.110337,0.266978,-0.000000
2.790000,0.215139,-1.028498,-0.953036,2.507815,0.057559,-0.107925,-1.449637,1.203806,-2.725250,-2.879153,1.413517,2.641081,23.723719,18.983532,20.429903,0.095110,0.115133,0.000000,0.128184,0.249564,0.000000
2.800000,0.240144,-1.027862,-0.954251,2.493178,0.069671,-0.135042,-1.477306,1.218881,-2.698025,-2.653276,1.600089,2.808507,23.764258,18.176625,20.783539,0.096475,0.117564,0.000000,0.144726,0.234268,-0.000000
2.810000,0.265001,-1.027104,-0.955736,2.478276,0.081942,-0.161879,-1.502648,1.235776,-2.668922,-2.415373,1.777341,3.011328,23.646259,17.293747,20.590152,0.098004,0.119838,0.000000,0.160978,0.218379,0.000000
