time,x,y,z,vx,vy,vz,ax,ay,az,jx,jy,jz,sx,sy,sz,roll,pitch,yaw,p,q,r
0.000000,-2.650202,0.318047,-1.488463,-0.017393,-0.007147,0.003541,0.627817,-0.146257,0.175459,-6.026407,1.523423,-5.069534,104.283972,-34.618841,112.421518,-0.015147,-0.065071,0.000000,0.165071,0.656923,0.000000
0.010000,-2.650346,0.317968,-1.488420,-0.011399,-0.008539,0.005060,0.572598,-0.132708,0.130090,-5.033892,1.190909,-4.033030,94.330476,-31.901066,95.180625,-0.013685,-0.059084,0.000000,0.128053,0.542730,0.000000
0.020000,-2.650432,0.317877,-1.488363,-0.005910,-0.009812,0.006175,0.526818,-0.122350,0.094254,-4.137610,0.885063,-3.160048,85.033226,-29.284995,79.702020,-0.012574,-0.054170,0.000000,0.094735,0.442167,-0.000000
0.030000,-2.650465,0.317773,-1.488297,-0.000835,-0.010996,0.006972,0.489547,-0.114921,0.066401,-3.331119,0.604874,-2.433417,76.368433,-26.769273,65.895076,-0.011779,-0.050201,0.000000,0.064725,0.353509,-0.000000
0.040000,-2.650450,0.317657,-1.488225,0.003907,-0.012119,0.007525,0.459917,-0.110170,0.045152,-2.608213,0.349347,-1.836876,68.312265,-24.352538,53.669134,-0.011269,-0.047065,0.000000,0.037705,0.275334,0.000000
0.050000,-2.650388,0.317530,-1.488147,0.008387,-0.013207,0.007893,0.437124,-0.107855,0.029281,-1.962919,0.117497,-1.355063,60.841517,-22.033522,42.933908,-0.011016,-0.044663,0.000000,0.013424,0.206460,-0.000000
0.060000,-2.650282,0.317393,-1.488067,0.012670,-0.014283,0.008125,0.420419,-0.107744,0.017716,-1.389510,-0.091644,-0.973531,53.931760,-19.810777,33.598406,-0.010992,-0.042907,0.000000,-0.008325,0.145889,-0.000000
0.070000,-2.650135,0.317245,-1.487985,0.016813,-0.015369,0.008258,0.409113,-0.109615,0.009522,-0.882492,-0.279035,-0.678731,47.559481,-17.682990,25.572159,-0.011174,-0.041720,0.000000,-0.027713,0.092769,-0.000000
0.080000,-2.649947,0.317085,-1.487902,0.020868,-0.016482,0.008324,0.402566,-0.113256,0.003895,-0.436608,-0.445616,-0.458025,41.700914,-15.648814,18.764545,-0.011539,-0.041030,0.000000,-0.044881,0.046360,0.000000
0.090000,-2.649718,0.316915,-1.487819,0.024878,-0.017639,0.008343,0.400193,-0.118461,0.000154,-0.046840,-0.592318,-0.299680,36.332276,-13.706904,13.084896,-0.012065,-0.040772,0.000000,-0.059955,0.006011,0.000000
0.100000,-2.649449,0.316732,-1.487736,0.028884,-0.018855,0.008331,0.401458,-0.125039,-0.002270,0.291594,-0.720057,-0.192867,31.430032,-11.855872,8.442902,-0.012732,-0.040891,0.000000,-0.073045,-0.028862,0.000000
0.110000,-2.649140,0.316537,-1.487652,0.032918,-0.020144,0.008300,0.405869,-0.132802,-0.003842,0.583236,-0.829734,-0.127665,26.970154,-10.094416,4.747616,-0.013520,-0.041333,0.000000,-0.084251,-0.058786,-0.000000
0.120000,-2.648790,0.316329,-1.487570,0.037010,-0.021515,0.008256,0.412981,-0.141576,-0.004932,0.832393,-0.922239,-0.095060,22.929009,-8.421170,1.908555,-0.014411,-0.042052,0.000000,-0.093670,-0.084243,0.000000
0.130000,-2.648400,0.316107,-1.487487,0.041185,-0.022978,0.008202,0.422389,-0.151193,-0.005825,1.043133,-0.998447,-0.086942,19.282903,-6.834785,-0.164874,-0.015388,-0.043005,0.000000,-0.101394,-0.105681,-0.000000
0.140000,-2.647966,0.315869,-1.487406,0.045464,-0.024541,0.008139,0.433729,-0.161494,-0.006729,1.219289,-1.059220,-0.096108,16.008240,-5.333907,-1.563248,-0.016433,-0.044154,0.000000,-0.107515,-0.123515,-0.000000
0.150000,-2.647490,0.315616,-1.487325,0.049865,-0.026210,0.008067,0.446672,-0.172329,-0.007784,1.364458,-1.105406,-0.116259,13.081593,-3.917170,-2.377130,-0.017533,-0.045465,0.000000,-0.112124,-0.138132,-0.000000
0.160000,-2.646969,0.315345,-1.487244,0.054402,-0.027989,0.007983,0.460925,-0.183556,-0.009072,1.481968,-1.137840,-0.142010,10.476336,-2.583282,-2.697620,-0.018671,-0.046907,0.000000,-0.115311,-0.149892,-0.000000
0.170000,-2.646401,0.315056,-1.487165,0.059087,-0.029882,0.007885,0.476229,-0.195042,-0.010628,1.574972,-1.157343,-0.168870,8.172420,-1.330837,-2.614681,-0.019835,-0.048455,0.000000,-0.117170,-0.159134,-0.000000
0.180000,-2.645786,0.314747,-1.487087,0.063929,-0.031890,0.007770,0.492353,-0.206662,-0.012442,1.646338,-1.164724,-0.193262,6.144742,-0.158506,-2.219171,-0.021010,-0.050083,0.000000,-0.117789,-0.166169,0.000000
0.190000,-2.645122,0.314417,-1.487010,0.068936,-0.034015,0.007635,0.509093,-0.218299,-0.014476,1.698709,-1.160776,-0.212513,4.369617,0.935062,-1.601710,-0.022186,-0.051773,0.000000,-0.117258,-0.171283,0.000000
0.200000,-2.644407,0.314066,-1.486934,0.074113,-0.036256,0.007479,0.526272,-0.229843,-0.016669,1.734487,-1.146280,-0.224857,2.822716,1.951232,-0.852798,-0.023352,-0.053504,0.000000,-0.115667,-0.174734,-0.000000
0.210000,-2.643639,0.313692,-1.486860,0.079462,-0.038611,0.007300,0.543696,-0.241206,-0.019323,1.747112,-1.125287,-0.315392,1.308381,2.826451,-1.762384,-0.024497,-0.055257,0.000000,-0.113216,-0.175381,0.000000
0.220000,-2.642817,0.313293,-1.486788,0.084987,-0.041079,0.007093,0.561294,-0.252272,-0.021748,1.775756,-1.084551,-0.117560,2.924002,4.735263,26.304854,-0.025612,-0.057028,0.000000,-0.109491,-0.179288,0.000000
0.230000,-2.641939,0.312870,-1.486718,0.090689,-0.043655,0.006872,0.579099,-0.262898,-0.022402,1.774115,-1.042854,-0.104780,-3.272622,3.575289,-24.219275,-0.026685,-0.058829,0.000000,-0.105238,-0.179123,-0.000000
0.240000,-2.641003,0.312420,-1.486651,0.096568,-0.046336,0.006639,0.596662,-0.273136,-0.024649,1.741706,-1.001650,-0.297989,-1.643180,5.234482,0.745517,-0.027715,-0.060595,0.000000,-0.100451,-0.174551,0.000000
0.250000,-2.640007,0.311943,-1.486586,0.102622,-0.049116,0.006379,0.614025,-0.282864,-0.027188,1.728630,-0.943280,-0.218729,-2.485316,5.852855,-0.017810,-0.028691,-0.062338,0.000000,-0.094676,-0.173588,-0.000000
0.260000,-2.638950,0.311437,-1.486523,0.108848,-0.051991,0.006096,0.631151,-0.291990,-0.029406,1.694976,-0.880735,-0.225426,-3.212862,6.473386,0.028699,-0.029606,-0.064057,0.000000,-0.088248,-0.170020,-0.000000
0.270000,-2.637830,0.310903,-1.486464,0.115244,-0.054954,0.005791,0.647984,-0.300473,-0.031586,1.674073,-0.815581,-0.205744,-1.931059,6.718424,2.596221,-0.030456,-0.065747,0.000000,-0.081642,-0.167919,0.000000
0.280000,-2.636644,0.310338,-1.486407,0.121807,-0.057998,0.005465,0.664569,-0.308275,-0.033581,1.636091,-0.742974,-0.201043,-5.679317,7.800709,-1.698471,-0.031236,-0.067411,0.000000,-0.074250,-0.164002,-0.000000
0.290000,-2.635393,0.309743,-1.486354,0.128533,-0.061117,0.005119,0.680640,-0.315307,-0.035673,1.580673,-0.663126,-0.213227,-4.397622,7.991542,0.583451,-0.031938,-0.069021,0.000000,-0.066083,-0.158211,-0.000000
0.300000,-2.634073,0.309115,-1.486305,0.135418,-0.064302,0.004752,0.696248,-0.321536,-0.037740,1.540007,-0.581826,-0.200643,-4.710432,8.432275,0.612682,-0.032558,-0.070584,0.000000,-0.057855,-0.154089,-0.000000
0.310000,-2.632684,0.308456,-1.486260,0.142457,-0.067545,0.004364,0.711394,-0.326920,-0.039719,1.488307,-0.494144,-0.195256,-4.954894,8.853202,0.691193,-0.033092,-0.072100,0.000000,-0.048972,-0.148812,0.000000
0.320000,-2.631224,0.307764,-1.486218,0.149644,-0.070837,0.003958,0.726062,-0.331425,-0.041624,1.447255,-0.407129,-0.184754,-3.888340,8.782362,1.186347,-0.033538,-0.073567,0.000000,-0.040182,-0.144656,-0.000000
0.330000,-2.629691,0.307039,-1.486180,0.156977,-0.074170,0.003532,0.740304,-0.335039,-0.043422,1.397229,-0.313606,-0.176210,-6.126995,9.924643,0.513829,-0.033894,-0.074991,0.000000,-0.030740,-0.139589,0.000000
0.340000,-2.628084,0.306281,-1.486147,0.164448,-0.077535,0.003089,0.753970,-0.337674,-0.045158,1.337935,-0.213544,-0.170035,-5.072756,9.843090,0.942793,-0.034151,-0.076356,0.000000,-0.020642,-0.133580,-0.000000
0.350000,-2.626401,0.305489,-1.486119,0.172054,-0.080920,0.002629,0.767114,-0.339318,-0.046804,1.290419,-0.114793,-0.159289,-5.070453,10.142130,0.982147,-0.034308,-0.077669,0.000000,-0.010699,-0.128802,0.000000
0.360000,-2.624642,0.304662,-1.486095,0.179789,-0.084318,0.002154,0.779755,-0.339950,-0.048349,1.237741,-0.010971,-0.149801,-5.029180,10.422836,1.014156,-0.034363,-0.078932,0.000000,-0.000251,-0.123505,-0.000000
0.370000,-2.622805,0.303802,-1.486076,0.187648,-0.087716,0.001663,0.791905,-0.339545,-0.049791,1.193914,0.091788,-0.138118,-4.146034,10.314856,1.223428,-0.034313,-0.080145,0.000000,0.010077,-0.119125,0.000000
0.380000,-2.620889,0.302908,-1.486062,0.195626,-0.091105,0.001158,0.803617,-0.338097,-0.051116,1.146204,0.199236,-0.127411,-5.403265,11.177086,0.913196,-0.034159,-0.081314,0.000000,0.020873,-0.114355,-0.000000
0.390000,-2.618892,0.301980,-1.486053,0.203718,-0.094474,0.000641,0.814812,-0.335543,-0.052344,1.094369,0.311424,-0.117917,-4.538795,11.065760,1.082295,-0.033894,-0.082431,0.000000,0.032144,-0.109168,-0.000000
0.400000,-2.616814,0.301019,-1.486049,0.211920,-0.097812,0.000112,0.825543,-0.331877,-0.053466,1.051946,0.422112,-0.106629,-4.359670,11.259619,1.075433,-0.033517,-0.083502,0.000000,0.043255,-0.104951,0.000000
0.410000,-2.614653,0.300024,-1.486050,0.220228,-0.101108,-0.000428,0.835842,-0.327087,-0.054481,1.007979,0.536292,-0.096386,-4.159973,11.437786,1.056249,-0.033028,-0.084531,0.000000,0.054717,-0.100577,-0.000000
0.420000,-2.612409,0.298997,-1.486057,0.228636,-0.104350,-0.000978,0.845732,-0.321157,-0.055388,0.971300,0.649562,-0.084753,-3.434829,11.344859,1.186946,-0.032424,-0.085518,0.000000,0.066081,-0.096955,-0.000000
0.430000,-2.610080,0.297937,-1.486070,0.237141,-0.107527,-0.001536,0.855264,-0.314085,-0.056181,0.933836,0.765891,-0.074398,-4.063569,11.922139,0.880150,-0.031705,-0.086470,0.000000,0.077755,-0.093249,-0.000000
0.440000,-2.607666,0.296847,-1.486088,0.245740,-0.110628,-0.002101,0.864403,-0.305828,-0.056882,0.895379,0.885291,-0.065511,-3.360915,11.822356,0.979071,-0.030867,-0.087383,0.000000,0.089743,-0.089435,-0.000000
0.450000,-2.605165,0.295725,-1.486112,0.254428,-0.113640,-0.002673,0.873201,-0.296385,-0.057486,0.864416,1.003411,-0.055540,-3.094726,11.931294,0.931347,-0.029911,-0.088263,0.000000,0.101599,-0.086389,-0.000000
0.460000,-2.602577,0.294574,-1.486142,0.263203,-0.116552,-0.003250,0.881691,-0.285751,-0.057996,0.833913,1.123629,-0.046447,-2.822899,12.025189,0.883653,-0.028834,-0.089112,0.000000,0.113670,-0.083386,-0.000000
0.470000,-2.599901,0.293394,-1.486177,0.272061,-0.119351,-0.003833,0.889903,-0.273917,-0.058417,0.809652,1.243086,-0.037906,-2.204493,11.945521,0.826392,-0.027638,-0.089934,0.000000,0.125669,-0.081008,0.000000
0.480000,-2.597136,0.292187,-1.486218,0.281000,-0.122026,-0.004418,0.897885,-0.260883,-0.058756,0.786142,1.364206,-0.029879,-2.502408,12.278505,0.778605,-0.026320,-0.090733,0.000000,0.137839,-0.078705,-0.000000
0.490000,-2.594281,0.290954,-1.486265,0.290018,-0.124565,-0.005007,0.905626,-0.246627,-0.059016,0.763178,1.486947,-0.022396,-1.912028,12.184491,0.714973,-0.024880,-0.091508,0.000000,0.150176,-0.076455,-0.000000
0.500000,-2.591335,0.289697,-1.486318,0.299112,-0.126954,-0.005599,0.913172,-0.231150,-0.059206,0.746396,1.608546,-0.015573,-1.621705,12.215058,0.652675,-0.023317,-0.092265,0.000000,0.162403,-0.074822,0.000000
0.510000,-2.588298,0.288416,-1.486377,0.308281,-0.129183,-0.006191,0.920558,-0.214452,-0.059331,0.731102,1.731016,-0.009617,-1.332027,12.229912,0.583799,-0.021632,-0.093005,0.000000,0.174723,-0.073332,0.000000
0.520000,-2.585169,0.287114,-1.486442,0.317523,-0.131239,-0.006785,0.927812,-0.196533,-0.059397,0.720720,1.852665,-0.003480,-0.847038,12.142232,0.599355,-0.019823,-0.093734,0.000000,0.186962,-0.072339,0.000000
0.530000,-2.581947,0.285792,-1.486513,0.326837,-0.133110,-0.007379,0.934977,-0.177397,-0.059405,0.712004,1.974753,0.001442,-0.899841,12.274255,0.383763,-0.017892,-0.094453,0.000000,0.199251,-0.071503,-0.000000
0.540000,-2.578632,0.284452,-1.486590,0.336222,-0.134783,-0.007973,0.942057,-0.157036,-0.059372,0.704776,2.097185,0.005094,-0.443433,12.163875,0.391567,-0.015838,-0.095164,0.000000,0.211579,-0.070806,-0.000000
0.550000,-2.575223,0.283097,-1.486673,0.345678,-0.136247,-0.008566,0.949090,-0.135458,-0.059302,0.702238,2.218364,0.008898,-0.167875,12.114390,0.325515,-0.013661,-0.095871,0.000000,0.223781,-0.070581,-0.000000
0.560000,-2.571718,0.281728,-1.486761,0.355204,-0.137488,-0.009159,0.956107,-0.112670,-0.059198,0.701580,2.339277,0.011646,0.100246,12.047458,0.261526,-0.011363,-0.096576,0.000000,0.235957,-0.070536,-0.000000
0.570000,-2.568118,0.280348,-1.486856,0.364800,-0.138496,-0.009750,0.963135,-0.088677,-0.059068,0.704814,2.459091,0.014481,0.482018,11.930061,0.270674,-0.008943,-0.097283,0.000000,0.248022,-0.070882,-0.000000
0.580000,-2.564422,0.278959,-1.486956,0.374467,-0.139258,-0.010340,0.970209,-0.063490,-0.058912,0.709866,2.578189,0.016327,0.524720,11.887079,0.098313,-0.006402,-0.097995,0.000000,0.260014,-0.071401,0.000000
0.590000,-2.560629,0.277563,-1.487062,0.384204,-0.139762,-0.010928,0.977338,-0.037116,-0.058745,0.716552,2.696421,0.017193,0.874556,11.738937,0.112134,-0.003743,-0.098712,0.000000,0.271915,-0.072073,-0.000000
0.600000,-2.556738,0.276164,-1.487175,0.394014,-0.139996,-0.011515,0.984552,-0.009567,-0.058567,0.726780,2.813059,0.018289,1.105494,11.603130,0.072656,-0.000965,-0.099437,0.000000,0.283649,-0.073103,0.000000
0.610000,-2.552748,0.274764,-1.487293,0.403896,-0.139949,-0.012100,0.991878,0.019141,-0.058380,0.738620,2.928317,0.019110,1.321648,11.447997,0.048925,0.001930,-0.100174,0.000000,0.295238,-0.074291,0.000000
0.620000,-2.548660,0.273366,-1.487417,0.413852,-0.139610,-0.012683,0.999337,0.048994,-0.058189,0.753725,3.041978,0.018888,1.638496,11.278945,-0.048202,0.004940,-0.100924,0.000000,0.306657,-0.075795,0.000000
0.630000,-2.544471,0.271973,-1.487546,0.423883,-0.138966,-0.013264,1.006956,0.079974,-0.058001,0.770113,3.153789,0.019093,1.635175,11.079996,0.092381,0.008062,-0.101691,0.000000,0.317878,-0.077430,-0.000000
0.640000,-2.540182,0.270588,-1.487682,0.433991,-0.138007,-0.013843,1.014742,0.112063,-0.057805,0.787568,3.263560,0.019898,1.912595,10.873340,0.026979,0.011296,-0.102473,0.000000,0.328882,-0.079177,-0.000000
0.650000,-2.535791,0.269214,-1.487823,0.444178,-0.136721,-0.014420,1.022718,0.145238,-0.057606,0.807819,3.371174,0.020045,2.075403,10.643950,0.048353,0.014639,-0.103275,0.000000,0.339654,-0.081195,0.000000
0.660000,-2.531298,0.267855,-1.487970,0.454446,-0.135098,-0.014995,1.030901,0.179478,-0.057402,0.829102,3.476320,0.020709,2.221840,10.394149,0.081283,0.018089,-0.104098,0.000000,0.350162,-0.083320,-0.000000
0.670000,-2.526702,0.266513,-1.488123,0.464797,-0.133128,-0.015568,1.039308,0.214757,-0.057191,0.852600,3.579102,0.021667,2.433285,10.147246,0.118323,0.021642,-0.104943,0.000000,0.360415,-0.085668,0.000000
0.680000,-2.522002,0.265193,-1.488282,0.475233,-0.130800,-0.016138,1.047956,0.251050,-0.056967,0.876835,3.678956,0.023240,2.409770,9.819993,0.198990,0.025296,-0.105812,0.000000,0.370356,-0.088094,-0.000000
0.690000,-2.517197,0.263899,-1.488446,0.485757,-0.128104,-0.016707,1.056846,0.288326,-0.056723,0.901587,3.775670,0.025592,2.580070,9.531146,0.268711,0.029048,-0.106705,0.000000,0.379963,-0.090577,-0.000000
0.700000,-2.512286,0.262633,-1.488616,0.496371,-0.125030,-0.017273,1.065994,0.326554,-0.056452,0.928019,3.869413,0.028724,2.661549,9.202386,0.365386,0.032894,-0.107625,0.000000,0.389252,-0.093233,0.000000
0.710000,-2.507269,0.261399,-1.488791,0.507078,-0.121569,-0.017836,1.075407,0.365702,-0.056144,0.954741,3.959634,0.033248,2.723698,8.852550,0.485801,0.036831,-0.108571,0.000000,0.398170,-0.095931,-0.000000
0.720000,-2.502144,0.260203,-1.488973,0.517880,-0.117713,-0.018396,1.085094,0.405736,-0.055788,0.982836,4.046525,0.037980,2.849989,8.508552,0.518762,0.040856,-0.109545,0.000000,0.406732,-0.098766,0.000000
0.730000,-2.496911,0.259046,-1.489159,0.528781,-0.113452,-0.018951,1.095063,0.446619,-0.055376,1.010791,4.129451,0.044846,2.736605,8.072784,0.859424,0.044965,-0.110548,0.000000,0.414882,-0.101607,-0.000000
0.740000,-2.491568,0.257935,-1.489352,0.539782,-0.108778,-0.019503,1.105308,0.488311,-0.054882,1.038366,4.208187,0.054120,2.818185,7.684781,0.943155,0.049152,-0.111579,0.000000,0.422601,-0.104435,-0.000000
0.750000,-2.486115,0.256872,-1.489549,0.550888,-0.103683,-0.020049,1.115834,0.530770,-0.054292,1.066735,4.282960,0.064251,2.809360,7.252595,1.141874,0.053415,-0.112640,0.000000,0.429906,-0.107349,0.000000
0.760000,-2.480550,0.255863,-1.489753,0.562100,-0.098160,-0.020588,1.126640,0.573955,-0.053587,1.094458,4.353186,0.077251,2.779475,6.799285,1.368392,0.057749,-0.113729,0.000000,0.436752,-0.110229,-0.000000
0.770000,-2.474873,0.254910,-1.489961,0.573422,-0.092202,-0.021120,1.137725,0.617819,-0.052747,1.122699,4.418969,0.090832,2.819789,6.344001,1.441903,0.062149,-0.114848,0.000000,0.443138,-0.113167,0.000000
0.780000,-2.469081,0.254020,-1.490175,0.584855,-0.085802,-0.021643,1.149090,0.662317,-0.051757,1.149828,4.479788,0.108060,2.601518,5.815977,2.010018,0.066610,-0.115997,0.000000,0.449035,-0.116035,0.000000
0.790000,-2.463175,0.253196,-1.490394,0.596404,-0.078953,-0.022155,1.160717,0.707398,-0.050572,1.175598,4.535418,0.129274,2.595907,5.316407,2.145244,0.071128,-0.117174,0.000000,0.454429,-0.118814,0.000000
0.800000,-2.457153,0.252443,-1.490618,0.608071,-0.071652,-0.022653,1.172602,0.753009,-0.049169,1.201287,4.585961,0.151812,2.493071,4.778712,2.456934,0.075697,-0.118379,0.000000,0.459317,-0.121602,-0.000000
0.810000,-2.451013,0.251764,-1.490847,0.619857,-0.063892,-0.023137,1.184737,0.799098,-0.047519,1.225357,4.630947,0.178752,2.369614,4.219809,2.799371,0.080312,-0.119612,0.000000,0.463681,-0.124283,-0.000000
0.820000,-2.444755,0.251166,-1.491081,0.631766,-0.055669,-0.023603,1.197109,0.845609,-0.045593,1.249094,4.670330,0.206624,2.324827,3.648578,2.909847,0.084969,-0.120873,0.000000,0.467495,-0.126947,0.000000
0.830000,-2.438378,0.250653,-1.491319,0.643800,-0.046978,-0.024048,1.209711,0.892485,-0.043368,1.270744,4.703749,0.239776,2.000635,3.031436,3.727913,0.089661,-0.122160,0.000000,0.470765,-0.129471,-0.000000
0.840000,-2.431879,0.250228,-1.491561,0.655961,-0.037818,-0.024469,1.222516,0.939664,-0.040778,1.290063,4.730982,0.278592,1.910915,2.416374,3.905964,0.094382,-0.123472,0.000000,0.473487,-0.131841,0.000000
0.850000,-2.425258,0.249898,-1.491808,0.668251,-0.028184,-0.024862,1.235511,0.987084,-0.037793,1.308478,4.751965,0.319085,1.718871,1.771796,4.327921,0.099128,-0.124809,0.000000,0.475623,-0.134151,0.000000
0.860000,-2.418514,0.249666,-1.492059,0.680672,-0.018076,-0.025223,1.248676,1.034681,-0.034375,1.324334,4.766341,0.365493,1.506384,1.105340,4.780362,0.103893,-0.126168,0.000000,0.477191,-0.136293,-0.000000
0.870000,-2.411644,0.249538,-1.492313,0.693225,-0.007490,-0.025548,1.261994,1.082388,-0.030482,1.339051,4.774048,0.413151,1.381247,0.427312,4.923237,0.108670,-0.127549,0.000000,0.478145,-0.138350,0.000000
0.880000,-2.404649,0.249518,-1.492569,0.705912,0.003572,-0.025831,1.275447,1.130138,-0.026088,1.350789,4.774707,0.467563,0.962303,-0.299433,5.967059,0.113454,-0.128951,0.000000,0.478516,-0.140214,0.000000
0.890000,-2.397526,0.249611,-1.492829,0.718734,0.015112,-0.026068,1.288999,1.177858,-0.021106,1.359325,4.768093,0.529116,0.796234,-1.021756,6.175000,0.118239,-0.130371,0.000000,0.478303,-0.141871,0.000000
0.900000,-2.390273,0.249822,-1.493091,0.731692,0.027129,-0.026251,1.302629,1.225476,-0.015502,1.366205,4.754155,0.592553,0.524508,-1.774628,6.684954,0.123018,-0.131808,0.000000,0.477451,-0.143410,0.000000
0.910000,-2.382891,0.250155,-1.493354,0.744787,0.039621,-0.026376,1.316311,1.272915,-0.009229,1.369763,4.732441,0.663143,0.237212,-2.551080,7.218893,0.127786,-0.133260,0.000000,0.475989,-0.144739,-0.000000
0.920000,-2.375377,0.250616,-1.493618,0.758019,0.052587,-0.026434,1.330019,1.320100,-0.002239,1.371391,4.703250,0.734973,0.035437,-3.310651,7.357708,0.132535,-0.134726,0.000000,0.473885,-0.145920,-0.000000
0.930000,-2.367730,0.251208,-1.493882,0.771387,0.066022,-0.026418,1.343727,1.366952,0.005499,1.369363,4.665737,0.814714,-0.444425,-4.196183,8.597763,0.137261,-0.136203,0.000000,0.471151,-0.146876,-0.000000
0.940000,-2.359949,0.251938,-1.494146,0.784893,0.079924,-0.026321,1.357393,1.413386,0.014085,1.363496,4.619659,0.902702,-0.679346,-5.002831,8.788813,0.141956,-0.137690,0.000000,0.467790,-0.147597,-0.000000
0.950000,-2.352032,0.252808,-1.494408,0.798535,0.094288,-0.026133,1.370990,1.459319,0.023554,1.355308,4.565438,0.992288,-1.011255,-5.864998,9.338891,0.146615,-0.139185,0.000000,0.463757,-0.148147,0.000000
0.960000,-2.343978,0.253825,-1.494668,0.812313,0.109109,-0.025847,1.384485,1.504664,0.033956,1.343238,4.502061,1.089082,-1.354427,-6.753734,9.887530,0.151229,-0.140685,0.000000,0.459045,-0.148452,-0.000000
0.970000,-2.335785,0.254992,-1.494925,0.826224,0.124379,-0.025451,1.397847,1.549335,0.045344,1.328650,4.430848,1.188809,-1.612588,-7.550723,10.184403,0.155794,-0.142188,0.000000,0.453731,-0.148592,0.000000
0.980000,-2.327453,0.256314,-1.495177,0.840269,0.140093,-0.024936,1.411044,1.593247,0.057756,1.309951,4.349751,1.295421,-2.129691,-8.673900,11.140205,0.160301,-0.143692,0.000000,0.447684,-0.148466,-0.000000
0.990000,-2.318980,0.257795,-1.495423,0.854445,0.156241,-0.024292,1.424031,1.636296,0.071276,1.287012,4.258485,1.408990,-2.410271,-9.523554,11.442269,0.164745,-0.145195,0.000000,0.440891,-0.148068,0.000000
1.000000,-2.310364,0.259440,-1.495662,0.868749,0.172816,-0.023507,1.436776,1.678390,0.085943,1.261320,4.158713,1.525303,-2.777582,-10.492909,11.946568,0.169117,-0.146693,0.000000,0.433451,-0.147487,-0.000000
1.010000,-2.301604,0.261253,-1.495893,0.883179,0.189806,-0.022569,1.449243,1.719433,0.101808,1.231297,4.048176,1.648550,-3.153323,-11.491582,12.450956,0.173411,-0.148186,0.000000,0.425221,-0.146630,-0.000000
1.020000,-2.292700,0.263238,-1.496113,0.897733,0.207200,-0.021467,1.461396,1.759330,0.118910,1.198931,3.929982,1.771957,-3.392003,-12.272581,12.467158,0.177620,-0.149670,0.000000,0.416392,-0.145596,-0.000000
1.030000,-2.283649,0.265398,-1.496322,0.912406,0.224988,-0.020187,1.473205,1.797993,0.137273,1.161943,3.800096,1.902858,-4.007769,-13.711108,13.715482,0.181736,-0.151144,0.000000,0.406700,-0.144269,-0.000000
1.040000,-2.274451,0.267739,-1.496516,0.927195,0.243156,-0.018717,1.484618,1.835291,0.156995,1.120237,3.658182,2.041282,-4.260464,-14.550739,13.720002,0.185751,-0.152603,0.000000,0.396119,-0.142644,-0.000000
1.050000,-2.265105,0.270263,-1.496695,0.942097,0.261689,-0.017042,1.495603,1.871131,0.178093,1.076132,3.507982,2.179199,-4.633087,-15.614959,14.099205,0.189656,-0.154046,0.000000,0.384866,-0.140828,0.000000
1.060000,-2.255609,0.272974,-1.496856,0.957106,0.280573,-0.015150,1.506126,1.905407,0.200597,1.027850,3.345334,2.322073,-4.999415,-16.708079,14.424998,0.193445,-0.155470,0.000000,0.372630,-0.138728,0.000000
1.070000,-2.245962,0.275875,-1.496997,0.972218,0.299792,-0.013026,1.516150,1.938018,0.224541,0.976375,3.175700,2.467143,-5.316757,-17.422909,14.622485,0.197108,-0.156872,0.000000,0.359889,-0.136398,-0.000000
1.080000,-2.236164,0.278971,-1.497116,0.987427,0.319328,-0.010654,1.525641,1.968875,0.249950,0.921074,2.992593,2.615227,-5.742623,-19.206350,14.986404,0.200638,-0.158251,0.000000,0.346012,-0.133786,-0.000000
1.090000,-2.226214,0.282263,-1.497210,1.002729,0.339163,-0.008022,1.534559,1.997822,0.276854,0.862004,2.795643,2.765832,-6.047351,-19.980294,15.082522,0.204024,-0.159602,0.000000,0.330938,-0.130888,-0.000000
1.100000,-2.216109,0.285755,-1.497276,1.018116,0.359277,-0.005112,1.542872,2.024766,0.305268,0.799975,2.591234,2.917030,-6.378868,-21.106057,15.188088,0.207255,-0.160923,0.000000,0.315243,-0.127751,-0.000000
1.110000,-2.205851,0.289449,-1.497311,1.033584,0.379651,-0.001911,1.550547,2.049598,0.335194,0.734585,2.372991,3.068083,-6.696284,-22.253548,15.202537,0.210324,-0.162212,0.000000,0.298259,-0.124317,-0.000000
1.120000,-2.195437,0.293349,-1.497313,1.049125,0.400262,0.001597,1.557553,2.072211,0.366644,0.666104,2.148823,3.222605,-6.998009,-22.860108,15.503796,0.213220,-0.163465,0.000000,0.280828,-0.120668,-0.000000
1.130000,-2.184868,0.297455,-1.497278,1.064733,0.421088,0.005427,1.563859,2.092523,0.399634,0.594665,1.909915,3.374005,-7.286900,-24.929331,14.757521,0.215935,-0.164680,0.000000,0.261903,-0.116702,-0.000000
1.140000,-2.174143,0.301771,-1.497203,1.080400,0.442104,0.009594,1.569437,2.110357,0.434109,0.520437,1.655936,3.521252,-7.554986,-25.581862,14.865882,0.218452,-0.165853,0.000000,0.241391,-0.112411,0.000000
1.150000,-2.163260,0.306298,-1.497085,1.096119,0.463286,0.014114,1.574259,2.125626,0.470066,0.443632,1.395912,3.669449,-7.804054,-26.702768,14.572690,0.220762,-0.166982,0.000000,0.220270,-0.107893,-0.000000
1.160000,-2.152220,0.311037,-1.496920,1.111882,0.484608,0.019000,1.578301,2.138224,0.507477,0.364382,1.121627,3.812120,-8.033232,-27.825868,14.179205,0.222852,-0.168063,0.000000,0.197533,-0.103043,0.000000
1.170000,-2.141022,0.315990,-1.496704,1.127682,0.506042,0.024268,1.581541,2.148048,0.546312,0.283128,0.842458,3.954872,-8.222476,-28.319665,14.130568,0.224711,-0.169094,0.000000,0.174203,-0.097992,-0.000000
1.180000,-2.129666,0.321158,-1.496433,1.143510,0.527559,0.029931,1.583957,2.155022,0.586547,0.199829,0.548690,4.089689,-8.433339,-30.439096,12.810031,0.226330,-0.170073,0.000000,0.149072,-0.092586,-0.000000
1.190000,-2.118152,0.326542,-1.496104,1.159359,0.549132,0.036003,1.585531,2.158970,0.628074,0.114728,0.240169,4.215317,-8.573439,-30.940533,12.527247,0.227686,-0.170993,0.000000,0.122031,-0.086813,-0.000000
1.200000,-2.106479,0.332141,-1.495711,1.175218,0.570728,0.042497,1.586248,2.159817,0.670847,0.028378,-0.072705,4.337974,-8.700614,-31.945434,11.760790,0.228768,-0.171854,0.000000,0.094221,-0.080827,-0.000000
1.210000,-2.094648,0.337956,-1.495252,1.191081,0.592318,0.049424,1.586096,2.157470,0.714787,-0.058768,-0.398382,4.448223,-8.790244,-32.916636,10.845510,0.229563,-0.172652,0.000000,0.064498,-0.074494,0.000000
1.220000,-2.082658,0.343987,-1.494722,1.206937,0.613867,0.056796,1.585064,2.151839,0.759826,-0.147944,-0.728430,4.559820,-8.974437,-33.341879,10.901254,0.230056,-0.173383,0.000000,0.033993,-0.067918,-0.000000
1.230000,-2.070509,0.350233,-1.494115,1.222779,0.635343,0.064624,1.583139,2.142860,0.805922,-0.236776,-1.070442,4.654243,-8.784413,-35.058652,7.949364,0.230236,-0.174046,0.000000,0.001411,-0.060998,-0.000000
1.240000,-2.058202,0.356694,-1.493427,1.238597,0.656712,0.072918,1.580332,2.130389,0.852843,-0.324841,-1.424182,4.729719,-8.888713,-35.418042,7.690454,0.230077,-0.174635,0.000000,-0.033352,-0.053725,0.000000
1.250000,-2.045737,0.363367,-1.492655,1.254383,0.677939,0.081684,1.576638,2.114371,0.900519,-0.413870,-1.780780,4.802952,-8.845633,-36.148589,6.380499,0.229567,-0.175149,0.000000,-0.069033,-0.046213,-0.000000
1.260000,-2.033115,0.370252,-1.491792,1.270127,0.698988,0.090930,1.572061,2.094743,0.948827,-0.501183,-2.145902,4.855835,-8.754541,-36.793294,4.926009,0.228689,-0.175583,0.000000,-0.106740,-0.038393,0.000000
1.270000,-2.020335,0.377346,-1.490835,1.285821,0.719822,0.100662,1.566606,2.071439,0.997646,-0.590157,-2.515729,4.908019,-8.894655,-37.224642,4.771490,0.227428,-0.175936,0.000000,-0.145652,-0.030260,0.000000
1.280000,-2.007398,0.384648,-1.489777,1.301456,0.740404,0.110884,1.560270,2.044408,1.046900,-0.676024,-2.891499,4.935767,-8.267944,-37.915542,0.740841,0.225769,-0.176203,0.000000,-0.186560,-0.021861,-0.000000
1.290000,-1.994306,0.392153,-1.488615,1.317024,0.760697,0.121600,1.553099,2.013591,1.096268,-0.758206,-3.272355,4.937187,-8.302617,-38.170985,0.259709,0.223690,-0.176384,0.000000,-0.229486,-0.013208,-0.000000
1.300000,-1.981058,0.399860,-1.487344,1.332515,0.780663,0.132810,1.545102,1.978956,1.145643,-0.840756,-3.655141,4.934488,-8.060002,-38.435545,-1.541697,0.221176,-0.176473,0.000000,-0.273592,-0.004278,-0.000000
1.310000,-1.967656,0.407765,-1.485957,1.347923,0.800264,0.144513,1.536301,1.940487,1.194861,-0.918697,-4.038798,4.905504,-7.760305,-38.552536,-3.462196,0.218213,-0.176471,0.000000,-0.319361,0.004824,0.000000
1.320000,-1.954100,0.415864,-1.484452,1.363239,0.819460,0.156706,1.526719,1.898156,1.243753,-0.998027,-4.428336,4.872420,-7.867745,-39.066900,-3.946442,0.214783,-0.176373,0.000000,-0.366824,0.014331,0.000000
1.330000,-1.940391,0.424153,-1.482822,1.378455,0.838214,0.169386,1.516364,1.851935,1.292206,-1.071061,-4.814094,4.809974,-6.725380,-38.055081,-8.576631,0.210872,-0.176177,0.000000,-0.415584,0.023899,-0.000000
1.340000,-1.926531,0.432627,-1.481062,1.393564,0.856486,0.182547,1.505323,1.801894,1.339843,-1.137093,-5.194422,4.716514,-6.708574,-38.258775,-9.334784,0.206468,-0.175884,0.000000,-0.465475,0.033478,-0.000000
1.350000,-1.912520,0.441281,-1.479169,1.408559,0.874239,0.196180,1.493618,1.748035,1.386528,-1.203122,-5.576519,4.616434,-6.258118,-37.867695,-11.473454,0.201558,-0.175492,0.000000,-0.516694,0.043365,-0.000000
1.360000,-1.898360,0.450110,-1.477137,1.423434,0.891434,0.210274,1.481289,1.690403,1.432064,-1.261530,-5.948552,4.486702,-5.749793,-37.269291,-13.683132,0.196133,-0.175000,0.000000,-0.568434,0.053157,-0.000000
1.370000,-1.884052,0.459108,-1.474962,1.438183,0.908035,0.224817,1.468378,1.629025,1.476252,-1.321059,-6.328363,4.350006,-5.828293,-37.936971,-14.429307,0.190181,-0.174406,0.000000,-0.622117,0.063381,0.000000
1.380000,-1.869597,0.468269,-1.472640,1.452800,0.924002,0.239794,1.454902,1.563897,1.518954,-1.371225,-6.691441,4.181902,-4.189590,-34.631154,-19.216278,0.183692,-0.173710,0.000000,-0.675468,0.073326,-0.000000
1.390000,-1.854997,0.477586,-1.470165,1.467279,0.939301,0.255189,1.440989,1.495267,1.559776,-1.411272,-7.035296,3.981284,-4.140495,-34.853771,-20.127469,0.176675,-0.172916,0.000000,-0.728035,0.082894,-0.000000
1.400000,-1.840252,0.487052,-1.467534,1.481618,0.953896,0.270983,1.426671,1.423170,1.598567,-1.451176,-7.381744,3.772795,-3.512416,-33.674502,-22.341773,0.169126,-0.172025,0.000000,-0.781653,0.092718,0.000000
1.410000,-1.825365,0.496661,-1.464744,1.495812,0.967753,0.287153,1.412000,1.347714,1.635133,-1.481786,-7.706537,3.536723,-2.853824,-32.279604,-24.515258,0.161048,-0.171037,0.000000,-0.833765,0.102110,0.000000
1.420000,-1.810336,0.506405,-1.461790,1.509857,0.980839,0.303677,1.397038,1.269005,1.669258,-1.510465,-8.036233,3.285870,-2.638331,-32.645192,-25.987580,0.152445,-0.169955,0.000000,-0.887011,0.111640,0.000000
1.430000,-1.795168,0.516275,-1.458669,1.523751,0.993122,0.320530,1.381825,1.187089,1.700765,-1.529443,-8.338170,3.010010,-1.147063,-27.687452,-29.184017,0.143318,-0.168780,0.000000,-0.937537,0.120569,-0.000000
1.440000,-1.779862,0.526264,-1.455379,1.537493,1.004572,0.337683,1.366485,1.102351,1.729373,-1.538230,-8.609542,2.709329,-0.851463,-27.563479,-30.594629,0.133707,-0.167521,0.000000,-0.984669,0.128785,0.000000
1.450000,-1.764419,0.536364,-1.451915,1.551081,1.015160,0.355107,1.351065,1.014882,1.754914,-1.544376,-8.880494,2.395488,-0.134214,-25.607938,-32.500700,0.123623,-0.166181,0.000000,-1.031528,0.136912,0.000000
1.460000,-1.748841,0.546565,-1.448276,1.564514,1.024861,0.372771,1.335617,0.924861,1.777245,-1.544236,-9.119482,2.068787,0.531941,-23.443670,-34.136769,0.113092,-0.164764,0.000000,-1.074060,0.144472,-0.000000
1.470000,-1.733129,0.556858,-1.444459,1.577793,1.033650,0.390641,1.320232,0.832463,1.796130,-1.530348,-9.360694,1.701048,1.889370,-23.541533,-38.117323,0.102140,-0.163277,0.000000,-1.116477,0.151080,0.000000
1.480000,-1.717285,0.567235,-1.440462,1.590920,1.041503,0.408681,1.305016,0.737783,1.811277,-1.513933,-9.563951,1.333598,1.382703,-17.053171,-35.312166,0.090784,-0.161728,0.000000,-1.153004,0.157218,0.000000
1.490000,-1.701311,0.577685,-1.436285,1.603894,1.048399,0.426854,1.289958,0.641330,1.822823,-1.495481,-9.726451,0.969452,2.667519,-16.680033,-38.781572,0.079102,-0.160121,0.000000,-1.183035,0.162860,0.000000
1.500000,-1.685208,0.588199,-1.431925,1.616720,1.054324,0.445124,1.275157,0.543240,1.830523,-1.463642,-9.886637,0.569343,3.340237,-14.096967,-39.934617,0.067126,-0.158465,0.000000,-1.211411,0.167362,0.000000
1.510000,-1.668977,0.598768,-1.427382,1.629399,1.059259,0.463451,1.260717,0.443726,1.834217,-1.422730,-10.011314,0.167978,4.112108,-11.444931,-40.956983,0.054897,-0.156771,0.000000,-1.233455,0.170528,0.000000
1.520000,-1.652620,0.609381,-1.422656,1.641935,1.063194,0.481795,1.246669,0.343053,1.833799,-1.388136,-10.121004,-0.255222,3.512308,-9.882762,-43.034600,0.042468,-0.155044,0.000000,-1.251618,0.174609,-0.000000
1.530000,-1.636139,0.620029,-1.417746,1.654333,1.066117,0.500113,1.233013,0.241426,1.829115,-1.337678,-10.196187,-0.679119,6.598711,-5.127348,-41.699800,0.029887,-0.153284,0.000000,-1.263196,0.176464,-0.000000
1.540000,-1.619534,0.630700,-1.412654,1.666598,1.068021,0.518363,1.219977,0.139253,1.820227,-1.270536,-10.235561,-1.101314,6.111820,-3.347937,-43.342560,0.017228,-0.151522,0.000000,-1.267940,0.175939,-0.000000
1.550000,-1.602807,0.641386,-1.407379,1.678735,1.068901,0.536503,1.207569,0.036761,1.807022,-1.209465,-10.257913,-1.540090,6.810084,-0.515109,-43.758484,0.004542,-0.149760,0.000000,-1.268142,0.176152,-0.000000
1.560000,-1.585960,0.652075,-1.401924,1.690751,1.068756,0.554489,1.195824,-0.065799,1.789441,-1.138593,-10.249449,-1.976230,7.424420,2.282891,-43.991135,-0.008114,-0.148005,0.000000,-1.262055,0.174804,0.000000
1.570000,-1.568993,0.662757,-1.396290,1.702654,1.067586,0.572277,1.184823,-0.168129,1.767448,-1.060493,-10.211579,-2.424414,8.125073,5.217814,-45.085489,-0.020679,-0.146267,0.000000,-1.249893,0.172488,0.000000
1.580000,-1.551907,0.673423,-1.390479,1.714450,1.065395,0.589823,1.174630,-0.269941,1.740978,-0.977577,-10.146653,-2.866200,8.448611,7.761524,-43.227110,-0.033093,-0.144557,0.000000,-1.232073,0.169181,-0.000000
1.590000,-1.534704,0.684062,-1.384495,1.726149,1.062190,0.607082,1.165285,-0.370973,1.710157,-0.890385,-10.054988,-3.299172,9.045997,10.638281,-43.877035,-0.045302,-0.142885,0.000000,-1.208858,0.164938,0.000000
1.600000,-1.517385,0.694663,-1.378339,1.737759,1.057979,0.624012,1.156843,-0.470944,1.674964,-0.797380,-9.934642,-3.738616,9.481067,13.350376,-43.446647,-0.057252,-0.141258,0.000000,-1.180142,0.159871,-0.000000
1.610000,-1.499949,0.705218,-1.372016,1.749289,1.052775,0.640567,1.149324,-0.569585,1.635451,-0.706400,-9.789316,-4.161839,9.747615,15.981857,-42.711042,-0.068890,-0.139682,0.000000,-1.146787,0.154566,0.000000
1.620000,-1.482399,0.715716,-1.365529,1.760749,1.046593,0.656706,1.142807,-0.666621,1.591629,-0.593034,-9.612678,-4.606467,11.904476,19.064638,-44.692584,-0.080168,-0.138169,0.000000,-1.107972,0.146781,-0.000000
1.630000,-1.464734,0.726147,-1.358883,1.772149,1.039449,0.672385,1.137422,-0.761767,1.543424,-0.489743,-9.413931,-5.023768,8.712075,20.662281,-38.694896,-0.091038,-0.136734,0.000000,-1.065567,0.139627,0.000000
1.640000,-1.446956,0.736502,-1.352083,1.783500,1.031364,0.687562,1.132964,-0.854832,1.491268,-0.398528,-9.194296,-5.410108,10.542233,23.520159,-40.057960,-0.101470,-0.135361,0.000000,-1.020204,0.133307,0.000000
1.650000,-1.429065,0.746771,-1.345134,1.794812,1.022360,0.702197,1.129535,-0.945553,1.435145,-0.287763,-8.946175,-5.811629,10.583104,25.815400,-38.717676,-0.111427,-0.134063,0.000000,-0.970731,0.124888,-0.000000
1.660000,-1.411060,0.756946,-1.338041,1.806095,1.012462,0.716252,1.127188,-1.033706,1.375129,-0.181554,-8.681190,-6.188915,10.633221,27.929684,-37.275629,-0.120879,-0.132847,0.000000,-0.919348,0.116620,-0.000000
1.670000,-1.392943,0.767017,-1.330811,1.817359,1.001696,0.729687,1.125903,-1.119046,1.311371,-0.075435,-8.380925,-6.561854,10.596685,31.357381,-36.750439,-0.129799,-0.131714,0.000000,-0.863991,0.108329,-0.000000
1.680000,-1.374713,0.776977,-1.323449,1.828616,0.990091,0.742467,1.125679,-1.201294,1.243971,0.030514,-8.070120,-6.912163,10.584151,30.757840,-33.275800,-0.138158,-0.130663,0.000000,-0.808096,0.099778,0.000000
1.690000,-1.356370,0.786816,-1.315964,1.839876,0.977680,0.754556,1.126511,-1.280427,1.173214,0.135747,-7.751157,-7.237966,10.437375,33.763162,-32.414355,-0.145962,-0.129700,0.000000,-0.752230,0.091046,0.000000
1.700000,-1.337915,0.796528,-1.308361,1.851150,0.964494,0.765920,1.128387,-1.356203,1.099230,0.239206,-7.401730,-7.555483,10.260417,35.347629,-30.528748,-0.153193,-0.128822,0.000000,-0.693884,0.082519,-0.000000
1.710000,-1.319347,0.806104,-1.300648,1.862447,0.950568,0.776530,1.131281,-1.428449,1.022187,0.338898,-7.045685,-7.849786,9.991070,36.728857,-28.562830,-0.159843,-0.128029,0.000000,-0.636209,0.074223,0.000000
1.720000,-1.300666,0.815537,-1.292833,1.873779,0.935937,0.786355,1.135182,-1.497001,0.942281,0.441813,-6.659458,-8.128716,10.269987,39.623746,-26.975587,-0.165909,-0.127320,0.000000,-0.576660,0.065521,-0.000000
1.730000,-1.281872,0.824820,-1.284923,1.885154,0.920641,0.795367,1.140091,-1.561640,0.859692,0.537549,-6.271939,-8.384127,8.858604,37.825875,-24.089256,-0.171383,-0.126698,0.000000,-0.518748,0.057462,-0.000000
1.740000,-1.262963,0.833948,-1.276928,1.896584,0.904717,0.803540,1.145903,-1.622451,0.774682,0.625147,-5.885952,-8.615091,8.968755,40.219082,-22.333351,-0.176291,-0.126151,0.000000,-0.462868,0.050129,0.000000
1.750000,-1.243940,0.842913,-1.268855,1.908076,0.888205,0.810853,1.152604,-1.679263,0.687445,0.714069,-5.475543,-8.828627,8.493362,40.963039,-20.130349,-0.180636,-0.125681,0.000000,-0.406196,0.042605,-0.000000
1.760000,-1.224801,0.851710,-1.260714,1.919639,0.871146,0.817283,1.160159,-1.731982,0.598187,0.795974,-5.068009,-9.019185,7.980126,41.487967,-17.916892,-0.184424,-0.125283,0.000000,-0.351820,0.035709,-0.000000
1.770000,-1.205547,0.860334,-1.252513,1.931281,0.853580,0.822811,1.168514,-1.780529,0.507140,0.874444,-4.637395,-9.186343,7.609305,43.664035,-15.570070,-0.187669,-0.124954,0.000000,-0.297072,0.029052,0.000000
1.780000,-1.186175,0.868780,-1.244261,1.943011,0.835550,0.827420,1.177624,-1.824765,0.414532,0.945979,-4.215082,-9.331771,6.687726,40.741720,-13.516611,-0.190376,-0.124689,0.000000,-0.245203,0.023014,-0.000000
1.790000,-1.166686,0.877044,-1.235968,1.954836,0.817098,0.831097,1.187407,-1.864876,0.320576,1.010030,-3.804023,-9.455499,6.214210,42.395532,-11.171227,-0.192584,-0.124483,0.000000,-0.196433,0.017631,0.000000
1.800000,-1.147078,0.885121,-1.227642,1.966762,0.798266,0.833828,1.197810,-1.900772,0.225502,1.069303,-3.375795,-9.555731,5.536579,42.274371,-8.936171,-0.194304,-0.124329,0.000000,-0.147888,0.012591,-0.000000
1.810000,-1.127351,0.893008,-1.219294,1.978794,0.779097,0.835604,1.208762,-1.932430,0.129526,1.119713,-2.956458,-9.635949,4.801253,42.007961,-6.757645,-0.195552,-0.124223,0.000000,-0.102083,0.008330,-0.000000
1.820000,-1.107502,0.900702,-1.210933,1.990938,0.759632,0.836416,1.220200,-1.959876,0.032884,1.167628,-2.532093,-9.687728,4.523076,42.412275,-3.947497,-0.196350,-0.124160,0.000000,-0.057714,0.004091,0.000000
1.830000,-1.087531,0.908200,-1.202569,2.003200,0.739913,0.836260,1.232077,-1.983108,-0.064173,1.204755,-2.117685,-9.722245,2.889982,40.431401,-2.974140,-0.196715,-0.124136,0.000000,-0.015977,0.000818,0.000000
1.840000,-1.067438,0.915499,-1.194211,2.015581,0.719983,0.835132,1.244255,-2.002274,-0.161510,1.230478,-1.715298,-9.740421,2.507076,40.454061,-0.322802,-0.196678,-0.124139,0.000000,0.023062,-0.001458,0.000000
1.850000,-1.047219,0.922599,-1.185870,2.028086,0.699881,0.833030,1.256679,-2.017406,-0.258887,1.252652,-1.312737,-9.731840,1.669435,39.604930,1.683132,-0.196259,-0.124166,0.000000,0.060492,-0.003649,0.000000
1.860000,-1.026875,0.929496,-1.177554,2.040715,0.679648,0.829955,1.269265,-2.028587,-0.356107,1.262876,-0.925649,-9.709540,0.786258,38.563389,3.558512,-0.195478,-0.124210,0.000000,0.095154,-0.004809,0.000000
1.870000,-1.006405,0.936191,-1.169274,2.053471,0.659322,0.825909,1.281940,-2.035893,-0.452952,1.272142,-0.534786,-9.653611,0.664755,38.839169,6.845626,-0.194358,-0.124266,0.000000,0.128622,-0.006242,0.000000
1.880000,-0.985806,0.942683,-1.161039,2.066354,0.638943,0.820898,1.294659,-2.039358,-0.549156,1.267737,-0.165000,-9.589034,-1.558570,35.075572,6.032721,-0.192916,-0.124333,0.000000,0.159108,-0.006467,-0.000000
1.890000,-0.965077,0.948970,-1.152859,2.079364,0.618547,0.814928,1.307244,-2.039276,-0.644716,1.249083,0.181520,-9.517662,-1.766985,34.967366,9.004516,-0.191187,-0.124393,0.000000,0.186576,-0.005456,0.000000
1.900000,-0.944218,0.955054,-1.144744,2.092498,0.598169,0.808006,1.319643,-2.035716,-0.739394,1.228982,0.527581,-9.415820,-2.654773,33.474521,10.574772,-0.189188,-0.124445,0.000000,0.212837,-0.004688,0.000000
1.910000,-0.923227,0.960934,-1.136702,2.105756,0.577844,0.800143,1.331810,-2.028795,-0.833015,1.203765,0.853927,-9.306265,-3.393080,31.921758,12.027779,-0.186939,-0.124488,0.000000,0.236623,-0.003566,-0.000000
1.920000,-0.902102,0.966611,-1.128744,2.119133,0.557604,0.791350,1.343612,-2.018679,-0.925415,1.151905,1.167044,-9.169067,-5.999432,30.550983,14.711296,-0.184463,-0.124510,0.000000,0.258247,-0.000391,0.000000
1.930000,-0.880844,0.972086,-1.120878,2.132626,0.537480,0.781640,1.354870,-2.005517,-1.016384,1.104343,1.461812,-9.026734,-3.479808,28.386715,13.718530,-0.181781,-0.124498,0.000000,0.277795,0.002264,-0.000000
1.940000,-0.859450,0.977361,-1.113114,2.146230,0.517503,0.771027,1.365726,-1.989508,-1.105945,1.062600,1.737346,-8.881140,-5.852264,26.849044,16.076736,-0.178913,-0.124466,0.000000,0.295304,0.004309,0.000000
1.950000,-0.837919,0.982437,-1.105461,2.159939,0.497699,0.759526,1.376021,-1.970819,-1.193915,0.995730,1.997429,-8.711385,-6.535695,25.020636,17.168801,-0.175881,-0.124403,0.000000,0.310807,0.008247,0.000000
1.960000,-0.816250,0.987316,-1.097926,2.173748,0.478095,0.747155,1.385641,-1.949614,-1.280164,0.927081,2.240681,-8.537006,-7.258069,23.201267,18.160007,-0.172703,-0.124299,0.000000,0.324617,0.012206,-0.000000
1.970000,-0.794443,0.991999,-1.090520,2.187649,0.458715,0.733929,1.394533,-1.926101,-1.364585,0.850003,2.457442,-8.344183,-8.089464,20.554516,19.934827,-0.169399,-0.124153,0.000000,0.335755,0.016616,-0.000000
1.980000,-0.772497,0.996491,-1.083251,2.201636,0.439580,0.719869,1.402621,-1.900509,-1.447040,0.766720,2.660265,-8.148152,-8.562273,20.018243,19.242232,-0.165991,-0.123961,0.000000,0.345617,0.021442,-0.000000
1.990000,-0.750411,1.000792,-1.076126,2.215699,0.420711,0.704995,1.409848,-1.872938,-1.527546,0.677494,2.849443,-7.950444,-9.345978,17.400689,20.743454,-0.162490,-0.123717,0.000000,0.354294,0.026671,-0.000000
2.000000,-0.728183,1.004906,-1.069153,2.229830,0.402127,0.689325,1.416143,-1.843617,-1.605990,0.580417,3.011731,-7.737470,-10.000499,15.466704,21.379544,-0.158914,-0.123419,0.000000,0.360524,0.032319,0.000000
2.010000,-0.705814,1.008835,-1.062342,2.244018,0.383844,0.672882,1.421424,-1.812760,-1.682283,0.474362,3.156439,-7.520097,-10.697438,13.493828,21.971365,-0.155284,-0.123060,0.000000,0.365308,0.038591,-0.000000
2.020000,-0.683302,1.012584,-1.055698,2.258255,0.365876,0.655687,1.425649,-1.780552,-1.756382,0.371227,3.281780,-7.299333,-10.420706,11.555001,22.273889,-0.151613,-0.122639,0.000000,0.368572,0.044490,0.000000
2.030000,-0.660649,1.016154,-1.049230,2.272528,0.348237,0.637762,1.428804,-1.747191,-1.828249,0.255636,3.387144,-7.072662,-12.708922,9.518235,23.049808,-0.147918,-0.122157,0.000000,0.370250,0.051294,-0.000000
2.040000,-0.637852,1.019550,-1.042945,2.286826,0.330936,0.619130,1.430715,-1.712876,-1.897817,0.127144,3.472575,-6.840763,-12.485476,7.590042,23.208977,-0.144213,-0.121599,0.000000,0.370395,0.059031,0.000000
2.050000,-0.614912,1.022774,-1.036850,2.301138,0.313982,0.599813,1.431366,-1.677803,-1.965063,0.001781,3.538838,-6.607841,-13.079839,5.646644,23.469121,-0.140514,-0.120966,0.000000,0.369177,0.066412,-0.000000
2.060000,-0.591829,1.025830,-1.030951,2.315449,0.297381,0.579836,1.430761,-1.642155,-2.030058,-0.122389,3.587855,-6.393567,-13.426271,3.772438,23.219835,-0.136833,-0.120258,0.000000,0.366994,0.073806,0.000000
2.070000,-0.568603,1.028723,-1.025255,2.329748,0.281140,0.559220,1.428770,-1.606139,-2.092631,-0.282084,3.610811,-6.108277,-16.881006,1.201662,30.098629,-0.133185,-0.119467,0.000000,0.362104,0.083345,-0.000000
2.080000,-0.545234,1.031454,-1.019769,2.344019,0.265259,0.537993,1.425185,-1.569982,-2.152408,-0.425762,3.619931,-5.870072,-11.800481,0.640718,17.420257,-0.129591,-0.118580,0.000000,0.356932,0.091960,-0.000000
2.090000,-0.521723,1.034029,-1.014498,2.358248,0.249740,0.516178,1.420330,-1.533781,-2.210237,-0.550960,3.616128,-5.684468,-14.879772,-1.775167,23.465310,-0.126047,-0.117616,0.000000,0.351537,0.099519,-0.000000
2.100000,-0.498069,1.036450,-1.009447,2.372421,0.234583,0.493796,1.414026,-1.497748,-2.265811,-0.709369,3.587818,-5.432748,-15.162938,-3.498988,23.125890,-0.122570,-0.116565,0.000000,0.343711,0.109091,0.000000
2.110000,-0.474275,1.038722,-1.004623,2.386523,0.219784,0.470870,1.406109,-1.462063,-2.318839,-0.876360,3.546607,-5.168806,-15.812982,-5.150532,23.705416,-0.119175,-0.115416,0.000000,0.335025,0.119194,-0.000000
2.120000,-0.450339,1.040847,-1.000032,2.400538,0.205340,0.447427,1.396674,-1.426903,-2.369652,-1.003326,3.481159,-5.013412,-11.927814,-7.526029,13.160003,-0.115871,-0.114174,0.000000,0.325746,0.127040,-0.000000
2.130000,-0.426264,1.042830,-0.995677,2.414453,0.191244,0.423482,1.385912,-1.392473,-2.418818,-1.164199,3.404753,-4.784120,-20.317376,-7.732871,32.880810,-0.112665,-0.112850,0.000000,0.315113,0.136896,-0.000000
2.140000,-0.402051,1.044673,-0.991563,2.428250,0.177488,0.399061,1.373248,-1.358838,-2.465015,-1.362080,3.318535,-4.472788,-16.883147,-9.907965,23.546422,-0.109573,-0.111410,0.000000,0.303245,0.148954,0.000000
2.150000,-0.377700,1.046381,-0.987697,2.441912,0.164064,0.374190,1.358839,-1.326183,-2.508717,-1.521910,3.210266,-4.263631,-17.441984,-11.329125,24.103363,-0.106601,-0.109863,0.000000,0.290849,0.158872,-0.000000
2.160000,-0.353213,1.047956,-0.984081,2.455421,0.150960,0.348894,1.342747,-1.294664,-2.550171,-1.696870,3.091537,-4.027633,-17.786665,-12.680713,24.150072,-0.103758,-0.108211,0.000000,0.277649,0.169753,0.000000
2.170000,-0.328592,1.049401,-0.980720,2.468761,0.138166,0.323195,1.324871,-1.264419,-2.589182,-1.879738,2.954345,-3.770994,-18.543216,-14.479552,26.145582,-0.101053,-0.106448,0.000000,0.263082,0.181092,0.000000
2.180000,-0.303838,1.050720,-0.977618,2.481912,0.125667,0.297119,1.305154,-1.235606,-2.625638,-2.062614,2.807777,-3.526397,-18.015881,-14.814241,22.735396,-0.098498,-0.104570,0.000000,0.248143,0.192556,0.000000
2.190000,-0.278954,1.051915,-0.974779,2.494858,0.113449,0.270690,1.283623,-1.208289,-2.659764,-2.244651,2.652896,-3.295646,-18.620342,-16.419585,24.444363,-0.096091,-0.102578,0.000000,0.232904,0.204095,-0.000000
2.200000,-0.253942,1.052990,-0.972206,2.507579,0.101496,0.243932,1.260237,-1.182606,-2.691472,-2.432797,2.481913,-3.046461,-18.760656,-17.496648,24.351783,-0.093844,-0.100468,0.000000,0.216488,0.216007,-0.000000
2.210000,-0.228803,1.053946,-0.969901,2.520056,0.089791,0.216868,1.235027,-1.158687,-2.720844,-2.607541,2.300094,-2.831649,-18.586369,-18.551647,23.716512,-0.091762,-0.098242,0.000000,0.199704,0.227186,-0.000000
2.220000,-0.203542,1.054786,-0.967869,2.532273,0.078316,0.189523,1.207897,-1.136614,-2.747711,-2.826483,2.113921,-2.525195,-22.855536,-18.964442,32.611034,-0.089853,-0.095893,0.000000,0.182103,0.241204,-0.000000
2.230000,-0.178159,1.055513,-0.966112,2.544207,0.067052,0.161924,1.178615,-1.116453,-2.771600,-3.015402,1.914890,-2.283606,-14.846765,-20.837590,15.551810,-0.088121,-0.093405,0.000000,0.164183,0.253450,0.000000
2.240000,-0.152658,1.056128,-0.964632,2.555840,0.055980,0.134097,1.147720,-1.098360,-2.793661,-3.170538,1.703391,-2.113771,-18.532363,-21.151484,23.426954,-0.086570,-0.090812,0.000000,0.145958,0.263644,-0.000000
2.250000,-0.127043,1.056633,-0.963431,2.567155,0.045078,0.106059,1.115029,-1.082388,-2.813500,-3.365883,1.489617,-1.857471,-18.178703,-21.884704,22.849323,-0.085205,-0.088101,0.000000,0.127093,0.276462,0.000000
2.260000,-0.101316,1.057030,-0.962511,2.578134,0.034325,0.077835,1.080440,-1.068597,-2.830798,-3.552188,1.267625,-1.598346,-18.056722,-22.509972,23.279759,-0.084030,-0.085265,0.000000,0.107717,0.288679,0.000000
2.270000,-0.075482,1.057320,-0.961874,2.588758,0.023699,0.049450,1.044073,-1.057056,-2.845916,-3.717534,1.039616,-1.444170,-15.998732,-23.065552,13.101888,-0.083048,-0.082310,0.000000,0.088683,0.300066,-0.000000
2.280000,-0.049543,1.057504,-0.961523,2.599010,0.013176,0.020922,1.006049,-1.047820,-2.859406,-3.892878,0.806856,-1.219865,-19.096931,-23.470175,31.941315,-0.082259,-0.079241,0.000000,0.068907,0.311880,0.000000
2.290000,-0.023503,1.057584,-0.961456,2.608873,0.002734,-0.007728,0.966170,-1.040931,-2.870008,-4.079357,0.570314,-0.917188,-17.195334,-23.833072,23.011965,-0.081673,-0.076049,0.000000,0.048415,0.324254,-0.000000
2.300000,0.002634,1.057559,-0.961677,2.618328,-0.007650,-0.036470,0.924548,-1.036424,-2.878173,-4.245205,0.330624,-0.712024,-16.967502,-24.077278,23.599028,-0.081289,-0.072738,0.000000,0.028372,0.335768,-0.000000
2.310000,0.028862,1.057431,-0.962186,2.627358,-0.018002,-0.065284,0.881216,-1.034319,-2.884133,-4.421804,0.090285,-0.480317,-16.822732,-24.195235,23.748552,-0.081106,-0.069308,0.000000,0.008146,0.348130,-0.000000
2.320000,0.055179,1.057199,-0.962983,2.635947,-0.028345,-0.094145,0.836241,-1.034639,-2.887692,-4.567538,-0.154973,-0.227757,-13.799386,-24.623432,25.794740,-0.081128,-0.065763,0.000000,-0.012561,0.358155,0.000000
2.330000,0.081580,1.056864,-0.964069,2.644078,-0.038703,-0.123029,0.789803,-1.037408,-2.888727,-4.728765,-0.397308,0.015230,-18.486476,-23.818727,22.775344,-0.081356,-0.062115,0.000000,-0.032986,0.369645,0.000000
2.340000,0.108059,1.056425,-0.965444,2.651737,-0.049101,-0.151912,0.741597,-1.042569,-2.887431,-4.907197,-0.635342,0.247477,-15.698856,-23.987399,24.658524,-0.081786,-0.058339,0.000000,-0.053032,0.382740,-0.000000
2.350000,0.134613,1.055882,-0.967107,2.658905,-0.059562,-0.180770,0.691786,-1.050123,-2.883693,-5.055284,-0.874841,0.500114,-15.399954,-23.677269,24.892832,-0.082418,-0.054445,0.000000,-0.073349,0.393591,0.000000
2.360000,0.161236,1.055234,-0.969059,2.665568,-0.070111,-0.209578,0.640523,-1.059997,-2.877491,-5.195093,-1.097795,0.739285,-14.716411,-23.034445,24.979977,-0.083248,-0.050442,0.000000,-0.092343,0.404086,0.000000
2.370000,0.187923,1.054479,-0.971299,2.671710,-0.080770,-0.238311,0.587732,-1.072230,-2.868738,-5.369347,-1.354861,1.018512,-18.027906,-26.286875,28.894372,-0.084278,-0.046323,0.000000,-0.114357,0.417382,-0.000000
2.380000,0.214668,1.053618,-0.973825,2.677316,-0.091564,-0.266943,0.533258,-1.086971,-2.857209,-5.511436,-1.579641,1.275792,-10.317010,-18.588998,22.505162,-0.085525,-0.042073,0.000000,-0.133796,0.428521,0.000000
2.390000,0.241467,1.052647,-0.976637,2.682372,-0.102516,-0.295448,0.477638,-1.103686,-2.843319,-5.618008,-1.768336,1.508695,-13.109998,-21.231517,26.076406,-0.086943,-0.037730,0.000000,-0.150348,0.437211,0.000000
2.400000,0.268314,1.051567,-0.979733,2.686865,-0.113645,-0.323801,0.420758,-1.122472,-2.826870,-5.755527,-1.986225,1.780536,-12.276453,-20.245927,26.312164,-0.088544,-0.033284,0.000000,-0.169593,0.448501,-0.000000
2.410000,0.295202,1.050374,-0.983112,2.690783,-0.124972,-0.351976,0.362628,-1.143396,-2.807611,-5.868459,-2.198886,2.075817,-11.427004,-19.620435,27.325160,-0.090335,-0.028732,0.000000,-0.188750,0.458117,0.000000
2.420000,0.322127,1.049067,-0.986772,2.694114,-0.136519,-0.379944,0.303326,-1.166212,-2.785760,-5.994326,-2.353997,2.277244,-12.656723,-13.965473,18.230661,-0.092298,-0.024077,0.000000,-0.202881,0.469267,0.000000
2.430000,0.349083,1.047643,-0.990711,2.696845,-0.148302,-0.407684,0.242821,-1.190571,-2.761786,-6.098733,-2.532030,2.551061,-8.190451,-21.709750,36.699634,-0.094403,-0.019312,0.000000,-0.219493,0.478872,-0.000000
2.440000,0.376062,1.046100,-0.994925,2.698967,-0.160338,-0.435168,0.181437,-1.216959,-2.734431,-6.180155,-2.735850,2.904722,-9.193790,-16.441789,28.715250,-0.096699,-0.014463,0.000000,-0.238969,0.486924,-0.000000
2.450000,0.403060,1.044435,-0.999413,2.700471,-0.172646,-0.462363,0.119160,-1.245053,-2.704077,-6.273337,-2.882680,3.170444,-8.351332,-15.501797,29.723080,-0.099161,-0.009522,0.000000,-0.253513,0.496394,-0.000000
2.460000,0.430070,1.042646,-1.004171,2.701347,-0.185244,-0.489240,0.055949,-1.274677,-2.670941,-6.369756,-3.041342,3.455931,-7.935772,-14.498531,30.053240,-0.101776,-0.004483,0.000000,-0.269379,0.506473,-0.000000
2.470000,0.457085,1.040729,-1.009197,2.701587,-0.198145,-0.515772,-0.007978,-1.305705,-2.634730,-6.404527,-3.156527,3.796051,-1.934188,-10.186366,35.353679,-0.104538,0.000641,0.000000,-0.282503,0.512022,-0.000000
2.480000,0.484099,1.038682,-1.014485,2.701187,-0.211361,-0.541924,-0.072265,-1.337846,-2.595133,-6.469656,-3.279667,4.108050,-11.186175,-14.473868,26.953667,-0.107429,0.005825,0.000000,-0.296314,0.520424,0.000000
2.490000,0.511106,1.036501,-1.020034,2.700139,-0.224906,-0.567665,-0.137509,-1.371342,-2.552698,-6.569400,-3.411893,4.387645,-5.825377,-10.267839,31.585705,-0.110467,0.011122,0.000000,-0.310847,0.532008,0.000000
2.500000,0.538100,1.034183,-1.025837,2.698435,-0.238792,-0.592967,-0.203408,-1.405904,-2.507168,-6.611169,-3.498835,4.717165,-5.460462,-8.772585,31.681271,-0.113635,0.016513,0.000000,-0.322507,0.539419,0.000000
2.510000,0.565073,1.031724,-1.031891,2.696069,-0.253026,-0.617798,-0.269857,-1.441012,-2.458577,-6.679698,-3.511498,4.996422,-5.242759,-5.703031,31.104363,-0.116892,0.021992,0.000000,-0.328020,0.549371,0.000000
2.520000,0.592019,1.029121,-1.038191,2.693036,-0.267615,-0.642128,-0.336751,-1.477002,-2.406695,-6.688359,-3.722594,5.402971,0.602222,-24.891244,43.460857,-0.120271,0.027558,0.000000,-0.351057,0.555203,-0.000000
2.530000,0.618931,1.026370,-1.044732,2.689334,-0.282573,-0.665918,-0.403751,-1.514817,-2.350852,-6.728695,-3.765328,5.724076,-8.753421,16.715542,20.547693,-0.123859,0.033189,0.000000,-0.360126,0.563955,0.000000
2.540000,0.645803,1.023468,-1.051508,2.684958,-0.297907,-0.689137,-0.471465,-1.551600,-2.292583,-6.804325,-3.623067,5.950257,-3.421347,0.015680,31.494672,-0.127413,0.038936,0.000000,-0.353423,0.575787,-0.000000
2.550000,0.672628,1.020411,-1.058513,2.679903,-0.313605,-0.711760,-0.539592,-1.588099,-2.231329,-6.821843,-3.665583,6.296323,-2.998599,3.155117,30.946503,-0.131001,0.044782,0.000000,-0.363224,0.583740,-0.000000
2.560000,0.699399,1.017195,-1.065741,2.674166,-0.329669,-0.733752,-0.607836,-1.624900,-2.166374,-6.822391,-3.700601,6.707456,-1.776147,3.913460,32.920391,-0.134681,0.050709,0.000000,-0.373522,0.591140,0.000000
2.570000,0.726109,1.013816,-1.073186,2.667745,-0.346101,-0.755077,-0.676378,-1.660942,-2.098606,-6.900106,-3.457983,6.785828,-9.208125,30.931007,0.574395,-0.138360,0.056736,0.000000,-0.357502,0.603991,-0.000000
2.580000,0.752752,1.010272,-1.080840,2.660636,-0.362879,-0.775722,-0.745581,-1.694673,-2.029763,-6.910850,-3.369161,7.093020,7.217419,-13.602767,61.410729,-0.141891,0.062890,0.000000,-0.356733,0.612749,0.000000
2.590000,0.779320,1.006558,-1.088698,2.652836,-0.379997,-0.795654,-0.814312,-1.729011,-1.955762,-6.847339,-3.453670,7.653186,0.914328,10.495149,32.608684,-0.145565,0.069100,0.000000,-0.373828,0.617402,-0.000000
2.600000,0.805806,1.002671,-1.096751,2.644350,-0.397457,-0.814825,-0.882840,-1.762633,-1.878066,-6.853326,-3.276469,7.897416,2.474387,11.190978,34.138026,-0.149259,0.075390,0.000000,-0.365670,0.626726,0.000000
2.610000,0.832204,0.998607,-1.104992,2.635180,-0.415245,-0.833206,-0.951143,-1.794752,-1.797730,-6.802718,-3.142781,8.160056,4.202937,13.064212,32.696686,-0.152898,0.081758,0.000000,-0.361517,0.631902,0.000000
2.620000,0.858508,0.994365,-1.113412,2.625328,-0.433348,-0.850768,-1.019116,-1.825628,-1.713751,-6.800861,-3.037931,8.682501,-0.470359,10.328795,57.826601,-0.156516,0.088207,0.000000,-0.363354,0.643729,0.000000
2.630000,0.884709,0.989939,-1.122004,2.614798,-0.451754,-0.867464,-1.086944,-1.855333,-1.624788,-6.741591,-2.885316,9.023402,12.434149,20.280349,9.875803,-0.160142,0.094771,0.000000,-0.359175,0.650200,0.000000
2.640000,0.910801,0.985329,-1.130759,2.603593,-0.470448,-0.883259,-1.153713,-1.883143,-1.534071,-6.619954,-2.680940,9.160843,8.509072,18.169743,31.627509,-0.163673,0.101353,0.000000,-0.347927,0.650069,-0.000000
2.650000,0.936778,0.980530,-1.139666,2.591726,-0.489410,-0.898135,-1.219550,-1.909076,-1.440534,-6.542682,-2.500953,9.535801,10.316837,20.272033,29.314308,-0.167126,0.107978,0.000000,-0.342082,0.656327,-0.000000
2.660000,0.962634,0.975540,-1.148718,2.579205,-0.508622,-0.912059,-1.284534,-1.932754,-1.343899,-6.454396,-2.223051,9.783781,11.428642,23.595708,26.945924,-0.170472,0.114659,0.000000,-0.326036,0.661065,0.000000
2.670000,0.988360,0.970356,-1.157904,2.566040,-0.528058,-0.925004,-1.348269,-1.954378,-1.244396,-6.276575,-2.136737,10.135758,20.157837,5.046423,36.927218,-0.173727,0.121367,0.000000,-0.328337,0.659579,0.000000
2.680000,1.013952,0.964978,-1.167215,2.552246,-0.547707,-0.936936,-1.410215,-1.974847,-1.141573,-6.134755,-1.883272,10.385472,8.075410,45.998984,12.794343,-0.176978,0.128064,0.000000,-0.314638,0.660671,-0.000000
2.690000,1.039403,0.959402,-1.176639,2.537839,-0.567541,-0.947830,-1.471135,-1.991344,-1.037113,-6.034859,-1.447028,10.522801,15.906511,29.754080,21.220317,-0.179950,0.134802,0.000000,-0.282650,0.664593,-0.000000
2.700000,1.064707,0.953626,-1.186168,2.522829,-0.587523,-0.957671,-1.530562,-2.004589,-0.930689,-5.850804,-1.191000,10.754044,16.901047,32.878433,18.487105,-0.182708,0.141548,0.000000,-0.267891,0.662516,0.000000
2.710000,1.089858,0.947651,-1.195789,2.507233,-0.607623,-0.966437,-1.588195,-2.015075,-0.821923,-5.673628,-0.909883,11.005199,18.154685,33.946927,17.721185,-0.185300,0.148283,0.000000,-0.251002,0.661717,0.000000
2.720000,1.114850,0.941474,-1.205493,2.491071,-0.627813,-0.974105,-1.644024,-2.021890,-0.711751,-5.491272,-0.414823,10.979439,18.672288,54.724632,-9.270001,-0.187626,0.154997,0.000000,-0.209677,0.656886,0.000000
2.730000,1.139677,0.935094,-1.215268,2.474359,-0.648044,-0.980673,-1.697964,-2.023823,-0.601728,-5.292712,-0.032479,11.105387,21.044050,21.394455,34.878516,-0.189542,0.161659,0.000000,-0.180276,0.652710,-0.000000
2.740000,1.164335,0.928513,-1.225103,2.457118,-0.668281,-0.986129,-1.749821,-2.023050,-0.488968,-5.077862,0.221168,11.401574,21.552844,39.720486,10.610885,-0.191289,0.168295,0.000000,-0.165239,0.649952,0.000000
2.750000,1.188818,0.921729,-1.234987,2.439370,-0.688493,-0.990448,-1.799513,-2.018557,-0.374815,-4.858704,0.673009,11.433957,22.635633,40.244498,9.541196,-0.192747,0.174881,0.000000,-0.126626,0.642834,0.000000
2.760000,1.213121,0.914743,-1.244908,2.421136,-0.708638,-0.993624,-1.846943,-2.009733,-0.260243,-4.625396,1.095444,11.470967,23.683108,41.583652,6.516025,-0.193833,0.181390,0.000000,-0.089868,0.634377,-0.000000
2.770000,1.237239,0.907557,-1.254855,2.402439,-0.728673,-0.995650,-1.892014,-1.996820,-0.144794,-4.388295,1.479966,11.643689,24.052323,37.854545,19.590148,-0.194568,0.187820,0.000000,-0.058209,0.627933,0.000000
2.780000,1.261168,0.900170,-1.264817,2.383303,-0.748561,-0.996514,-1.934662,-1.979977,-0.027868,-4.137729,1.905752,11.685634,26.061046,47.357845,-11.482082,-0.194970,0.194177,0.000000,-0.019283,0.617892,0.000000
2.790000,1.284904,0.892586,-1.274782,2.363754,-0.768258,-0.996211,-1.974722,-1.958541,0.088374,-3.873843,2.374867,11.584035,26.378039,43.856530,-0.353166,-0.194924,0.200400,0.000000,0.027733,0.603487,0.000000
2.800000,1.308442,0.884806,-1.284737,2.343818,-0.787717,-0.994747,-2.012137,-1.932657,0.204374,-3.607606,2.804271,11.606134,27.184187,44.570345,-3.710600,-0.194438,0.206489,0.000000,0.069931,0.590898,-0.000000
2.810000,1.331779,0.876833,-1.294673,2.323521,-0.806896,-0.992124,-2.046844,-1.902400,0.320214,-3.332689,3.247099,11.557452,27.887457,44.850043,-6.527277,-0.193510,0.212435,0.000000,0.116150,0.575634,0.000000
2.820000,1.354911,0.868669,-1.304576,2.302890,-0.825750,-0.988345,-2.078760,-1.867637,0.435388,-3.049184,3.708813,11.470920,28.703320,46.605139,-10.304811,-0.192100,0.218213,0.000000,0.166476,0.558169,-0.000000
2.830000,1.377836,0.860319,-1.314436,2.281955,-0.844233,-0.983419,-2.107812,-1.828264,0.549559,-2.760930,4.160586,11.361341,28.930977,43.691995,-11.598698,-0.190177,0.223802,0.000000,0.217884,0.539058,-0.000000
