time,x,y,z,vx,vy,vz,ax,ay,az,jx,jy,jz,sx,sy,sz,roll,pitch,yaw,p,q,r
0.000000,-3.020134,0.334490,-1.477557,0.009083,0.002089,0.015125,-0.008248,-0.258671,-0.106966,-3.837286,6.377777,0.492809,146.103498,-122.650513,-4.434943,-0.026078,0.000832,0.000000,0.641393,0.386851,-0.000000
0.010000,-3.020045,0.334499,-1.477411,0.008832,-0.000199,0.014079,-0.039688,-0.200746,-0.102257,-2.486920,5.234521,0.449116,124.345808,-106.264727,-4.303644,-0.020249,0.004004,0.000000,0.526968,0.251019,0.000000
0.020000,-3.019959,0.334488,-1.477276,0.008330,-0.001961,0.013079,-0.058675,-0.153460,-0.097979,-1.343034,4.247325,0.406734,104.788819,-91.425899,-4.172864,-0.015487,0.005922,0.000000,0.427944,0.135773,0.000000
0.030000,-3.019878,0.334462,-1.477150,0.007693,-0.003298,0.012118,-0.067165,-0.115329,-0.094118,-0.384182,3.401100,0.365658,87.320354,-78.058100,-4.042476,-0.011644,0.006781,0.000000,0.342921,0.039036,-0.000000
0.040000,-3.019805,0.334423,-1.477033,0.007016,-0.004294,0.011195,-0.066907,-0.085016,-0.090661,0.409960,2.681513,0.325884,71.828240,-66.085402,-3.912353,-0.008586,0.006758,0.000000,0.270531,-0.041182,0.000000
0.050000,-3.019738,0.334377,-1.476926,0.006379,-0.005021,0.010304,-0.059451,-0.061322,-0.087596,1.058596,2.074994,0.287410,58.200301,-55.431876,-3.782366,-0.006195,0.006007,0.000000,0.209451,-0.106775,0.000000
0.060000,-3.019677,0.334324,-1.476827,0.005847,-0.005539,0.009442,-0.046160,-0.043182,-0.084909,1.579806,1.568731,0.250236,46.324362,-46.021592,-3.652389,-0.004364,0.004665,0.000000,0.158421,-0.159536,-0.000000
0.070000,-3.019620,0.334266,-1.476737,0.005471,-0.005900,0.008605,-0.028223,-0.029654,-0.082587,1.990550,1.150672,0.214363,36.088248,-37.778622,-3.522292,-0.002998,0.002853,0.000000,0.116248,-0.201152,0.000000
0.080000,-3.019567,0.334206,-1.476655,0.005294,-0.006145,0.007789,-0.006664,-0.019912,-0.080617,2.306664,0.809521,0.179791,27.379784,-30.627038,-3.391950,-0.002013,0.000674,0.000000,0.081810,-0.233205,-0.000000
0.090000,-3.019514,0.334144,-1.476581,0.005347,-0.006308,0.006991,0.017644,-0.013242,-0.078987,2.542864,0.534746,0.146525,20.086795,-24.490909,-3.261233,-0.001339,-0.001784,0.000000,0.054055,-0.257166,-0.000000
0.100000,-3.019459,0.334080,-1.476515,0.005654,-0.006418,0.006208,0.043972,-0.009029,-0.077682,2.712744,0.316571,0.114568,14.097106,-19.294307,-3.130016,-0.000913,-0.004447,0.000000,0.032007,-0.274402,-0.000000
0.110000,-3.019400,0.334015,-1.476457,0.006231,-0.006495,0.005436,0.071720,-0.006752,-0.076691,2.828776,0.145981,0.083927,9.298543,-14.961304,-2.998169,-0.000683,-0.007254,0.000000,0.014761,-0.286166,0.000000
0.120000,-3.019333,0.333950,-1.476406,0.007091,-0.006558,0.004673,0.100406,-0.005978,-0.075999,2.902311,0.014720,0.054607,5.578929,-11.415970,-2.865565,-0.000605,-0.010156,0.000000,0.001487,-0.293604,0.000000
0.130000,-3.019257,0.333884,-1.476363,0.008241,-0.006619,0.003915,0.129659,-0.006352,-0.075594,2.943577,-0.084711,0.026618,2.826091,-8.582376,-2.732077,-0.000642,-0.013115,0.000000,-0.008568,-0.297748,0.000000
0.140000,-3.019168,0.333818,-1.476328,0.009685,-0.006688,0.003160,0.159201,-0.007589,-0.075463,2.961682,-0.159047,-0.000031,0.927853,-6.384594,-2.597577,-0.000768,-0.016103,0.000000,-0.016083,-0.299522,0.000000
0.150000,-3.019062,0.333750,-1.476300,0.011426,-0.006772,0.002405,0.188842,-0.009469,-0.075591,2.964609,-0.214269,-0.025329,-0.227961,-4.746695,-2.461938,-0.000958,-0.019100,0.000000,-0.021663,-0.299734,-0.000000
0.160000,-3.018938,0.333682,-1.476280,0.013462,-0.006879,0.001648,0.218465,-0.011828,-0.075965,2.959223,-0.255594,-0.049265,-0.753524,-3.592750,-2.325032,-0.001196,-0.022095,0.000000,-0.025834,-0.299079,0.000000
0.170000,-3.018792,0.333613,-1.476267,0.015795,-0.007010,0.000885,0.248018,-0.014550,-0.076571,2.951266,-0.287484,-0.071825,-0.761012,-2.846829,-2.186730,-0.001471,-0.025081,0.000000,-0.029047,-0.298142,-0.000000
0.180000,-3.018621,0.333542,-1.476262,0.018422,-0.007171,0.000116,0.277497,-0.017559,-0.077397,2.945356,-0.313638,-0.092995,-0.362600,-2.433004,-2.046906,-0.001775,-0.028058,0.000000,-0.031677,-0.297391,0.000000
0.190000,-3.018423,0.333469,-1.476265,0.021344,-0.007362,-0.000663,0.306943,-0.020813,-0.078426,2.944993,-0.336998,-0.112758,0.329537,-2.275347,-1.905433,-0.002104,-0.031031,0.000000,-0.034020,-0.297181,0.000000
0.200000,-3.018193,0.333395,-1.476275,0.024561,-0.007588,-0.001454,0.336424,-0.024297,-0.079647,2.952552,-0.359746,-0.131098,1.203224,-2.297928,-1.762181,-0.002455,-0.034005,0.000000,-0.036297,-0.297753,-0.000000
0.210000,-3.017931,0.333317,-1.476294,0.028065,-0.007843,-0.002257,0.366351,-0.028214,-0.081044,2.999289,-0.402001,-0.148018,1.388536,-1.952584,-1.616457,-0.002850,-0.037022,0.000000,-0.040540,-0.302263,-0.000000
0.220000,-3.017631,0.333238,-1.476321,0.031878,-0.008146,-0.003075,0.396417,-0.032327,-0.082602,3.014317,-0.420167,-0.163446,1.623833,-1.693445,-1.468769,-0.003265,-0.040051,0.000000,-0.042345,-0.303553,0.000000
0.230000,-3.017292,0.333154,-1.476356,0.035994,-0.008491,-0.003909,0.426645,-0.036610,-0.084308,3.031868,-0.436097,-0.177386,1.889727,-1.502407,-1.319060,-0.003697,-0.043094,0.000000,-0.043919,-0.305083,-0.000000
0.240000,-3.016910,0.333068,-1.476399,0.040412,-0.008879,-0.004762,0.457063,-0.041043,-0.086145,3.052149,-0.450381,-0.189820,2.166829,-1.361365,-1.167271,-0.004143,-0.046153,0.000000,-0.045323,-0.306875,-0.000000
0.250000,-3.016483,0.332977,-1.476451,0.045136,-0.009312,-0.005633,0.487698,-0.045613,-0.088099,3.075177,-0.463430,-0.200725,2.435748,-1.252215,-1.013345,-0.004603,-0.049232,0.000000,-0.046599,-0.308931,-0.000000
0.260000,-3.016006,0.332881,-1.476512,0.050165,-0.009790,-0.006524,0.518639,-0.050360,-0.090155,3.106618,-0.480231,-0.210112,2.529454,-1.036651,-0.856391,-0.005080,-0.052339,0.000000,-0.048249,-0.311823,-0.000000
0.270000,-3.015478,0.332781,-1.476581,0.055507,-0.010318,-0.007436,0.549833,-0.055211,-0.092296,3.132261,-0.489564,-0.217883,2.594278,-0.831490,-0.697285,-0.005567,-0.055469,0.000000,-0.049142,-0.314122,0.000000
0.280000,-3.014895,0.332675,-1.476660,0.061162,-0.010895,-0.008370,0.581286,-0.060145,-0.094507,3.158403,-0.496884,-0.224051,2.628910,-0.633344,-0.536071,-0.006062,-0.058622,0.000000,-0.049830,-0.316462,-0.000000
0.290000,-3.014254,0.332563,-1.476749,0.067134,-0.011521,-0.009326,0.613001,-0.065142,-0.096772,3.184734,-0.502243,-0.228597,2.632041,-0.438830,-0.372791,-0.006563,-0.061798,0.000000,-0.050317,-0.318815,-0.000000
0.300000,-3.013552,0.332444,-1.476847,0.073423,-0.012197,-0.010306,0.644980,-0.070183,-0.099074,3.210934,-0.505661,-0.231500,2.602359,-0.244560,-0.207490,-0.007068,-0.064998,0.000000,-0.050607,-0.321150,0.000000
0.310000,-3.012785,0.332319,-1.476955,0.080034,-0.012924,-0.011308,0.677224,-0.075260,-0.101397,3.237179,-0.508163,-0.232810,2.525646,-0.020912,-0.038456,-0.007575,-0.068222,0.000000,-0.050803,-0.323487,-0.000000
0.320000,-3.011950,0.332185,-1.477073,0.086969,-0.013702,-0.012334,0.709720,-0.080339,-0.103724,3.261911,-0.507240,-0.232342,2.415080,0.206049,0.132298,-0.008083,-0.071468,0.000000,-0.050654,-0.325672,-0.000000
0.330000,-3.011044,0.332044,-1.477202,0.094229,-0.014531,-0.013382,0.742458,-0.085397,-0.106038,3.285369,-0.504030,-0.230159,2.270933,0.436498,0.304512,-0.008588,-0.074735,0.000000,-0.050274,-0.327731,-0.000000
0.340000,-3.010064,0.331895,-1.477341,0.101818,-0.015410,-0.014454,0.775422,-0.090412,-0.108322,3.307218,-0.498498,-0.226248,2.093474,0.670605,0.477929,-0.009088,-0.078022,0.000000,-0.049662,-0.329633,0.000000
0.350000,-3.009007,0.331736,-1.477491,0.109738,-0.016339,-0.015549,0.808596,-0.095359,-0.110557,3.327128,-0.490605,-0.220597,1.882975,0.908545,0.652289,-0.009580,-0.081327,0.000000,-0.048814,-0.331348,0.000000
0.360000,-3.007868,0.331568,-1.477652,0.117991,-0.017317,-0.016665,0.841956,-0.100219,-0.112729,3.344661,-0.480631,-0.213287,1.642426,1.158502,0.829539,-0.010063,-0.084649,0.000000,-0.047759,-0.332834,0.000000
0.370000,-3.006646,0.331389,-1.477824,0.126578,-0.018343,-0.017803,0.875480,-0.104963,-0.114817,3.359746,-0.467782,-0.204104,1.369045,1.411656,1.006946,-0.010535,-0.087984,0.000000,-0.046418,-0.334087,0.000000
0.380000,-3.005336,0.331201,-1.478008,0.135501,-0.019416,-0.018961,0.909141,-0.109566,-0.116805,3.371932,-0.452390,-0.193149,1.062767,1.667199,1.183981,-0.010991,-0.091330,0.000000,-0.044826,-0.335067,0.000000
0.390000,-3.003935,0.331001,-1.478204,0.144761,-0.020534,-0.020139,0.942908,-0.114003,-0.118674,3.380891,-0.434433,-0.180428,0.723530,1.924322,1.360114,-0.011430,-0.094684,0.000000,-0.042982,-0.335742,-0.000000
0.400000,-3.002439,0.330790,-1.478411,0.154359,-0.021695,-0.021334,0.976747,-0.118246,-0.120407,3.386293,-0.413901,-0.165952,0.351272,2.182217,1.534817,-0.011850,-0.098044,0.000000,-0.040884,-0.336083,0.000000
0.410000,-3.000846,0.330567,-1.478630,0.164296,-0.022898,-0.022546,1.010621,-0.122271,-0.121989,3.387772,-0.390742,-0.149874,-0.053213,2.438908,1.710991,-0.012247,-0.101405,0.000000,-0.038530,-0.336057,-0.000000
0.420000,-2.999152,0.330332,-1.478862,0.174572,-0.024140,-0.023773,1.044489,-0.126053,-0.123399,3.385079,-0.365073,-0.131895,-0.490950,2.694897,1.884257,-0.012620,-0.104764,0.000000,-0.035932,-0.335643,-0.000000
0.430000,-2.997354,0.330084,-1.479106,0.185186,-0.025418,-0.025014,1.078307,-0.129564,-0.124621,3.377842,-0.336849,-0.112201,-0.962109,2.949520,2.053667,-0.012965,-0.108117,0.000000,-0.033085,-0.334808,0.000000
0.440000,-2.995447,0.329823,-1.479362,0.196138,-0.026730,-0.026265,1.112029,-0.132781,-0.125638,3.365725,-0.306089,-0.090837,-1.466856,3.202112,2.218273,-0.013280,-0.111459,0.000000,-0.029993,-0.333522,-0.000000
0.450000,-2.993430,0.329549,-1.479631,0.207426,-0.028073,-0.027526,1.145604,-0.135678,-0.126432,3.348392,-0.272816,-0.067855,-2.005360,3.452008,2.377125,-0.013564,-0.114787,0.000000,-0.026659,-0.331753,0.000000
0.460000,-2.991298,0.329262,-1.479913,0.219049,-0.029442,-0.028793,1.178981,-0.138228,-0.126991,3.325689,-0.236982,-0.043457,-2.582432,3.696564,2.532813,-0.013813,-0.118094,0.000000,-0.023077,-0.329489,-0.000000
0.470000,-2.989048,0.328960,-1.480207,0.231005,-0.030836,-0.030064,1.212098,-0.140409,-0.127296,3.296839,-0.198809,-0.017384,-3.193029,3.937335,2.680418,-0.014025,-0.121375,0.000000,-0.019272,-0.326658,0.000000
0.480000,-2.986676,0.328645,-1.480514,0.243290,-0.032249,-0.031338,1.244897,-0.142197,-0.127334,3.261718,-0.158249,0.010120,-3.836750,4.173900,2.818556,-0.014197,-0.124625,0.000000,-0.015238,-0.323250,-0.000000
0.490000,-2.984181,0.328315,-1.480834,0.255901,-0.033679,-0.032610,1.277311,-0.143567,-0.127090,3.219995,-0.115346,0.038951,-4.513194,4.405836,2.945847,-0.014329,-0.127839,0.000000,-0.010979,-0.319234,0.000000
0.500000,-2.981557,0.327971,-1.481166,0.268835,-0.035119,-0.033879,1.309273,-0.144496,-0.126551,3.171346,-0.070149,0.068996,-5.221959,4.632720,3.060908,-0.014416,-0.131009,0.000000,-0.006500,-0.314580,-0.000000
0.510000,-2.978803,0.327613,-1.481511,0.282085,-0.036567,-0.035140,1.340718,-0.144963,-0.125707,3.115867,-0.022796,0.100046,-5.973191,4.856300,3.164321,-0.014458,-0.134129,0.000000,-0.001815,-0.309297,0.000000
0.520000,-2.975915,0.327240,-1.481869,0.295647,-0.038017,-0.036392,1.371565,-0.144944,-0.124547,3.052252,0.026859,0.132144,-6.754652,5.073718,3.252500,-0.014452,-0.137193,0.000000,0.003091,-0.303260,0.000000
0.530000,-2.972889,0.326853,-1.482239,0.309514,-0.039464,-0.037630,1.401737,-0.144419,-0.123061,2.980679,0.078655,0.165040,-7.564651,5.284282,3.323822,-0.014396,-0.140193,0.000000,0.008202,-0.296486,0.000000
0.540000,-2.969723,0.326451,-1.482622,0.323679,-0.040903,-0.038852,1.431151,-0.143364,-0.121244,2.900870,0.132520,0.198559,-8.401497,5.487305,3.376666,-0.014287,-0.143121,0.000000,0.013514,-0.288946,-0.000000
0.550000,-2.966415,0.326035,-1.483016,0.338134,-0.042330,-0.040054,1.459726,-0.141762,-0.119089,2.812565,0.188374,0.232506,-9.263498,5.682099,3.409408,-0.014125,-0.145969,0.000000,0.019018,-0.280614,-0.000000
0.560000,-2.962960,0.325604,-1.483423,0.352870,-0.043737,-0.041232,1.487378,-0.139590,-0.116593,2.715929,0.246222,0.266692,-10.159262,5.865698,3.419989,-0.013906,-0.148731,0.000000,0.024718,-0.271504,0.000000
0.570000,-2.959356,0.325160,-1.483841,0.367878,-0.045119,-0.042385,1.514014,-0.136831,-0.113755,2.609771,0.305758,0.300848,-11.075536,6.039968,3.407277,-0.013630,-0.151397,0.000000,0.030583,-0.261496,-0.000000
0.580000,-2.955601,0.324702,-1.484270,0.383147,-0.046471,-0.043506,1.539542,-0.133469,-0.110577,2.494360,0.366989,0.334754,-12.009368,6.204499,3.369704,-0.013294,-0.153959,0.000000,0.036617,-0.250611,-0.000000
0.590000,-2.951692,0.324231,-1.484711,0.398665,-0.047787,-0.044595,1.563870,-0.129486,-0.107062,2.369535,0.429815,0.368154,-12.957804,6.358881,3.305701,-0.012897,-0.156407,0.000000,0.042812,-0.238830,0.000000
0.600000,-2.947627,0.323746,-1.485162,0.414420,-0.049059,-0.045647,1.586901,-0.124868,-0.103216,2.235165,0.494132,0.400775,-13.917891,6.502703,3.213699,-0.012437,-0.158733,0.000000,0.049159,-0.226132,0.000000
0.610000,-2.943403,0.323250,-1.485623,0.430398,-0.050282,-0.046658,1.608546,-0.119599,-0.099047,2.091602,0.559856,0.432549,-14.898129,6.634944,3.086575,-0.011913,-0.160927,0.000000,0.055653,-0.212550,-0.000000
0.620000,-2.939019,0.322741,-1.486095,0.446586,-0.051449,-0.047627,1.628701,-0.113666,-0.094570,1.937699,0.626820,0.462653,-15.882710,6.755879,2.928995,-0.011324,-0.162981,0.000000,0.062279,-0.197952,-0.000000
0.630000,-2.934471,0.322221,-1.486576,0.462967,-0.052553,-0.048549,1.647267,-0.107058,-0.089800,1.773948,0.694935,0.491025,-16.867279,6.865175,2.740069,-0.010667,-0.164883,0.000000,0.069032,-0.182383,0.000000
0.640000,-2.929759,0.321690,-1.487066,0.479526,-0.053588,-0.049422,1.664147,-0.099764,-0.084756,1.600368,0.764084,0.517347,-17.847480,6.962495,2.518910,-0.009943,-0.166625,0.000000,0.075902,-0.165833,-0.000000
0.650000,-2.924880,0.321149,-1.487564,0.496244,-0.054546,-0.050243,1.679242,-0.091774,-0.079461,1.417027,0.834144,0.541292,-18.818958,7.047504,2.264627,-0.009149,-0.168197,0.000000,0.082879,-0.148298,0.000000
0.660000,-2.919833,0.320599,-1.488070,0.513104,-0.055421,-0.051010,1.692461,-0.083078,-0.073934,1.224542,0.905059,0.563000,-19.790232,7.118170,1.964369,-0.008285,-0.169589,0.000000,0.089961,-0.129834,-0.000000
0.670000,-2.914617,0.320041,-1.488584,0.530087,-0.056205,-0.051721,1.703701,-0.073670,-0.068212,1.021860,0.976541,0.581002,-20.742496,7.176064,1.630676,-0.007349,-0.170790,0.000000,0.097122,-0.110306,-0.000000
0.680000,-2.909231,0.319476,-1.489105,0.547171,-0.056892,-0.052374,1.712867,-0.063545,-0.062326,0.809776,1.048537,0.595504,-21.669818,7.221056,1.264123,-0.006342,-0.171792,0.000000,0.104358,-0.089786,0.000000
0.690000,-2.903674,0.318904,-1.489631,0.564337,-0.057474,-0.052967,1.719866,-0.052698,-0.056314,0.588567,1.120918,0.606177,-22.566268,7.253021,0.865287,-0.005262,-0.172583,0.000000,0.111659,-0.068288,0.000000
0.700000,-2.897944,0.318327,-1.490164,0.581561,-0.057943,-0.053500,1.724609,-0.041126,-0.050216,0.358573,1.193554,0.612704,-23.425912,7.271830,0.434744,-0.004109,-0.173154,0.000000,0.119013,-0.045832,-0.000000
0.710000,-2.892042,0.317745,-1.490701,0.598821,-0.058294,-0.053972,1.727008,-0.028827,-0.044067,0.120079,1.266324,0.615477,-24.239984,7.277012,-0.044822,-0.002881,-0.173496,0.000000,0.126409,-0.022443,0.000000
0.720000,-2.885968,0.317161,-1.491243,0.616093,-0.058517,-0.054382,1.726984,-0.015800,-0.037923,-0.126192,1.339065,0.612511,-25.005735,7.268826,-0.552752,-0.001580,-0.173600,0.000000,0.133831,0.001850,0.000000
0.730000,-2.879721,0.316575,-1.491789,0.633352,-0.058607,-0.054730,1.724459,-0.002046,-0.031835,-0.379856,1.411656,0.604336,-25.717582,7.247187,-1.086280,-0.000205,-0.173456,0.000000,0.141268,0.027008,-0.000000
0.740000,-2.873301,0.315989,-1.492337,0.650574,-0.058556,-0.055019,1.719364,0.012433,-0.025855,-0.640346,1.483963,0.590710,-26.369939,7.212010,-1.642637,0.001245,-0.173057,0.000000,0.148705,0.052986,0.000000
0.750000,-2.866709,0.315405,-1.492889,0.667731,-0.058356,-0.055248,1.711632,0.027632,-0.020039,-0.907038,1.555851,0.571417,-26.957223,7.163209,-2.219057,0.002769,-0.172394,0.000000,0.156127,0.079733,0.000000
0.760000,-2.859947,0.314823,-1.493442,0.684797,-0.058001,-0.055420,1.701200,0.043549,-0.014437,-1.179695,1.627267,0.547054,-27.462722,7.098555,-2.832542,0.004368,-0.171460,0.000000,0.163527,0.107220,-0.000000
0.770000,-2.853014,0.314245,-1.493997,0.701746,-0.057483,-0.055538,1.688022,0.060175,-0.009119,-1.456540,1.697872,0.515608,-27.893342,7.020370,-3.458134,0.006040,-0.170248,0.000000,0.170867,0.135309,0.000000
0.780000,-2.845912,0.313674,-1.494553,0.718549,-0.056795,-0.055604,1.672056,0.077503,-0.004146,-1.737298,1.767629,0.477868,-28.244861,6.928831,-4.090648,0.007785,-0.168752,0.000000,0.178138,0.163960,-0.000000
0.790000,-2.838643,0.313110,-1.495109,0.735178,-0.055931,-0.055622,1.653266,0.095524,0.000417,-2.021159,1.836405,0.433789,-28.513057,6.824113,-4.724893,0.009602,-0.166967,0.000000,0.185322,0.193093,0.000000
0.800000,-2.831209,0.312556,-1.495665,0.751604,-0.054882,-0.055597,1.631625,0.114228,0.004509,-2.307268,1.904068,0.383382,-28.693708,6.706396,-5.355683,0.011491,-0.164888,0.000000,0.192400,0.222619,-0.000000
0.810000,-2.823612,0.312013,-1.496221,0.767801,-0.053644,-0.055534,1.607107,0.133601,0.008071,-2.595551,1.970491,0.327300,-28.761784,6.575827,-5.992869,0.013450,-0.162512,0.000000,0.199352,0.252514,0.000000
0.820000,-2.815854,0.311484,-1.496776,0.783737,-0.052208,-0.055438,1.579714,0.153633,0.011034,-2.883121,2.035544,0.264248,-28.736421,6.432615,-6.614382,0.015477,-0.159837,0.000000,0.206156,0.282503,-0.000000
0.830000,-2.807938,0.310969,-1.497329,0.799385,-0.050569,-0.055315,1.549447,0.174307,0.013335,-3.169963,2.099102,0.195088,-28.615943,6.276941,-7.213194,0.017572,-0.156861,0.000000,0.212789,0.312558,-0.000000
0.840000,-2.799867,0.310473,-1.497882,0.814717,-0.048720,-0.055174,1.516320,0.195610,0.014916,-3.455117,2.161042,0.120083,-28.398678,6.108987,-7.782276,0.019733,-0.153585,0.000000,0.219231,0.342564,-0.000000
0.850000,-2.791645,0.309996,-1.498433,0.829702,-0.046655,-0.055020,1.480354,0.217522,0.015718,-3.737608,2.221242,0.039565,-28.082951,5.928932,-8.314597,0.021956,-0.150009,0.000000,0.225459,0.372401,-0.000000
0.860000,-2.783275,0.309541,-1.498982,0.844315,-0.044368,-0.054862,1.441566,0.240028,0.015692,-4.017709,2.279575,-0.045915,-27.635085,5.737111,-8.806874,0.024241,-0.146135,0.000000,0.231450,0.402068,0.000000
0.870000,-2.774760,0.309109,-1.499530,0.858525,-0.041852,-0.054709,1.400016,0.263107,0.014785,-4.291412,2.335938,-0.136234,-27.089328,5.533531,-9.247875,0.026584,-0.141967,0.000000,0.237180,0.431138,-0.000000
0.880000,-2.766106,0.308704,-1.500077,0.872306,-0.039104,-0.054569,1.355758,0.286740,0.012953,-4.559177,2.390207,-0.230676,-26.447926,5.318357,-9.630110,0.028984,-0.137511,0.000000,0.242627,0.459622,-0.000000
0.890000,-2.757316,0.308328,-1.500622,0.885631,-0.036116,-0.054453,1.308856,0.310904,0.010159,-4.820059,2.442267,-0.328616,-25.713125,5.091749,-9.946093,0.031436,-0.132773,0.000000,0.247770,0.487390,-0.000000
0.900000,-2.748395,0.307983,-1.501166,0.898475,-0.032884,-0.054370,1.259383,0.335577,0.006372,-5.073136,2.492004,-0.429352,-24.887169,4.853869,-10.188336,0.033938,-0.127761,0.000000,0.252587,0.514313,0.000000
0.910000,-2.739348,0.307671,-1.501709,0.910811,-0.029403,-0.054329,1.207417,0.360738,0.001560,-5.317973,2.539504,-0.532594,-23.960506,4.599917,-10.337163,0.036487,-0.122484,0.000000,0.257075,0.540315,-0.000000
0.920000,-2.730180,0.307396,-1.502252,0.922615,-0.025668,-0.054342,1.153056,0.386359,-0.004284,-5.552589,2.584190,-0.636349,-22.948623,4.335625,-10.398767,0.039078,-0.116951,0.000000,0.261174,0.565145,0.000000
0.930000,-2.720897,0.307159,-1.502796,0.933864,-0.021674,-0.054418,1.096400,0.412413,-0.011167,-5.776674,2.626184,-0.740259,-21.855210,4.061764,-10.367151,0.041709,-0.111176,0.000000,0.264888,0.588744,-0.000000
0.940000,-2.711505,0.306963,-1.503341,0.944536,-0.017418,-0.054568,1.037560,0.438873,-0.019086,-5.989433,2.665396,-0.843361,-20.683957,3.779103,-10.236320,0.044375,-0.105171,0.000000,0.268204,0.610998,-0.000000
0.950000,-2.702009,0.306811,-1.503888,0.954609,-0.012895,-0.054803,0.976652,0.465711,-0.028028,-6.190106,2.701740,-0.944634,-19.438553,3.488412,-10.000278,0.047072,-0.098949,0.000000,0.271112,0.631800,0.000000
0.960000,-2.692415,0.306706,-1.504437,0.964063,-0.008102,-0.055132,0.913795,0.492895,-0.037981,-6.378481,2.734856,-1.044075,-18.109772,3.197630,-9.625782,0.049795,-0.092525,0.000000,0.273571,0.651111,-0.000000
0.970000,-2.682729,0.306650,-1.504991,0.972879,-0.003036,-0.055566,0.849128,0.520399,-0.048895,-6.552661,2.765348,-1.137987,-16.715802,2.899480,-9.137421,0.052542,-0.085916,0.000000,0.275658,0.668695,0.000000
0.980000,-2.672959,0.306646,-1.505549,0.981040,0.002307,-0.056113,0.782789,0.548192,-0.060723,-6.712597,2.792821,-1.226435,-15.261913,2.593855,-8.532535,0.055307,-0.079139,0.000000,0.277335,0.684545,-0.000000
0.990000,-2.663111,0.306697,-1.506113,0.988529,0.007928,-0.056783,0.714925,0.576245,-0.073402,-6.857717,2.817199,-1.308240,-13.753377,2.280646,-7.808467,0.058087,-0.072210,0.000000,0.278605,0.698595,0.000000
1.000000,-2.653191,0.306806,-1.506685,0.995333,0.013832,-0.057584,0.645686,0.604525,-0.086861,-6.987500,2.838408,-1.382198,-12.195466,1.959745,-6.962555,0.060878,-0.065149,0.000000,0.279471,0.710793,0.000000
1.010000,-2.643207,0.306975,-1.507266,1.001439,0.020020,-0.058522,0.575234,0.633003,-0.101033,-7.100885,2.856418,-1.448667,-10.608467,1.629794,-5.951963,0.063675,-0.057975,0.000000,0.279938,0.721048,-0.000000
1.020000,-2.633165,0.307207,-1.507856,1.006834,0.026493,-0.059606,0.503722,0.661643,-0.115799,-7.198863,2.871034,-1.502624,-8.980796,1.292088,-4.819130,0.066475,-0.050705,0.000000,0.280028,0.729453,0.000000
1.030000,-2.623072,0.307505,-1.508458,1.011510,0.033253,-0.060840,0.431312,0.690412,-0.131046,-7.280376,2.882234,-1.544650,-7.315885,0.946674,-3.566317,0.069274,-0.043360,0.000000,0.279753,0.735939,-0.000000
1.040000,-2.612937,0.307873,-1.509073,1.015458,0.040301,-0.062228,0.358170,0.719276,-0.146648,-7.345068,2.889942,-1.573558,-5.617169,0.593595,-2.195785,0.072069,-0.035957,0.000000,0.279129,0.740502,0.000000
1.050000,-2.602766,0.308312,-1.509703,1.018672,0.047639,-0.063773,0.284468,0.748199,-0.162469,-7.392619,2.894080,-1.588181,-3.888078,0.232898,-0.709795,0.074856,-0.028518,0.000000,0.278175,0.743152,-0.000000
1.060000,-2.592566,0.308827,-1.510349,1.021146,0.055265,-0.065477,0.210382,0.777146,-0.178380,-7.422155,2.894600,-1.589239,-2.146816,-0.136031,0.936440,0.077631,-0.021060,0.000000,0.276903,0.743852,0.000000
1.070000,-2.582345,0.309419,-1.511013,1.022878,0.063181,-0.067340,0.136083,0.806078,-0.194197,-7.434811,2.891364,-1.571202,-0.380237,-0.512407,2.687852,0.080393,-0.013602,0.000000,0.275364,0.742761,0.000000
1.080000,-2.572111,0.310091,-1.511697,1.023868,0.071387,-0.069360,0.061746,0.834960,-0.209744,-7.429681,2.884328,-1.535158,1.410035,-0.896106,4.536416,0.083138,-0.006162,0.000000,0.273573,0.739856,-0.000000
1.090000,-2.561870,0.310847,-1.512401,1.024114,0.079880,-0.071533,-0.012451,0.863752,-0.224837,-7.406537,2.873418,-1.480176,3.222377,-1.287002,6.474113,0.085864,0.001241,0.000000,0.271557,0.735180,-0.000000
1.100000,-2.551631,0.311690,-1.513128,1.023620,0.088661,-0.073855,-0.086324,0.892415,-0.239282,-7.365166,2.858564,-1.405405,5.055164,-1.684969,8.492920,0.088568,0.008590,0.000000,0.269343,0.728782,0.000000
1.110000,-2.541400,0.312622,-1.513879,1.022389,0.097728,-0.076316,-0.159687,0.920905,-0.252897,-7.304881,2.839222,-1.311889,6.894388,-2.077911,10.630650,0.091249,0.015868,0.000000,0.266897,0.720660,-0.000000
1.120000,-2.531186,0.313645,-1.514655,1.020428,0.107079,-0.078908,-0.232360,0.949187,-0.265448,-7.226662,2.816444,-1.194640,8.752325,-2.479139,12.827833,0.093906,0.023058,0.000000,0.264397,0.710994,0.000000
1.130000,-2.520994,0.314764,-1.515457,1.017745,0.116711,-0.081620,-0.304158,0.977220,-0.276715,-7.129772,2.789607,-1.055180,10.628869,-2.889993,15.070837,0.096537,0.030145,0.000000,0.261799,0.699781,-0.000000
1.140000,-2.510833,0.315981,-1.516287,1.014348,0.126622,-0.084438,-0.374893,1.004965,-0.286476,-7.014023,2.758608,-0.893116,12.523913,-3.311812,17.346025,0.099142,0.037114,0.000000,0.259124,0.687073,-0.000000
1.150000,-2.500709,0.317297,-1.517146,1.010251,0.136809,-0.087344,-0.444375,1.032378,-0.294501,-6.879232,2.723330,-0.708197,14.437348,-3.745937,19.639765,0.101719,0.043950,0.000000,0.256395,0.672922,0.000000
1.160000,-2.490630,0.318718,-1.518035,1.005466,0.147269,-0.090321,-0.512408,1.059418,-0.300579,-6.724660,2.683717,-0.501750,16.355037,-4.195568,21.974930,0.104269,0.050637,0.000000,0.253620,0.657309,-0.000000
1.170000,-2.480602,0.320244,-1.518953,1.000008,0.157996,-0.093348,-0.578804,1.086037,-0.304459,-6.551439,2.639452,-0.270372,18.292621,-4.659956,24.296908,0.106792,0.057163,0.000000,0.250833,0.640422,-0.000000
1.180000,-2.470632,0.321878,-1.519902,0.993896,0.168988,-0.096402,-0.643371,1.112191,-0.305909,-6.358736,2.590465,-0.015916,20.251710,-5.140216,26.587593,0.109286,0.063514,0.000000,0.248035,0.622221,0.000000
1.190000,-2.460727,0.323624,-1.520881,0.987147,0.180238,-0.099457,-0.705913,1.137830,-0.304701,-6.146328,2.536591,0.261215,22.233917,-5.637459,28.828880,0.111752,0.069678,0.000000,0.245234,0.602728,-0.000000
1.200000,-2.450891,0.325484,-1.521891,0.979785,0.191743,-0.102486,-0.766231,1.162906,-0.300611,-5.913975,2.477655,0.560436,24.240850,-6.152799,31.002664,0.114191,0.075640,0.000000,0.242431,0.581949,0.000000
1.210000,-2.441133,0.327460,-1.522930,0.971831,0.203494,-0.105459,-0.824134,1.187369,-0.293429,-5.662239,2.413748,0.880336,26.294728,-6.694348,33.107182,0.116601,0.081390,0.000000,0.239644,0.559955,-0.000000
1.220000,-2.431457,0.329555,-1.524000,0.963311,0.215488,-0.108343,-0.879407,1.211162,-0.282936,-5.388916,2.344016,1.221498,28.374030,-7.255362,35.105986,0.118983,0.086911,0.000000,0.236822,0.536552,0.000000
1.230000,-2.421868,0.331771,-1.525097,0.954252,0.227715,-0.111106,-0.931843,1.234230,-0.268934,-5.094676,2.268575,1.582036,30.477847,-7.836094,36.978972,0.121337,0.092192,0.000000,0.233973,0.511792,-0.000000
1.240000,-2.412373,0.334110,-1.526221,0.944684,0.240170,-0.113710,-0.981230,1.256514,-0.251235,-4.779280,2.187228,1.960591,32.605264,-8.436799,38.706033,0.123663,0.097218,0.000000,0.231084,0.485632,0.000000
1.250000,-2.402976,0.336575,-1.527370,0.934639,0.252843,-0.116118,-1.027357,1.277954,-0.229667,-4.442496,2.099772,2.355603,34.755369,-9.057733,40.267065,0.125959,0.101975,0.000000,0.228132,0.458012,0.000000
1.260000,-2.393682,0.339167,-1.528543,0.924149,0.265726,-0.118290,-1.070024,1.298494,-0.204068,-4.085531,2.006500,2.765865,36.963400,-9.711660,41.627986,0.128226,0.106448,0.000000,0.225143,0.429002,0.000000
1.270000,-2.384495,0.341890,-1.529735,0.913251,0.278809,-0.120185,-1.108994,1.318062,-0.174308,-3.704787,1.906033,3.188105,39.187869,-10.384793,42.784376,0.130461,0.110620,0.000000,0.221958,0.398161,0.000000
1.280000,-2.375418,0.344744,-1.530945,0.901982,0.292083,-0.121762,-1.144045,1.336592,-0.140271,-3.301737,1.798744,3.620810,41.423435,-11.075858,43.717843,0.132664,0.114474,0.000000,0.218599,0.365547,0.000000
1.290000,-2.366456,0.347732,-1.532169,0.890384,0.305537,-0.122976,-1.174954,1.354014,-0.101865,-2.876299,1.684460,4.061658,43.664761,-11.783576,44.409991,0.134833,0.117990,0.000000,0.215022,0.331036,0.000000
1.300000,-2.357612,0.350856,-1.533403,0.878498,0.319160,-0.123784,-1.201496,1.370257,-0.059019,-2.428440,1.563022,4.508144,45.906507,-12.506672,44.842426,0.136964,0.121148,0.000000,0.211175,0.294490,-0.000000
1.310000,-2.348887,0.354116,-1.534644,0.866370,0.332938,-0.124142,-1.223474,1.385259,-0.011669,-1.960570,1.435085,4.959725,48.203575,-13.264192,44.942541,0.139056,0.123930,0.000000,0.207106,0.256015,0.000000
1.320000,-2.340285,0.357515,-1.535885,0.854045,0.346860,-0.124003,-1.240631,1.398933,0.040174,-1.467117,1.298610,5.408449,50.483009,-14.032048,44.752792,0.141104,0.126310,0.000000,0.202498,0.214811,-0.000000
1.330000,-2.331807,0.361053,-1.537122,0.841574,0.360912,-0.123324,-1.252741,1.411205,0.096489,-0.951011,1.154422,5.853776,52.732094,-14.806475,44.261424,0.143104,0.128261,0.000000,0.197397,0.170989,0.000000
1.340000,-2.323454,0.364733,-1.538349,0.829008,0.375079,-0.122059,-1.259577,1.421996,0.157228,-0.412619,1.002472,6.292632,54.938115,-15.583708,43.456681,0.145050,0.129756,0.000000,0.191721,0.124352,0.000000
1.350000,-2.315227,0.368555,-1.539561,0.816401,0.389347,-0.120165,-1.260921,1.431229,0.222309,0.147566,0.842751,6.721826,57.088357,-16.359983,42.326805,0.146937,0.130764,0.000000,0.185382,0.074693,-0.000000
1.360000,-2.307126,0.372521,-1.540750,0.803809,0.403698,-0.117600,-1.256581,1.438834,0.291663,0.726600,0.676065,7.141937,59.228706,-17.151171,40.761768,0.148757,0.131258,0.000000,0.178416,0.022084,-0.000000
1.370000,-2.299150,0.376630,-1.541910,0.791290,0.418117,-0.114319,-1.246319,1.444724,0.365090,1.329229,0.500640,7.540326,61.280670,-17.931466,38.860119,0.150502,0.131199,0.000000,0.170397,-0.034389,0.000000
1.380000,-2.291299,0.380883,-1.543034,0.778903,0.432587,-0.110285,-1.229929,1.448821,0.442401,1.951853,0.317493,7.918018,63.224357,-18.694698,36.622139,0.152162,0.130549,0.000000,0.161355,-0.094627,-0.000000
1.390000,-2.283571,0.385281,-1.544114,0.766712,0.447088,-0.105459,-1.207219,1.451048,0.523371,2.593289,0.126824,8.271649,65.039877,-19.434697,34.048102,0.153725,0.129270,0.000000,0.151164,-0.158850,-0.000000
1.400000,-2.275964,0.389825,-1.545141,0.754781,0.461601,-0.099806,-1.178005,1.451333,0.607742,3.252157,-0.071103,8.597861,66.707340,-20.145293,31.138288,0.155181,0.127320,0.000000,0.139688,-0.227270,0.000000
1.410000,-2.268475,0.394513,-1.546107,0.743175,0.476107,-0.093295,-1.142134,1.449607,0.695282,3.925856,-0.275598,8.898550,68.232608,-20.829545,27.760291,0.156515,0.124657,0.000000,0.126905,-0.299903,-0.000000
1.420000,-2.261099,0.399347,-1.547003,0.731961,0.490586,-0.085893,-1.099441,1.445799,0.785595,4.615022,-0.487139,9.157927,69.566884,-21.470926,24.063318,0.157713,0.121232,0.000000,0.112364,-0.377348,0.000000
1.430000,-2.253834,0.404325,-1.547822,0.721209,0.505016,-0.077575,-1.049792,1.439844,0.878312,5.316480,-0.704849,9.378808,70.687121,-22.062136,20.063894,0.158757,0.116999,0.000000,0.096039,-0.459537,0.000000
1.440000,-2.246673,0.409447,-1.548552,0.710989,0.519376,-0.068320,-0.993078,1.431683,0.973033,6.027974,-0.928190,9.558251,71.570275,-22.595874,15.778543,0.159628,0.111908,0.000000,0.077760,-0.546552,-0.000000
1.450000,-2.239612,0.414712,-1.549185,0.701371,0.533642,-0.058110,-0.929208,1.421263,1.069330,6.747019,-1.156551,9.693481,72.193301,-23.064843,11.223789,0.160305,0.105911,0.000000,0.057358,-0.638413,0.000000
1.460000,-2.232644,0.420120,-1.549711,0.692428,0.547794,-0.046931,-0.858104,1.408533,1.166806,7.472441,-1.389678,9.787313,72.494142,-23.450854,6.279036,0.160768,0.098957,0.000000,0.034715,-0.735178,-0.000000
1.470000,-2.225761,0.425668,-1.550120,0.684233,0.561805,-0.034773,-0.779754,1.393458,1.264908,8.197638,-1.625794,9.824451,72.493543,-23.758829,1.114719,0.160991,0.091000,0.000000,0.009542,-0.836412,-0.000000
1.480000,-2.218956,0.431355,-1.550403,0.676857,0.575655,-0.021633,-0.694157,1.376008,1.363119,8.921246,-1.864575,9.808987,72.173237,-23.982802,-4.235846,0.160950,0.081995,0.000000,-0.018252,-0.941950,0.000000
1.490000,-2.212221,0.437180,-1.550550,0.670374,0.589318,-0.007512,-0.601345,1.356161,1.460906,9.639977,-2.105150,9.739224,71.514956,-24.116805,-9.739346,0.160617,0.071901,0.000000,-0.048793,-1.051362,-0.000000
1.500000,-2.205546,0.443141,-1.550550,0.664854,0.602770,0.007582,-0.501385,1.333902,1.557718,10.350358,-2.346591,9.613801,70.500433,-24.154872,-15.362464,0.159964,0.060683,0.000000,-0.082173,-1.164054,0.000000
1.510000,-2.198921,0.449235,-1.550395,0.660368,0.615988,0.023636,-0.394328,1.309215,1.653033,11.053378,-2.589233,9.435375,68.994166,-24.057576,-21.165027,0.158963,0.048305,0.000000,-0.118523,-1.279795,0.000000
1.520000,-2.192335,0.455460,-1.550074,0.656989,0.628947,0.040634,-0.280374,1.282123,1.746232,11.734213,-2.828890,9.194520,67.109476,-23.856509,-27.009175,0.157584,0.034756,0.000000,-0.157628,-1.396305,0.000000
1.530000,-2.185777,0.461813,-1.549579,0.654783,0.641622,0.058552,-0.159713,1.252646,1.836729,12.394293,-3.066011,8.895202,64.842452,-23.549801,-32.850187,0.155801,0.020028,0.000000,-0.199482,-1.512968,0.000000
1.540000,-2.179235,0.468291,-1.548900,0.653817,0.653992,0.077358,-0.032570,1.220814,1.923941,13.029775,-3.299528,8.537676,62.189180,-23.135584,-38.643345,0.153586,0.004130,0.000000,-0.243901,-1.628359,0.000000
1.550000,-2.172696,0.474891,-1.548029,0.654153,0.666031,0.097018,0.100788,1.186671,2.007291,13.636776,-3.528358,8.122643,59.145748,-22.611987,-44.343928,0.150915,-0.012916,0.000000,-0.290590,-1.740836,-0.000000
1.560000,-2.166147,0.481610,-1.546957,0.655850,0.677718,0.117489,0.240129,1.150247,2.086207,14.218008,-3.753205,7.651291,55.540743,-21.931462,-49.908130,0.147766,-0.031080,0.000000,-0.339373,-1.849421,0.000000
1.570000,-2.159574,0.488445,-1.545677,0.658971,0.689029,0.138725,0.385022,1.111631,2.160134,14.753811,-3.968668,7.125129,51.558264,-21.143413,-55.290206,0.144124,-0.050288,0.000000,-0.389155,-1.950093,-0.000000
1.580000,-2.152963,0.495390,-1.544180,0.663568,0.699944,0.160673,0.535067,1.070902,2.228534,15.247970,-4.175728,6.546243,47.214907,-20.251565,-60.445325,0.139981,-0.070459,0.000000,-0.439530,-2.041717,-0.000000
1.590000,-2.146298,0.502442,-1.542461,0.669688,0.710441,0.183276,0.689830,1.028148,2.290891,15.696961,-4.373366,5.917128,42.527272,-19.259642,-65.328655,0.135334,-0.091488,0.000000,-0.489722,-2.122196,-0.000000
1.600000,-2.139564,0.509597,-1.540513,0.677378,0.720500,0.206469,0.848844,0.983469,2.346719,16.097424,-4.560599,5.240726,37.511955,-18.171368,-69.895365,0.130190,-0.113249,0.000000,-0.538863,-2.189496,0.000000
1.610000,-2.132745,0.516851,-1.538330,0.686676,0.730104,0.230188,1.011673,0.936957,2.395512,16.452316,-4.738068,4.516073,32.030163,-16.950462,-73.990676,0.124560,-0.135608,0.000000,-0.586317,-2.242465,0.000000
1.620000,-2.125825,0.524198,-1.535908,0.697620,0.739234,0.254356,1.177703,0.888750,2.436910,16.744046,-4.901115,3.757313,26.272913,-15.645553,-77.693167,0.118473,-0.158392,0.000000,-0.630431,-2.277762,-0.000000
1.630000,-2.118787,0.531634,-1.533242,0.710239,0.747874,0.278900,1.346358,0.838979,2.470542,16.976975,-5.050728,2.963623,20.275831,-14.265264,-80.971470,0.111964,-0.181424,0.000000,-0.670622,-2.295007,0.000000
1.640000,-2.111615,0.539153,-1.530329,0.724554,0.756009,0.303740,1.517039,0.787782,2.496081,17.148882,-5.186197,2.139402,14.074540,-12.818218,-83.794215,0.105077,-0.204518,0.000000,-0.706053,-2.293428,-0.000000
1.650000,-2.104290,0.546752,-1.527166,0.740584,0.763626,0.328794,1.689126,0.735304,2.513244,17.257903,-5.306898,1.289362,7.704668,-11.313037,-86.130035,0.097862,-0.227483,0.000000,-0.736017,-2.272749,-0.000000
1.660000,-2.096797,0.554424,-1.523752,0.758338,0.770712,0.353979,1.862019,0.681687,2.521715,17.305895,-5.413040,0.410797,1.116900,-9.739478,-87.752266,0.090374,-0.250131,0.000000,-0.760160,-2.233359,0.000000
1.670000,-2.089118,0.562164,-1.520086,0.777824,0.777256,0.379202,2.035023,0.627097,2.521414,17.283743,-5.502402,-0.472649,-5.557798,-8.127341,-88.848748,0.082680,-0.272273,0.000000,-0.777668,-2.175597,-0.000000
1.680000,-2.081235,0.569967,-1.516168,0.799037,0.783251,0.404377,2.207470,0.571694,2.512234,17.194602,-5.575495,-1.364401,-12.273401,-6.487560,-89.412026,0.074843,-0.293736,0.000000,-0.788647,-2.100926,0.000000
1.690000,-2.073131,0.577828,-1.511999,0.821969,0.788688,0.429417,2.378691,0.515642,2.494117,17.038293,-5.632097,-2.259088,-18.983884,-4.831067,-89.434646,0.066928,-0.314359,0.000000,-0.793178,-2.010963,-0.000000
1.700000,-2.064790,0.585739,-1.507581,0.846605,0.793562,0.454230,2.548013,0.459107,2.467060,16.815095,-5.672097,-3.151266,-25.643220,-3.168796,-88.909153,0.059000,-0.334001,0.000000,-0.791525,-1.907627,-0.000000
1.710000,-2.056194,0.593697,-1.502916,0.872921,0.797869,0.478731,2.714763,0.402258,2.431024,16.524918,-5.695204,-4.044130,-32.184327,-1.518919,-87.608068,0.051117,-0.352536,0.000000,-0.784120,-1.792536,0.000000
1.720000,-2.047326,0.601695,-1.498007,0.900889,0.801607,0.502824,2.878296,0.345258,2.386230,16.170937,-5.702203,-4.911463,-38.584814,0.115757,-85.770902,0.043335,-0.369870,0.000000,-0.771481,-1.669059,-0.000000
1.730000,-2.038170,0.609727,-1.492861,0.930474,0.804774,0.526427,3.037972,0.288268,2.332864,15.753836,-5.692973,-5.757826,-44.801233,1.725183,-83.417142,0.035703,-0.385927,0.000000,-0.754273,-1.538877,0.000000
1.740000,-2.028711,0.617788,-1.487481,0.961634,0.807373,0.549454,3.193169,0.231451,2.271161,15.275671,-5.667817,-6.578149,-50.790137,3.299312,-80.566274,0.028262,-0.400652,0.000000,-0.733178,-1.404110,0.000000
1.750000,-2.018933,0.625873,-1.481874,0.994321,0.809404,0.571823,3.343290,0.174964,2.201404,14.738936,-5.627138,-7.367559,-56.508078,4.828098,-77.237787,0.021050,-0.414012,0.000000,-0.708885,-1.266736,-0.000000
1.760000,-2.008820,0.633975,-1.476047,1.028482,0.810873,0.593458,3.487708,0.118970,2.123854,14.141545,-5.570392,-8.128203,-61.785002,6.275028,-73.278771,0.014094,-0.425981,0.000000,-0.681949,-1.127683,-0.000000
1.770000,-1.998358,0.642088,-1.470007,1.064056,0.811785,0.614278,3.625950,0.063603,2.038979,13.498725,-5.500663,-8.839439,-66.719572,7.659761,-68.902218,0.007417,-0.436572,0.000000,-0.653281,-0.990606,-0.000000
1.780000,-1.987534,0.650208,-1.463764,1.100979,0.812148,0.634215,3.757524,0.009002,1.947218,12.808388,-5.417426,-9.504991,-71.283842,8.975491,-64.148725,0.001033,-0.445801,0.000000,-0.623328,-0.855838,0.000000
1.790000,-1.976334,0.658330,-1.457326,1.139183,0.811968,0.653201,3.881972,-0.044703,1.849044,12.074376,-5.321406,-10.121293,-75.449867,10.215412,-59.058890,-0.005047,-0.453700,0.000000,-0.592598,-0.724471,-0.000000
1.800000,-1.964746,0.666446,-1.450704,1.178593,0.811257,0.671176,3.998879,-0.097386,1.744966,11.300811,-5.213394,-10.685183,-79.189702,11.372717,-53.673308,-0.010818,-0.460305,0.000000,-0.561535,-0.597388,0.000000
1.810000,-1.952759,0.674553,-1.443906,1.219136,0.810024,0.688083,4.107792,-0.148918,1.635493,10.484749,-5.092838,-11.196724,-82.289847,12.404942,-47.961458,-0.016276,-0.465656,0.000000,-0.530363,-0.474435,-0.000000
1.820000,-1.940360,0.682645,-1.436946,1.260724,0.808282,0.703871,4.208479,-0.199210,1.521226,9.648262,-4.964009,-11.646901,-84.930633,13.345305,-42.043763,-0.021426,-0.469814,0.000000,-0.499757,-0.358148,-0.000000
1.830000,-1.927541,0.690717,-1.429833,1.303277,0.806044,0.718494,4.300677,-0.248169,1.402755,8.787685,-4.826246,-12.037078,-87.106839,14.191367,-35.969529,-0.026274,-0.472840,0.000000,-0.469788,-0.247876,0.000000
1.840000,-1.914292,0.698764,-1.422580,1.346709,0.803324,0.731914,4.384168,-0.295709,1.280689,7.907691,-4.680504,-12.365934,-88.813240,14.940685,-29.788061,-0.030825,-0.474794,0.000000,-0.440652,-0.143814,0.000000
1.850000,-1.900604,0.706782,-1.415199,1.390931,0.800135,0.744098,4.458781,-0.341755,1.155644,7.013004,-4.527763,-12.632646,-90.044614,15.590821,-23.548665,-0.035090,-0.475739,0.000000,-0.412498,-0.046046,0.000000
1.860000,-1.886471,0.714765,-1.407702,1.435857,0.796493,0.755018,4.524319,-0.386229,1.028263,6.101406,-4.367663,-12.835185,-90.619086,16.104890,-17.343440,-0.039077,-0.475731,0.000000,-0.385324,0.045970,0.000000
1.870000,-1.871885,0.722710,-1.400103,1.481390,0.792415,0.764656,4.580798,-0.429093,0.899147,5.194282,-4.204460,-12.977722,-90.729715,16.519113,-11.173657,-0.042800,-0.474840,0.000000,-0.359490,0.131001,-0.000000
1.880000,-1.856841,0.730612,-1.392413,1.527442,0.787917,0.772997,4.628208,-0.470306,0.768913,4.288303,-4.037607,-13.058923,-90.392907,16.835268,-5.083382,-0.046271,-0.473129,0.000000,-0.334904,0.209819,0.000000
1.890000,-1.841335,0.738467,-1.384647,1.573924,0.783015,0.780033,4.666583,-0.509836,0.638169,3.387860,-3.868076,-13.079802,-89.625069,17.055135,0.883322,-0.049503,-0.470659,0.000000,-0.311594,0.282611,-0.000000
1.900000,-1.825362,0.746271,-1.376817,1.620744,0.777726,0.785761,4.695998,-0.547662,0.507513,2.497183,-3.696820,-13.041815,-88.442609,17.180489,6.682389,-0.052507,-0.467489,0.000000,-0.289567,0.349594,0.000000
1.910000,-1.808919,0.754021,-1.368936,1.667815,0.772067,0.790184,4.716524,-0.583760,0.377578,1.615833,-3.523812,-12.941802,-86.748198,17.188770,12.142005,-0.055298,-0.463674,0.000000,-0.268766,0.411173,0.000000
1.920000,-1.792005,0.761711,-1.361018,1.715047,0.766056,0.793315,4.728378,-0.618139,0.248855,0.758368,-3.352251,-12.794072,-84.685906,17.109074,17.361496,-0.057887,-0.459271,0.000000,-0.249308,0.467203,0.000000
1.930000,-1.774618,0.769341,-1.353074,1.762355,0.759710,0.795167,4.731766,-0.650809,0.121866,-0.076760,-3.181908,-12.595467,-82.286067,16.946160,22.312441,-0.060288,-0.454331,0.000000,-0.231101,0.518134,-0.000000
1.940000,-1.756758,0.776905,-1.345118,1.809655,0.753046,0.795760,4.726928,-0.681784,-0.002894,-0.886329,-3.013589,-12.348813,-79.579015,16.704785,26.966416,-0.062513,-0.448905,0.000000,-0.214114,0.564230,-0.000000
1.950000,-1.738425,0.784400,-1.337163,1.856867,0.746080,0.795118,4.714134,-0.711090,-0.124960,-1.667418,-2.848057,-12.057223,-76.595084,16.389708,31.295001,-0.064574,-0.443040,0.000000,-0.198312,0.605757,0.000000
1.960000,-1.719621,0.791825,-1.329220,1.903912,0.738829,0.793269,4.693673,-0.738753,-0.243831,-2.418333,-2.685642,-11.717719,-73.341272,15.996014,35.108782,-0.066483,-0.436781,0.000000,-0.183659,0.642818,0.000000
1.970000,-1.700348,0.799176,-1.321302,1.950716,0.731310,0.790251,4.665879,-0.764817,-0.359194,-3.134574,-2.527915,-11.349069,-69.874106,15.539317,38.560040,-0.068251,-0.430168,0.000000,-0.170109,0.676066,-0.000000
1.980000,-1.680608,0.806451,-1.313419,1.997207,0.723538,0.786098,4.631100,-0.789327,-0.470703,-3.815214,-2.375046,-10.947756,-66.226778,15.025560,41.640066,-0.069889,-0.423241,0.000000,-0.157621,0.705551,0.000000
1.990000,-1.660405,0.813646,-1.305583,2.043316,0.715529,0.780851,4.589699,-0.812336,-0.578052,-4.458619,-2.227575,-10.517534,-62.432478,14.460684,44.340151,-0.071407,-0.416035,0.000000,-0.146154,0.731508,-0.000000
2.000000,-1.639743,0.820760,-1.297805,2.088980,0.707296,0.774552,4.542056,-0.833898,-0.680971,-5.063485,-2.085983,-10.062248,-58.524399,13.850633,46.651586,-0.072815,-0.408584,0.000000,-0.135664,0.754164,-0.000000
2.010000,-1.618627,0.827791,-1.290096,2.134137,0.698855,0.767245,4.488580,-0.854077,-0.779164,-5.627148,-1.950722,-9.580066,-54.578434,13.202095,48.420154,-0.074124,-0.400925,0.000000,-0.126144,0.773418,-0.000000
2.020000,-1.597062,0.834737,-1.282464,2.178733,0.690219,0.758983,4.429646,-0.872935,-0.872519,-6.152972,-1.822086,-9.088643,-50.579842,12.520173,49.800470,-0.075341,-0.393083,0.000000,-0.117473,0.790262,-0.000000
2.030000,-1.575054,0.841595,-1.274919,2.222713,0.681401,0.749811,4.365654,-0.890542,-0.960898,-6.638663,-1.700411,-8.585321,-46.556588,11.810720,50.801642,-0.076476,-0.385084,0.000000,-0.109648,0.804512,-0.000000
2.040000,-1.552610,0.848364,-1.267470,2.266030,0.672412,0.739782,4.297007,-0.906967,-1.044199,-7.084114,-1.585943,-8.073844,-42.536632,11.079585,51.432778,-0.077537,-0.376953,0.000000,-0.102628,0.816350,0.000000
2.050000,-1.529736,0.855043,-1.260126,2.308639,0.663265,0.728945,4.224105,-0.922285,-1.122360,-7.489499,-1.478872,-7.557868,-38.547938,10.332620,51.702985,-0.078531,-0.368715,0.000000,-0.096375,0.825952,0.000000
2.060000,-1.506440,0.861629,-1.252894,2.350499,0.653970,0.717351,4.147388,-0.936575,-1.195311,-7.851661,-1.379802,-7.037114,-34.709644,9.587740,51.524311,-0.079467,-0.360394,0.000000,-0.090905,0.833088,0.000000
2.070000,-1.482729,0.868122,-1.245781,2.391574,0.644537,0.705054,4.067199,-0.949906,-1.263113,-8.179875,-1.287674,-6.524152,-30.947373,8.837253,51.014810,-0.080351,-0.352006,0.000000,-0.086047,0.838871,0.000000
2.080000,-1.458611,0.874519,-1.238795,2.431832,0.634975,0.692105,3.983914,-0.962354,-1.325817,-8.470918,-1.203061,-6.017851,-27.277922,8.085535,50.195473,-0.081190,-0.343568,0.000000,-0.081828,0.842988,-0.000000
2.090000,-1.434095,0.880821,-1.231941,2.471243,0.625293,0.678555,3.897901,-0.973992,-1.383503,-8.725799,-1.125953,-5.521205,-23.718089,7.336958,49.087294,-0.081990,-0.335096,0.000000,-0.078212,0.845573,-0.000000
2.100000,-1.409189,0.887025,-1.225226,2.509782,0.615498,0.664452,3.809515,-0.984898,-1.436282,-8.945701,-1.056297,-5.036998,-20.284674,6.595896,47.711266,-0.082756,-0.326605,0.000000,-0.075165,0.846750,-0.000000
2.110000,-1.383902,0.893130,-1.218654,2.547426,0.605597,0.649844,3.719139,-0.995151,-1.484277,-9.128281,-0.994702,-4.566324,-17.087660,5.884563,46.051043,-0.083496,-0.318111,0.000000,-0.072712,0.846308,-0.000000
2.120000,-1.358243,0.899137,-1.212230,2.584158,0.595597,0.634781,3.627053,-1.004815,-1.527668,-9.283789,-0.939355,-4.115048,-14.039249,5.187307,44.169528,-0.084212,-0.309623,0.000000,-0.070675,0.845149,-0.000000
2.130000,-1.332222,0.905042,-1.205960,2.619962,0.585502,0.619306,3.533562,-1.013961,-1.566644,-9.409579,-0.890901,-3.683586,-11.144828,4.506320,42.092286,-0.084911,-0.301151,0.000000,-0.069092,0.842996,-0.000000
2.140000,-1.305847,0.910846,-1.199846,2.654826,0.575319,0.603462,3.438956,-1.022655,-1.601412,-9.507217,-0.849167,-3.273769,-8.409785,3.843789,39.844881,-0.085596,-0.292705,0.000000,-0.067932,0.839940,0.000000
2.150000,-1.279129,0.916548,-1.193891,2.688739,0.565051,0.587291,3.343507,-1.030966,-1.632196,-9.578324,-0.813957,-2.887170,-5.839508,3.201904,37.452879,-0.086271,-0.284293,0.000000,-0.067164,0.836062,-0.000000
2.160000,-1.252076,0.922147,-1.188101,2.721693,0.554701,0.570831,3.247498,-1.038963,-1.659243,-9.622215,-0.785719,-2.525689,-3.498984,2.599676,34.956521,-0.086941,-0.275926,0.000000,-0.066807,0.831262,0.000000
2.170000,-1.224698,0.927642,-1.182476,2.753687,0.544272,0.554118,3.151138,-1.046700,-1.682795,-9.646204,-0.762638,-2.189013,-1.326702,2.020413,32.364897,-0.087608,-0.267607,0.000000,-0.066721,0.826032,-0.000000
2.180000,-1.197005,0.933032,-1.177019,2.784715,0.533768,0.537186,3.054643,-1.054235,-1.703111,-9.649303,-0.745234,-1.878630,0.679246,1.464244,29.701776,-0.088276,-0.259343,0.000000,-0.066935,0.820236,0.000000
2.190000,-1.169007,0.938317,-1.171733,2.814780,0.523188,0.520065,2.958216,-1.061623,-1.720457,-9.633167,-0.733275,-1.595136,2.520772,0.931299,26.990923,-0.088948,-0.251140,0.000000,-0.067423,0.813929,-0.000000
2.200000,-1.140713,0.943496,-1.166618,2.843881,0.512535,0.502786,2.862039,-1.068917,-1.735105,-9.599429,-0.726530,-1.338891,4.199785,0.421708,24.256107,-0.089625,-0.243002,0.000000,-0.068163,0.807164,-0.000000
2.210000,-1.112133,0.948568,-1.161677,2.872021,0.501810,0.485372,2.766294,-1.076176,-1.747346,-9.548404,-0.725321,-1.111854,5.685301,-0.050293,21.567560,-0.090312,-0.234934,0.000000,-0.069165,0.799915,0.000000
2.220000,-1.083276,0.953532,-1.156911,2.899208,0.491012,0.467846,2.671117,-1.083439,-1.757431,-9.484770,-0.728092,-0.909555,7.016153,-0.500409,18.896895,-0.091009,-0.226939,0.000000,-0.070336,0.792391,-0.000000
2.230000,-1.054152,0.958388,-1.152321,2.925446,0.480141,0.450230,2.576641,-1.090752,-1.765626,-9.408577,-0.735262,-0.733797,8.198280,-0.930237,16.262190,-0.091719,-0.219021,0.000000,-0.071694,0.784554,-0.000000
2.240000,-1.024770,0.963134,-1.147907,2.950743,0.469197,0.432539,2.482983,-1.098158,-1.772194,-9.321281,-0.746635,-0.584131,9.237619,-1.341376,13.681523,-0.092444,-0.211183,0.000000,-0.073225,0.776439,-0.000000
2.250000,-0.995140,0.967771,-1.143670,2.975109,0.458178,0.414790,2.390248,-1.105699,-1.777393,-9.224281,-0.762032,-0.459926,10.140110,-1.735423,11.172972,-0.093184,-0.203427,0.000000,-0.074916,0.768077,0.000000
2.260000,-0.965271,0.972298,-1.139611,2.998552,0.447082,0.396996,2.298525,-1.113414,-1.781499,-9.118948,-0.781476,-0.362639,10.912519,-2.109315,8.811912,-0.093942,-0.195755,0.000000,-0.076755,0.759535,-0.000000
2.270000,-0.935172,0.976713,-1.135730,3.021083,0.435909,0.379164,2.207892,-1.121340,-1.784723,-9.006484,-0.804382,-0.285908,11.559854,-2.469882,6.552109,-0.094720,-0.188169,0.000000,-0.078740,0.750744,0.000000
2.280000,-0.904852,0.981015,-1.132028,3.042713,0.424655,0.361304,2.118415,-1.129513,-1.787291,-8.888148,-0.830837,-0.231223,12.087952,-2.819292,4.404623,-0.095518,-0.180673,0.000000,-0.080863,0.741780,0.000000
2.290000,-0.874321,0.985205,-1.128504,3.063455,0.413317,0.343420,2.030145,-1.137968,-1.789417,-8.765103,-0.860738,-0.197404,12.502650,-3.159713,2.380518,-0.096338,-0.173266,0.000000,-0.083123,0.732668,-0.000000
2.300000,-0.843586,0.989282,-1.125160,3.083321,0.401894,0.325516,1.943125,-1.146739,-1.791304,-8.638454,-0.894008,-0.183164,12.809784,-3.493315,0.490854,-0.097181,-0.165952,0.000000,-0.085519,0.723434,-0.000000
2.310000,-0.812657,0.993243,-1.121994,3.102322,0.390381,0.307594,1.857378,-1.155857,-1.793165,-8.509838,-0.930371,-0.189303,13.030134,-3.827777,-1.197726,-0.098048,-0.158729,0.000000,-0.088018,0.714183,-0.000000
2.320000,-0.781542,0.997089,-1.119008,3.120473,0.378776,0.289653,1.772934,-1.165358,-1.795144,-8.378844,-0.970307,-0.209101,13.152764,-4.159081,-2.736546,-0.098942,-0.151599,0.000000,-0.090709,0.704754,0.000000
2.330000,-0.750250,1.000818,-1.116201,3.137785,0.367073,0.271691,1.689804,-1.175274,-1.797396,-8.247095,-1.013547,-0.243520,13.181683,-4.488721,-4.121349,-0.099863,-0.144564,0.000000,-0.093559,0.695268,0.000000
2.340000,-0.718789,1.004430,-1.113574,3.154273,0.355269,0.253704,1.607991,-1.185640,-1.800058,-8.115509,-1.060081,-0.291000,13.120896,-4.818192,-5.347879,-0.100813,-0.137624,0.000000,-0.096577,0.685757,0.000000
2.350000,-0.687168,1.007923,-1.111127,3.169949,0.343359,0.235688,1.527490,-1.196487,-1.803254,-7.984963,-1.109915,-0.349936,12.974412,-5.148987,-6.411880,-0.101795,-0.130779,0.000000,-0.099771,0.676257,-0.000000
2.360000,-0.655393,1.011297,-1.108860,3.184827,0.331337,0.217637,1.448280,-1.207843,-1.807109,-7.856818,-1.162484,-0.420438,12.759479,-5.497413,-7.264728,-0.102809,-0.124028,0.000000,-0.103090,0.666867,0.000000
2.370000,-0.623474,1.014550,-1.106775,3.198919,0.319200,0.199544,1.370345,-1.219748,-1.811688,-7.730629,-1.219211,-0.496659,12.465241,-5.848337,-7.951966,-0.103857,-0.117371,0.000000,-0.106697,0.657476,0.000000
2.380000,-0.591417,1.017680,-1.104870,3.212238,0.306940,0.181401,1.293656,-1.232239,-1.817062,-7.607769,-1.279458,-0.578929,12.094085,-6.201438,-8.474771,-0.104943,-0.110807,0.000000,-0.110534,0.648201,0.000000
2.390000,-0.559231,1.020688,-1.103147,3.224797,0.294553,0.163200,1.218176,-1.245349,-1.823282,-7.488996,-1.343245,-0.665610,11.648396,-6.556396,-8.834319,-0.106069,-0.104335,0.000000,-0.114612,0.639088,-0.000000
2.400000,-0.526924,1.023571,-1.101606,3.236606,0.282031,0.144932,1.143860,-1.259116,-1.830384,-7.375042,-1.410591,-0.755076,11.130559,-6.912890,-9.031786,-0.107236,-0.097952,0.000000,-0.118943,0.630187,0.000000
2.410000,-0.494502,1.026328,-1.100248,3.247678,0.269368,0.126589,1.070656,-1.273565,-1.838400,-7.266690,-1.480730,-0.846880,10.544813,-7.290229,-9.038787,-0.108448,-0.091657,0.000000,-0.123463,0.621563,-0.000000
2.420000,-0.461973,1.028958,-1.099074,3.258023,0.256557,0.108161,0.998506,-1.288743,-1.847319,-7.164453,-1.555514,-0.936651,9.891464,-7.666061,-8.889679,-0.109707,-0.085446,0.000000,-0.128363,0.613235,0.000000
2.430000,-0.429344,1.031459,-1.098085,3.267651,0.243591,0.089640,0.927344,-1.304687,-1.857125,-7.069079,-1.634037,-1.024169,9.172672,-8.037662,-8.589259,-0.111016,-0.079317,0.000000,-0.133565,0.605278,-0.000000
2.440000,-0.396622,1.033829,-1.097282,3.276572,0.230461,0.071016,0.857099,-1.321436,-1.867790,-6.981211,-1.716244,-1.107947,8.390594,-8.402309,-8.142324,-0.112379,-0.073264,0.000000,-0.139076,0.597748,-0.000000
2.450000,-0.363815,1.036067,-1.096665,3.284796,0.217159,0.052281,0.787693,-1.339024,-1.879267,-6.901471,-1.802051,-1.186544,7.547391,-8.757278,-7.553668,-0.113799,-0.067284,0.000000,-0.144899,0.590706,0.000000
2.460000,-0.330928,1.038172,-1.096237,3.292329,0.203677,0.033428,0.719045,-1.357480,-1.891506,-6.830023,-1.890571,-1.259222,6.634179,-9.119474,-6.811489,-0.115277,-0.061372,0.000000,-0.150962,0.584176,-0.000000
2.470000,-0.297970,1.040140,-1.095997,3.299179,0.190006,0.014449,0.651061,-1.376848,-1.904425,-6.768479,-1.983506,-1.323081,5.665511,-9.464142,-5.939215,-0.116819,-0.055521,0.000000,-0.157436,0.578300,0.000000
2.480000,-0.264947,1.041971,-1.095948,3.305352,0.176137,-0.004662,0.583643,-1.397161,-1.917936,-6.716885,-2.079778,-1.377595,4.644898,-9.786153,-4.943675,-0.118427,-0.049724,0.000000,-0.164232,0.573099,0.000000
2.490000,-0.231865,1.043662,-1.096091,3.310853,0.162060,-0.023911,0.516688,-1.418453,-1.931941,-6.675743,-2.179136,-1.421566,3.575851,-10.080381,-3.831698,-0.120105,-0.043975,0.000000,-0.171341,0.568631,-0.000000
2.500000,-0.198732,1.045212,-1.096427,3.315687,0.147764,-0.043302,0.450091,-1.440753,-1.946329,-6.645518,-2.281276,-1.453864,2.461880,-10.341699,-2.610112,-0.121855,-0.038266,0.000000,-0.178748,0.564951,-0.000000
2.510000,-0.165554,1.046617,-1.096957,3.319856,0.133241,-0.062838,0.383749,-1.464081,-1.960979,-6.625818,-2.385328,-1.473722,1.285656,-10.577993,-1.278269,-0.123680,-0.032590,0.000000,-0.186388,0.562048,0.000000
2.520000,-0.132337,1.047876,-1.097684,3.323362,0.118479,-0.082522,0.317535,-1.488467,-1.975757,-6.618992,-2.492106,-1.479446,0.074083,-10.769529,0.148609,-0.125584,-0.026936,0.000000,-0.194349,0.560135,-0.000000
2.530000,-0.099089,1.048986,-1.098608,3.326206,0.103468,-0.102353,0.251328,-1.513929,-1.990519,-6.624434,-2.600547,-1.470459,-1.166777,-10.909586,1.662779,-0.127568,-0.021295,0.000000,-0.202551,0.559185,0.000000
2.540000,-0.065815,1.049944,-1.099732,3.328388,0.088197,-0.122332,0.185005,-1.540482,-2.005114,-6.642405,-2.710104,-1.445925,-2.430860,-10.991441,3.256495,-0.129635,-0.015657,0.000000,-0.210960,0.559241,-0.000000
2.550000,-0.032523,1.050749,-1.101056,3.329906,0.072655,-0.142455,0.118438,-1.568133,-2.019383,-6.673108,-2.820160,-1.405089,-3.712104,-11.008374,4.922013,-0.131788,-0.010012,0.000000,-0.219539,0.560344,0.000000
2.560000,0.000780,1.051396,-1.102581,3.330755,0.056831,-0.162718,0.051510,-1.596884,-2.033161,-6.715737,-2.930052,-1.347416,-5.028384,-10.953166,6.655226,-0.134026,-0.004349,0.000000,-0.228245,0.562450,-0.000000
2.570000,0.034089,1.051884,-1.104310,3.330934,0.040713,-0.183116,-0.015921,-1.626731,-2.046273,-6.772615,-3.038984,-1.271961,-6.346768,-10.819654,8.444308,-0.136353,0.001343,0.000000,-0.237032,0.565781,-0.000000
2.580000,0.067397,1.052210,-1.106244,3.330435,0.024292,-0.203640,-0.083986,-1.657658,-2.058540,-6.842649,-3.146162,-1.178370,-7.658261,-10.601180,10.281067,-0.138767,0.007076,0.000000,-0.245846,0.570270,-0.000000
2.590000,0.100696,1.052369,-1.108384,3.329251,0.007557,-0.224283,-0.152817,-1.689645,-2.069778,-6.925727,-3.250703,-1.066208,-8.953869,-10.291084,12.157316,-0.141270,0.012863,0.000000,-0.254632,0.575939,-0.000000
2.600000,0.133980,1.052360,-1.110730,3.327375,-0.009504,-0.245032,-0.222544,-1.722660,-2.079801,-7.021644,-3.351656,-0.935120,-10.224598,-9.882706,14.064864,-0.143859,0.018715,0.000000,-0.263328,0.582799,0.000000
2.610000,0.167241,1.052178,-1.113285,3.324797,-0.026900,-0.265874,-0.293284,-1.756671,-2.088419,-7.129397,-3.448716,-0.785024,-11.479351,-9.351462,16.000321,-0.146536,0.024644,0.000000,-0.271925,0.590799,-0.000000
2.620000,0.200473,1.051820,-1.116048,3.321506,-0.044640,-0.286795,-0.365173,-1.791615,-2.095437,-7.250281,-3.539121,-0.615280,-12.689046,-8.710812,17.950110,-0.149297,0.030663,0.000000,-0.280216,0.600083,-0.000000
2.630000,0.233669,1.051284,-1.119021,3.317489,-0.062735,-0.307777,-0.438329,-1.827430,-2.100659,-7.382991,-3.622553,-0.426003,-13.842496,-7.956290,19.905454,-0.152140,0.036785,0.000000,-0.288194,0.610576,0.000000
2.640000,0.266821,1.050565,-1.122203,3.312735,-0.081192,-0.328802,-0.512870,-1.864039,-2.103892,-7.526907,-3.697852,-0.217181,-14.928515,-7.083430,21.857576,-0.155060,0.043021,0.000000,-0.295780,0.622267,-0.000000
2.650000,0.299921,1.049659,-1.125597,3.307227,-0.100018,-0.349848,-0.588902,-1.901356,-2.104938,-7.681299,-3.763812,0.011109,-15.935918,-6.087768,23.797698,-0.158054,0.049385,0.000000,-0.302893,0.635136,0.000000
2.660000,0.332962,1.048563,-1.129200,3.300951,-0.119220,-0.370892,-0.666527,-1.939296,-2.103608,-7.845203,-3.820610,0.258385,-16.856623,-4.928806,25.725077,-0.161117,0.055888,0.000000,-0.309560,0.649145,0.000000
2.670000,0.365937,1.047273,-1.133014,3.293891,-0.138805,-0.391911,-0.745836,-1.977727,-2.099707,-8.017955,-3.863573,0.525150,-17.675961,-3.642524,27.621919,-0.164242,0.062542,0.000000,-0.315426,0.664288,0.000000
2.680000,0.398838,1.045786,-1.137038,3.286029,-0.158776,-0.412877,-0.826911,-2.016522,-2.093043,-8.198345,-3.893036,0.810689,-18.382364,-2.228869,29.478461,-0.167423,0.069359,0.000000,-0.320528,0.680511,0.000000
2.690000,0.431655,1.044096,-1.141272,3.277346,-0.179136,-0.433762,-0.909824,-2.055539,-2.083432,-8.385187,-3.907725,1.114552,-18.964268,-0.687787,31.284944,-0.170650,0.076349,0.000000,-0.324775,0.697767,-0.000000
2.700000,0.464382,1.042202,-1.145713,3.267826,-0.199887,-0.454535,-0.994632,-2.094623,-2.070693,-8.577177,-3.906367,1.436189,-19.410107,0.980773,33.031607,-0.173915,0.083524,0.000000,-0.328072,0.716001,0.000000
2.710000,0.497009,1.040097,-1.150362,3.257448,-0.221028,-0.475165,-1.081388,-2.133630,-2.054654,-8.773624,-3.889677,1.774621,-19.689950,2.827192,34.717058,-0.177210,0.090893,0.000000,-0.330480,0.735207,-0.000000
2.720000,0.529528,1.037780,-1.155216,3.246192,-0.242558,-0.495617,-1.170111,-2.172353,-2.035145,-8.971273,-3.851665,2.129888,-19.812844,4.795034,36.322141,-0.180521,0.098465,0.000000,-0.331527,0.755177,-0.000000
2.730000,0.561930,1.035245,-1.160274,3.234039,-0.264473,-0.515856,-1.260815,-2.210596,-2.012005,-9.169327,-3.793392,2.500760,-19.769472,6.878188,37.836072,-0.183836,0.106248,0.000000,-0.331295,0.775901,0.000000
2.740000,0.594205,1.032489,-1.165532,3.220969,-0.286768,-0.535844,-1.353493,-2.248150,-1.985081,-9.366077,-3.713737,2.886270,-19.550518,9.070546,39.248063,-0.187142,0.114251,0.000000,-0.329685,0.797293,0.000000
2.750000,0.626346,1.029508,-1.170990,3.206962,-0.309433,-0.555544,-1.448126,-2.284796,-1.954234,-9.559721,-3.611638,3.285345,-19.146665,11.365998,40.547330,-0.190425,0.122479,0.000000,-0.326600,0.819261,0.000000
2.760000,0.658342,1.026299,-1.176642,3.192000,-0.332459,-0.574915,-1.544690,-2.320328,-1.919333,-9.750056,-3.488292,3.696770,-18.505827,13.813949,41.723975,-0.193671,0.130941,0.000000,-0.322119,0.841843,0.000000
2.770000,0.690183,1.022858,-1.182487,3.176063,-0.355834,-0.593917,-1.643102,-2.354478,-1.880262,-9.931086,-3.337557,4.119337,-17.666692,16.345977,42.766215,-0.196862,0.139638,0.000000,-0.315726,0.864600,-0.000000
2.780000,0.721860,1.019181,-1.188519,3.159132,-0.379543,-0.612506,-1.743280,-2.386994,-1.836914,-10.102715,-3.161135,4.551610,-16.625179,18.949175,43.663156,-0.199979,0.148574,0.000000,-0.307526,0.887572,0.000000
2.790000,0.753362,1.015266,-1.194735,3.141192,-0.403568,-0.630641,-1.845118,-2.417613,-1.789202,-10.262901,-2.958379,4.992080,-15.377209,21.610636,44.403902,-0.203006,0.157751,0.000000,-0.297428,0.910638,0.000000
2.800000,0.784680,1.011109,-1.201130,3.122225,-0.427888,-0.648276,-1.948493,-2.446072,-1.737051,-10.409558,-2.728771,5.439131,-13.918700,24.317453,44.977559,-0.205921,0.167169,0.000000,-0.285345,0.933665,-0.000000
2.810000,0.815803,1.006707,-1.207699,3.102218,-0.452481,-0.665367,-2.053285,-2.472118,-1.680396,-10.543112,-2.473768,5.891696,-12.181112,27.103347,45.356610,-0.208707,0.176829,0.000000,-0.271346,0.956734,0.000000
2.820000,0.846721,1.002058,-1.214436,3.081156,-0.477321,-0.681869,-2.159294,-2.495454,-1.619207,-10.655355,-2.188740,6.346382,-10.232718,29.903074,45.548819,-0.211341,0.186727,0.000000,-0.254978,0.979172,-0.000000
