time,x,y,z,vx,vy,vz,ax,ay,az,jx,jy,jz,sx,sy,sz,roll,pitch,yaw,p,q,r
0.000000,-2.725608,-0.178630,-1.472707,0.009082,0.002086,0.015126,-0.008244,-0.258650,-0.106977,-3.830159,6.439504,0.480731,129.967983,-143.874106,-0.143228,-0.026076,0.000831,0.000000,0.647645,0.386131,0.000000
0.010000,-2.725518,-0.178621,-1.472561,0.008829,-0.000202,0.014080,-0.040413,-0.201117,-0.102185,-2.639463,5.099325,0.476861,108.555296,-124.454933,-0.623080,-0.020287,0.004077,0.000000,0.513280,0.266422,-0.000000
0.020000,-2.725432,-0.178632,-1.472425,0.008310,-0.001978,0.013082,-0.061709,-0.156045,-0.097455,-1.651562,3.944676,0.468419,89.390072,-106.754756,-1.057961,-0.015749,0.006228,0.000000,0.397318,0.166966,0.000000
0.030000,-2.725353,-0.178659,-1.472299,0.007625,-0.003359,0.012131,-0.074047,-0.121661,-0.092830,-0.844551,2.958766,0.455847,72.357990,-90.693764,-1.449479,-0.012285,0.007477,0.000000,0.298169,0.085617,0.000000
0.040000,-2.725280,-0.178698,-1.472183,0.006854,-0.004442,0.011225,-0.079133,-0.096360,-0.088350,-0.197673,2.125602,0.439569,57.344735,-76.192146,-1.799241,-0.009734,0.007994,0.000000,0.214285,0.020323,-0.000000
0.050000,-2.725216,-0.178747,-1.472075,0.006061,-0.005311,0.010363,-0.078469,-0.078691,-0.084050,0.308692,1.429991,0.419996,44.235986,-63.170091,-2.108857,-0.007953,0.007931,0.000000,0.144177,-0.030860,-0.000000
0.060000,-2.725159,-0.178804,-1.471975,0.005299,-0.006037,0.009543,-0.073366,-0.067350,-0.079960,0.693014,0.857535,0.397520,32.917427,-51.547788,-2.379933,-0.006810,0.007418,0.000000,0.086424,-0.069769,0.000000
0.070000,-2.725109,-0.178868,-1.471884,0.004605,-0.006675,0.008763,-0.064958,-0.061175,-0.076108,0.972626,0.394635,0.372520,23.274740,-41.245425,-2.614080,-0.006188,0.006571,0.000000,0.039679,-0.098129,0.000000
0.080000,-2.725067,-0.178937,-1.471800,0.004008,-0.007274,0.008020,-0.054209,-0.059135,-0.072517,1.163714,0.028493,0.345356,15.193605,-32.183192,-2.812904,-0.005984,0.005485,0.000000,0.002670,-0.117558,-0.000000
0.090000,-2.725029,-0.179013,-1.471723,0.003526,-0.007869,0.007312,-0.041928,-0.060323,-0.069207,1.281323,-0.252896,0.316374,8.559705,-24.281277,-2.978014,-0.006106,0.004244,0.000000,-0.025797,-0.129558,-0.000000
0.100000,-2.724996,-0.179095,-1.471653,0.003172,-0.008488,0.006635,-0.028781,-0.063948,-0.066194,1.339352,-0.460735,0.285903,3.258722,-17.459870,-3.111018,-0.006475,0.002914,0.000000,-0.046839,-0.135526,0.000000
0.110000,-2.724965,-0.179183,-1.471590,0.002951,-0.009154,0.005987,-0.015297,-0.069327,-0.063493,1.350559,-0.605429,0.254256,-0.823662,-11.639158,-3.213525,-0.007021,0.001549,0.000000,-0.061498,-0.136743,0.000000
0.120000,-2.724936,-0.179278,-1.471534,0.002866,-0.009879,0.005364,-0.001887,-0.075878,-0.061112,1.326559,-0.696588,0.221729,-3.801766,-6.739331,-3.287142,-0.007687,0.000191,0.000000,-0.070737,-0.134380,-0.000000
0.130000,-2.724907,-0.179381,-1.471483,0.002912,-0.010673,0.004764,0.011152,-0.083110,-0.059060,1.277824,-0.743019,0.188604,-5.789907,-2.680578,-3.333478,-0.008421,-0.001130,0.000000,-0.075442,-0.129495,0.000000
0.140000,-2.724877,-0.179492,-1.471438,0.003087,-0.011542,0.004182,0.023619,-0.090616,-0.057341,1.213680,-0.752737,0.155145,-6.902404,0.616913,-3.354141,-0.009183,-0.002394,0.000000,-0.076421,-0.123031,0.000000
0.150000,-2.724845,-0.179612,-1.471399,0.003382,-0.012486,0.003616,0.035401,-0.098066,-0.055957,1.142313,-0.732953,0.121601,-7.253574,3.232952,-3.350740,-0.009939,-0.003588,0.000000,-0.074402,-0.115820,-0.000000
0.160000,-2.724809,-0.179742,-1.471366,0.003792,-0.013502,0.003062,0.046464,-0.105198,-0.054909,1.070765,-0.690083,0.088205,-6.957736,5.247350,-3.324882,-0.010663,-0.004710,0.000000,-0.070034,-0.108576,-0.000000
0.170000,-2.724769,-0.179882,-1.471338,0.004309,-0.014588,0.002516,0.056836,-0.111810,-0.054192,1.004934,-0.629745,0.055173,-6.129208,6.739920,-3.278175,-0.011334,-0.005762,0.000000,-0.063889,-0.101899,-0.000000
0.180000,-2.724723,-0.180034,-1.471316,0.004927,-0.015736,0.001977,0.066598,-0.117751,-0.053803,0.949576,-0.556758,0.022706,-4.882308,7.790472,-3.212229,-0.011937,-0.006752,0.000000,-0.056455,-0.096273,0.000000
0.190000,-2.724670,-0.180197,-1.471298,0.005640,-0.016940,0.001439,0.075875,-0.122916,-0.053735,0.908302,-0.475143,-0.009013,-3.331354,8.478816,-3.128651,-0.012460,-0.007692,0.000000,-0.048142,-0.092065,0.000000
0.200000,-2.724610,-0.180373,-1.471287,0.006443,-0.018192,0.000901,0.084819,-0.127236,-0.053980,0.883581,-0.388123,-0.039814,-1.590664,8.884765,-3.029049,-0.012898,-0.008599,0.000000,-0.039278,-0.089528,-0.000000
0.210000,-2.724541,-0.180561,-1.471280,0.007327,-0.019477,0.000359,0.093932,-0.130873,-0.054527,0.906765,-0.316912,-0.069483,-0.532927,9.562693,-2.916630,-0.013266,-0.009522,0.000000,-0.032014,-0.091838,0.000000
0.220000,-2.724463,-0.180762,-1.471280,0.008312,-0.020800,-0.000191,0.102991,-0.133555,-0.055366,0.906958,-0.218658,-0.098032,0.578771,10.059737,-2.791208,-0.013536,-0.010439,0.000000,-0.022011,-0.091811,-0.000000
0.230000,-2.724375,-0.180977,-1.471284,0.009387,-0.022144,-0.000750,0.112108,-0.135232,-0.056484,0.918449,-0.116248,-0.125268,1.722974,10.397600,-2.654196,-0.013704,-0.011362,0.000000,-0.011591,-0.092923,-0.000000
0.240000,-2.724275,-0.181205,-1.471295,0.010554,-0.023501,-0.001321,0.121398,-0.135871,-0.057867,0.941454,-0.011164,-0.151082,2.878225,10.597981,-2.507007,-0.013767,-0.012302,0.000000,-0.000904,-0.095194,-0.000000
0.250000,-2.724163,-0.181447,-1.471311,0.011816,-0.024858,-0.001908,0.130976,-0.135451,-0.059500,0.975978,0.095326,-0.175379,4.023069,10.682584,-2.351052,-0.013722,-0.013270,0.000000,0.009918,-0.098626,-0.000000
0.260000,-2.724038,-0.181702,-1.471333,0.013173,-0.026205,-0.002512,0.141020,-0.134016,-0.061368,1.027698,0.197337,-0.197973,4.987309,10.795289,-2.190420,-0.013574,-0.014285,0.000000,0.020277,-0.103792,-0.000000
0.270000,-2.723899,-0.181971,-1.471361,0.014636,-0.027533,-0.003136,0.151561,-0.131502,-0.063454,1.082248,0.305486,-0.219047,5.916442,10.820656,-2.023521,-0.013316,-0.015349,0.000000,0.031249,-0.109236,0.000000
0.280000,-2.723745,-0.182253,-1.471396,0.016207,-0.028831,-0.003782,0.162695,-0.127906,-0.065743,1.145899,0.413481,-0.238426,6.807224,10.765426,-1.851439,-0.012949,-0.016473,0.000000,0.042193,-0.115593,0.000000
0.290000,-2.723575,-0.182547,-1.471437,0.017892,-0.030088,-0.004451,0.174508,-0.123235,-0.068217,1.218254,0.520549,-0.256062,7.656410,10.636340,-1.675258,-0.012473,-0.017664,0.000000,0.053031,-0.122821,0.000000
0.300000,-2.723387,-0.182854,-1.471485,0.019699,-0.031292,-0.005147,0.187087,-0.117501,-0.070858,1.298878,0.625984,-0.271921,8.460757,10.440138,-1.496064,-0.011889,-0.018932,0.000000,0.063690,-0.130877,-0.000000
0.310000,-2.723180,-0.183173,-1.471540,0.021636,-0.032434,-0.005869,0.200518,-0.110735,-0.073648,1.387886,0.728043,-0.285854,9.202437,10.211517,-1.318045,-0.011201,-0.020285,0.000000,0.073993,-0.139769,0.000000
0.320000,-2.722954,-0.183503,-1.471602,0.023713,-0.033503,-0.006620,0.214869,-0.102949,-0.076569,1.483413,0.828776,-0.298139,9.894577,9.925838,-1.138802,-0.010410,-0.021730,0.000000,0.084147,-0.149309,0.000000
0.330000,-2.722706,-0.183843,-1.471672,0.025937,-0.034490,-0.007401,0.230209,-0.094170,-0.079605,1.585607,0.926381,-0.308628,10.535719,9.586418,-0.959039,-0.009519,-0.023274,0.000000,0.093971,-0.159511,-0.000000
0.340000,-2.722434,-0.184192,-1.471750,0.028320,-0.035383,-0.008212,0.246602,-0.084433,-0.082736,1.693952,1.020336,-0.317320,11.124406,9.196576,-0.779462,-0.008532,-0.024922,0.000000,0.103410,-0.170320,0.000000
0.350000,-2.722139,-0.184550,-1.471837,0.030873,-0.036175,-0.009056,0.264107,-0.073777,-0.085945,1.807916,1.110155,-0.324221,11.659179,8.759628,-0.600776,-0.007452,-0.026682,0.000000,0.112417,-0.181684,0.000000
0.360000,-2.721816,-0.184915,-1.471932,0.033606,-0.036856,-0.009932,0.282777,-0.062249,-0.089213,1.926936,1.195010,-0.329196,12.138975,8.288313,-0.427359,-0.006286,-0.028558,0.000000,0.120907,-0.193544,-0.000000
0.370000,-2.721466,-0.185287,-1.472035,0.036532,-0.037417,-0.010840,0.302660,-0.049893,-0.092523,2.050488,1.275362,-0.332610,12.561895,7.775374,-0.255793,-0.005036,-0.030554,0.000000,0.128929,-0.205846,0.000000
0.380000,-2.721085,-0.185663,-1.472148,0.039664,-0.037851,-0.011782,0.323800,-0.036760,-0.095859,2.177979,1.350386,-0.334319,12.926431,7.222974,-0.086332,-0.003709,-0.032676,0.000000,0.136399,-0.218530,0.000000
0.390000,-2.720672,-0.186044,-1.472271,0.043013,-0.038150,-0.012757,0.346231,-0.022905,-0.099204,2.308817,1.419697,-0.334344,13.231079,6.633277,0.080770,-0.002310,-0.034926,0.000000,0.143279,-0.231535,0.000000
0.400000,-2.720224,-0.186426,-1.472404,0.046593,-0.038307,-0.013766,0.369985,-0.008386,-0.102541,2.442396,1.482934,-0.332712,13.474333,6.008447,0.245258,-0.000845,-0.037308,0.000000,0.149534,-0.244801,0.000000
0.410000,-2.719739,-0.186809,-1.472547,0.050417,-0.038316,-0.014808,0.395087,0.006733,-0.105852,2.578182,1.539765,-0.329350,13.652467,5.350440,0.404382,0.000678,-0.039823,0.000000,0.155130,-0.258273,-0.000000
0.420000,-2.719215,-0.187192,-1.472700,0.054499,-0.038171,-0.015883,0.421554,0.022387,-0.109123,2.715331,1.589850,-0.324522,13.766466,4.661653,0.560687,0.002255,-0.042474,0.000000,0.160036,-0.271865,0.000000
0.430000,-2.718648,-0.187572,-1.472864,0.058853,-0.037867,-0.016990,0.449396,0.038506,-0.112337,2.853293,1.632902,-0.318146,13.815097,3.944273,0.714225,0.003877,-0.045260,0.000000,0.164223,-0.285523,0.000000
0.440000,-2.718037,-0.187949,-1.473040,0.063492,-0.037399,-0.018130,0.478620,0.055020,-0.115480,2.991411,1.668647,-0.310247,13.797125,3.200490,0.865045,0.005537,-0.048184,0.000000,0.167664,-0.299179,-0.000000
0.450000,-2.717378,-0.188319,-1.473227,0.068430,-0.036765,-0.019300,0.509223,0.071854,-0.118537,3.129010,1.696831,-0.300854,13.711317,2.432492,1.013198,0.007228,-0.051244,0.000000,0.170336,-0.312768,-0.000000
0.460000,-2.716667,-0.188683,-1.473426,0.073680,-0.035961,-0.020500,0.541200,0.088932,-0.121492,3.265748,1.717287,-0.289961,13.547807,1.640865,1.157962,0.008941,-0.054439,0.000000,0.172223,-0.326255,0.000000
0.470000,-2.715903,-0.189038,-1.473637,0.079258,-0.034986,-0.021729,0.574531,0.106173,-0.124332,3.400120,1.729655,-0.277668,13.315050,0.829597,1.300255,0.010669,-0.057769,0.000000,0.173291,-0.339488,0.000000
0.480000,-2.715081,-0.189382,-1.473861,0.085176,-0.033838,-0.022986,0.609193,0.123497,-0.127041,3.531818,1.733822,-0.263964,13.012866,0.001074,1.440223,0.012404,-0.061229,0.000000,0.173529,-0.352439,0.000000
0.490000,-2.714198,-0.189714,-1.474097,0.091446,-0.032516,-0.024270,0.645156,0.140822,-0.129606,3.660146,1.729627,-0.248871,12.641080,-0.842319,1.578010,0.014137,-0.064817,0.000000,0.172925,-0.365039,0.000000
0.500000,-2.713251,-0.190032,-1.474346,0.098083,-0.031021,-0.025578,0.682383,0.158062,-0.132014,3.784407,1.716934,-0.232410,12.199513,-1.698197,1.713763,0.015860,-0.068529,0.000000,0.171465,-0.377219,-0.000000
0.510000,-2.712235,-0.190334,-1.474609,0.105098,-0.029355,-0.026909,0.720835,0.175131,-0.134250,3.904525,1.695554,-0.214649,11.672281,-2.562286,1.848816,0.017563,-0.072361,0.000000,0.169133,-0.388973,-0.000000
0.520000,-2.711148,-0.190619,-1.474884,0.112503,-0.027520,-0.028262,0.760455,0.191944,-0.136302,4.018326,1.665577,-0.195493,11.076837,-3.434320,1.981980,0.019239,-0.076308,0.000000,0.165941,-0.400086,0.000000
0.530000,-2.709984,-0.190884,-1.475174,0.120311,-0.025518,-0.029635,0.801181,0.208413,-0.138156,4.125840,1.626849,-0.175016,10.414927,-4.312145,2.113253,0.020879,-0.080362,0.000000,0.161876,-0.410564,0.000000
0.540000,-2.708740,-0.191129,-1.475477,0.128530,-0.023353,-0.031025,0.842948,0.224451,-0.139798,4.226409,1.579322,-0.153235,9.688297,-5.193608,2.242634,0.022474,-0.084518,0.000000,0.156936,-0.420345,-0.000000
0.550000,-2.707412,-0.191351,-1.475794,0.137173,-0.021030,-0.032430,0.885684,0.239970,-0.141216,4.319396,1.522972,-0.130169,8.898693,-6.076554,2.370123,0.024015,-0.088769,0.000000,0.151122,-0.429367,-0.000000
0.560000,-2.705995,-0.191549,-1.476126,0.146247,-0.018556,-0.033848,0.929316,0.254883,-0.142399,4.404857,1.457919,-0.105987,8.030723,-6.961994,2.499460,0.025494,-0.093106,0.000000,0.144447,-0.437639,-0.000000
0.570000,-2.704485,-0.191721,-1.476471,0.155761,-0.015935,-0.035277,0.973751,0.269099,-0.143332,4.480584,1.383884,-0.080355,7.105369,-7.844222,2.626445,0.026901,-0.097521,0.000000,0.136889,-0.444948,-0.000000
0.580000,-2.702878,-0.191867,-1.476831,0.165724,-0.013176,-0.036714,1.018896,0.282531,-0.144002,4.546786,1.301053,-0.053467,6.126475,-8.720695,2.750621,0.028229,-0.102005,0.000000,0.128468,-0.451319,-0.000000
0.590000,-2.701169,-0.191984,-1.477206,0.176141,-0.010287,-0.038156,1.064653,0.295091,-0.144397,4.602948,1.209498,-0.025353,5.097886,-9.588872,2.871529,0.029468,-0.106548,0.000000,0.119196,-0.456706,-0.000000
0.600000,-2.699354,-0.192072,-1.477595,0.187019,-0.007278,-0.039601,1.110920,0.306692,-0.144505,4.648591,1.109312,0.003951,4.023447,-10.446210,2.988711,0.030610,-0.111140,0.000000,0.109084,-0.461067,0.000000
0.610000,-2.697427,-0.192129,-1.477998,0.198361,-0.004157,-0.041045,1.157598,0.317250,-0.144316,4.684099,1.000692,0.034267,2.886246,-11.292041,3.105234,0.031647,-0.115771,0.000000,0.098155,-0.464443,-0.000000
0.620000,-2.695385,-0.192155,-1.478415,0.210172,-0.000936,-0.042486,1.204563,0.326678,-0.143816,4.707124,0.883609,0.065881,1.713425,-12.121721,3.216682,0.032570,-0.120430,0.000000,0.086411,-0.466613,0.000000
0.630000,-2.693222,-0.192148,-1.478847,0.222453,0.002373,-0.043920,1.251700,0.334895,-0.142994,4.718270,0.758321,0.098581,0.511370,-12.932479,3.322165,0.033372,-0.125104,0.000000,0.073879,-0.467640,0.000000
0.640000,-2.690935,-0.192107,-1.479294,0.235206,0.005757,-0.045345,1.298888,0.341818,-0.141841,4.717275,0.625031,0.132302,-0.713533,-13.721544,3.420792,0.034045,-0.129784,0.000000,0.060581,-0.467506,0.000000
0.650000,-2.688517,-0.192033,-1.479754,0.248430,0.009204,-0.046756,1.346005,0.347369,-0.140345,4.703944,0.483971,0.166971,-1.954897,-14.486145,3.511674,0.034581,-0.134456,0.000000,0.046541,-0.466197,-0.000000
0.660000,-2.685964,-0.191923,-1.480229,0.262125,0.012700,-0.048151,1.392936,0.351473,-0.138499,4.679090,0.335499,0.202505,-3.230241,-15.226038,3.593951,0.034974,-0.139110,0.000000,0.031798,-0.463800,0.000000
0.670000,-2.683273,-0.191778,-1.480717,0.276288,0.016229,-0.049525,1.439544,0.354055,-0.136293,4.640404,0.179665,0.238817,-4.506348,-15.935616,3.666699,0.035215,-0.143734,0.000000,0.016355,-0.460092,-0.000000
0.680000,-2.680437,-0.191598,-1.481219,0.290914,0.019776,-0.050875,1.485702,0.355044,-0.133720,4.588992,0.016898,0.275805,-5.773905,-16.611797,3.729022,0.035299,-0.148314,0.000000,0.000257,-0.455189,0.000000
0.690000,-2.677453,-0.191383,-1.481735,0.306000,0.023324,-0.052198,1.531282,0.354371,-0.130775,4.524985,-0.152450,0.313360,-7.023599,-17.251501,3.780027,0.035218,-0.152839,0.000000,-0.016465,-0.449108,-0.000000
0.700000,-2.674316,-0.191132,-1.482263,0.321538,0.026857,-0.053490,1.576160,0.351974,-0.127451,4.448610,-0.328000,0.351364,-8.246117,-17.851648,3.818821,0.034967,-0.157298,0.000000,-0.033774,-0.441876,0.000000
0.710000,-2.671021,-0.190846,-1.482804,0.337520,0.030358,-0.054746,1.620214,0.347791,-0.123744,4.360159,-0.509420,0.389921,-9.431502,-18.407153,3.838728,0.034541,-0.161678,0.000000,-0.051640,-0.433528,-0.000000
0.720000,-2.667564,-0.190525,-1.483358,0.353939,0.033807,-0.055963,1.663324,0.341768,-0.119652,4.260104,-0.696081,0.428353,-10.571165,-18.917184,3.845343,0.033933,-0.165970,0.000000,-0.070006,-0.424103,0.000000
0.730000,-2.663940,-0.190170,-1.483923,0.370783,0.037187,-0.057138,1.705379,0.333853,-0.115177,4.148919,-0.887603,0.466783,-11.655870,-19.378906,3.838479,0.033139,-0.170162,0.000000,-0.088839,-0.413654,0.000000
0.740000,-2.660147,-0.189782,-1.484501,0.388042,0.040478,-0.058265,1.746268,0.324001,-0.110317,4.027201,-1.083488,0.505077,-12.676385,-19.789486,3.817951,0.032155,-0.174244,0.000000,-0.108095,-0.402239,0.000000
0.750000,-2.656178,-0.189361,-1.485089,0.405704,0.043660,-0.059343,1.785890,0.312171,-0.105076,3.895636,-1.283212,0.543096,-13.623474,-20.146086,3.783572,0.030976,-0.178208,0.000000,-0.127728,-0.389923,-0.000000
0.760000,-2.652031,-0.188909,-1.485687,0.423756,0.046714,-0.060366,1.824138,0.298323,-0.099452,3.753914,-1.486452,0.581132,-14.460315,-20.440031,3.724292,0.029599,-0.182043,0.000000,-0.147713,-0.376682,0.000000
0.770000,-2.647702,-0.188427,-1.486296,0.442183,0.049620,-0.061331,1.860942,0.282433,-0.093456,3.605493,-1.692077,0.618024,-15.208641,-20.675043,3.652119,0.028021,-0.185742,0.000000,-0.167949,-0.362832,-0.000000
0.780000,-2.643186,-0.187917,-1.486914,0.460970,0.052356,-0.062234,1.896225,0.264475,-0.087094,3.450056,-1.899749,0.654135,-15.862596,-20.849001,3.568197,0.026239,-0.189300,0.000000,-0.188409,-0.348344,0.000000
0.790000,-2.638481,-0.187380,-1.487540,0.480102,0.054902,-0.063071,1.929923,0.244433,-0.080376,3.288575,-2.108847,0.689352,-16.416324,-20.959786,3.473669,0.024252,-0.192710,0.000000,-0.209040,-0.333310,-0.000000
0.800000,-2.633583,-0.186820,-1.488175,0.499563,0.057238,-0.063840,1.961980,0.222296,-0.073310,3.122083,-2.318728,0.723577,-16.863970,-21.005278,3.369681,0.022058,-0.195967,0.000000,-0.229785,-0.317823,0.000000
0.810000,-2.628489,-0.186237,-1.488817,0.519336,0.059341,-0.064537,1.992331,0.198053,-0.065903,2.949778,-2.529210,0.757207,-17.151905,-20.971178,3.245040,0.019656,-0.199065,0.000000,-0.250635,-0.301808,-0.000000
0.820000,-2.623196,-0.185634,-1.489465,0.539404,0.061192,-0.065157,2.020967,0.171714,-0.058171,2.777286,-2.738468,0.789009,-17.327896,-20.869037,3.114736,0.017045,-0.202003,0.000000,-0.271419,-0.285784,0.000000
0.830000,-2.617700,-0.185014,-1.490120,0.559750,0.062769,-0.065699,2.047872,0.143288,-0.050127,2.603593,-2.946362,0.819491,-17.391936,-20.698226,2.981424,0.014227,-0.204781,0.000000,-0.292127,-0.269654,0.000000
0.840000,-2.612000,-0.184379,-1.490779,0.580356,0.064051,-0.066159,2.073039,0.112793,-0.041785,2.429820,-3.152202,0.848637,-17.344018,-20.458117,2.847759,0.011203,-0.207397,0.000000,-0.312699,-0.253521,0.000000
0.850000,-2.606092,-0.183734,-1.491443,0.601205,0.065018,-0.066534,2.096472,0.080253,-0.033159,2.257086,-3.355291,0.876454,-17.184136,-20.148081,2.716396,0.007974,-0.209852,0.000000,-0.333069,-0.237489,-0.000000
0.860000,-2.599975,-0.183080,-1.492109,0.622280,0.065649,-0.066821,2.118163,0.045693,-0.024257,2.084193,-3.555467,0.903253,-16.853745,-19.753881,2.583122,0.004542,-0.212145,0.000000,-0.353226,-0.221439,-0.000000
0.870000,-2.593646,-0.182422,-1.492779,0.643563,0.065925,-0.067018,2.138169,0.009158,-0.015098,1.917747,-3.750745,0.928451,-16.418544,-19.290164,2.458299,0.000911,-0.214282,0.000000,-0.372975,-0.205997,0.000000
0.880000,-2.587103,-0.181763,-1.493449,0.665038,0.065826,-0.067122,2.156534,-0.029305,-0.005692,1.756147,-3.941042,0.952459,-15.885698,-18.757968,2.345423,-0.002916,-0.216267,0.000000,-0.392309,-0.191010,-0.000000
0.890000,-2.580344,-0.181107,-1.494121,0.686689,0.065333,-0.067131,2.173311,-0.069644,0.003948,1.600335,-4.125679,0.975411,-15.262366,-18.158332,2.247990,-0.006934,-0.218104,0.000000,-0.411159,-0.176567,0.000000
0.900000,-2.573369,-0.180457,-1.494792,0.708499,0.064427,-0.067043,2.188563,-0.111798,0.013813,1.451178,-4.303987,0.997482,-14.555712,-17.492293,2.169493,-0.011137,-0.219800,0.000000,-0.429459,-0.162752,0.000000
0.910000,-2.566174,-0.179819,-1.495461,0.730455,0.063091,-0.066854,2.202348,-0.155703,0.023893,1.308451,-4.475535,1.018696,-13.747052,-16.755125,2.117975,-0.015521,-0.221361,0.000000,-0.447162,-0.149539,0.000000
0.920000,-2.558759,-0.179197,-1.496128,0.752542,0.061308,-0.066564,2.214760,-0.201283,0.034186,1.175302,-4.639135,1.039723,-12.872558,-15.954338,2.091829,-0.020078,-0.222794,0.000000,-0.464147,-0.137248,-0.000000
0.930000,-2.551123,-0.178595,-1.496792,0.774746,0.059060,-0.066170,2.225885,-0.248458,0.044687,1.051185,-4.794416,1.060627,-11.942556,-15.091674,2.093993,-0.024802,-0.224109,0.000000,-0.480373,-0.125824,-0.000000
0.940000,-2.543264,-0.178018,-1.497451,0.797056,0.056333,-0.065669,2.235815,-0.297141,0.055399,0.936602,-4.940768,1.081707,-10.967372,-14.168879,2.127405,-0.029683,-0.225314,0.000000,-0.495774,-0.115322,-0.000000
0.950000,-2.535181,-0.177470,-1.498105,0.819459,0.053113,-0.065061,2.244650,-0.347241,0.066323,0.831954,-5.077599,1.103289,-9.957334,-13.187695,2.195005,-0.034714,-0.226420,0.000000,-0.510287,-0.105788,0.000000
0.960000,-2.526874,-0.176957,-1.498752,0.841946,0.049384,-0.064342,2.252486,-0.398665,0.077461,0.737302,-5.204788,1.125157,-8.916828,-12.138380,2.314212,-0.039886,-0.227434,0.000000,-0.523891,-0.097223,0.000000
0.970000,-2.518342,-0.176484,-1.499392,0.864506,0.045135,-0.063511,2.259431,-0.451301,0.088831,0.653397,-5.320701,1.149054,-7.862849,-11.035572,2.471710,-0.045188,-0.228369,0.000000,-0.536425,-0.089742,0.000000
0.980000,-2.509584,-0.176056,-1.500022,0.887132,0.040355,-0.062565,2.265589,-0.505041,0.100448,0.580053,-5.425332,1.174723,-6.806448,-9.882422,2.668666,-0.050611,-0.229235,0.000000,-0.547882,-0.083322,-0.000000
0.990000,-2.500599,-0.175679,-1.500643,0.909815,0.035031,-0.061501,2.271067,-0.559769,0.112332,0.517239,-5.518192,1.202563,-5.758680,-8.682081,2.906245,-0.056142,-0.230041,0.000000,-0.558211,-0.077971,-0.000000
1.000000,-2.491388,-0.175357,-1.501252,0.932551,0.029156,-0.060317,2.275969,-0.615364,0.124508,0.464814,-5.598826,1.232987,-4.730598,-7.437698,3.185613,-0.061771,-0.230800,0.000000,-0.567365,-0.073688,-0.000000
1.010000,-2.481948,-0.175097,-1.501849,0.955333,0.022722,-0.059010,2.280410,-0.671702,0.136993,0.423713,-5.666702,1.265535,-3.763271,-6.155158,3.530250,-0.067485,-0.231522,0.000000,-0.575283,-0.070556,-0.000000
1.020000,-2.472281,-0.174905,-1.502432,0.978158,0.015720,-0.057576,2.284475,-0.728655,0.149831,0.390761,-5.721681,1.302734,-2.834062,-4.834545,3.916274,-0.073273,-0.232218,0.000000,-0.581972,-0.068327,-0.000000
1.030000,-2.462385,-0.174785,-1.503000,1.001021,0.008147,-0.056012,2.288255,-0.786091,0.163061,0.366880,-5.763275,1.343993,-1.950351,-3.478674,4.342120,-0.079121,-0.232896,0.000000,-0.587379,-0.067080,0.000000
1.040000,-2.452260,-0.174744,-1.503551,1.023922,-0.000003,-0.054313,2.291841,-0.843874,0.176726,0.351578,-5.791146,1.389704,-1.119515,-2.090363,4.806221,-0.085016,-0.233567,0.000000,-0.591477,-0.066781,0.000000
1.050000,-2.441906,-0.174787,-1.504085,1.046858,-0.008731,-0.052475,2.295314,-0.901867,0.190871,0.344289,-5.804983,1.440240,-0.348933,-0.672426,5.307010,-0.090946,-0.234239,0.000000,-0.594243,-0.067387,0.000000
1.060000,-2.431323,-0.174920,-1.504600,1.069828,-0.018040,-0.050494,2.298762,-0.959924,0.205537,0.345378,-5.804309,1.494972,0.328659,0.767360,5.867910,-0.096896,-0.234924,0.000000,-0.595626,-0.068923,0.000000
1.070000,-2.420510,-0.175150,-1.505095,1.092833,-0.027930,-0.048362,2.302243,-1.017905,0.220790,0.351754,-5.789333,1.556584,0.934345,2.231746,6.459305,-0.102854,-0.235627,0.000000,-0.595688,-0.071154,0.000000
1.080000,-2.409466,-0.175481,-1.505567,1.115873,-0.038398,-0.046076,2.305816,-1.075662,0.236689,0.363811,-5.759599,1.624244,1.463851,3.718522,7.076569,-0.108805,-0.236357,0.000000,-0.594384,-0.074102,-0.000000
1.090000,-2.398192,-0.175919,-1.506016,1.138950,-0.049442,-0.043626,2.309535,-1.133047,0.253296,0.380763,-5.714895,1.698187,1.912902,5.225479,7.715076,-0.114737,-0.237120,0.000000,-0.591707,-0.077703,-0.000000
1.100000,-2.386687,-0.176471,-1.506439,1.162064,-0.061057,-0.041007,2.313445,-1.189909,0.270674,0.401786,-5.655030,1.778601,2.277226,6.750408,8.370200,-0.120635,-0.237923,0.000000,-0.587654,-0.081885,-0.000000
1.110000,-2.374951,-0.177142,-1.506835,1.185219,-0.073237,-0.038210,2.317591,-1.246100,0.288881,0.426880,-5.580179,1.864794,2.530610,8.299797,9.058444,-0.126485,-0.238772,0.000000,-0.582244,-0.086638,-0.000000
1.120000,-2.362983,-0.177938,-1.507203,1.208417,-0.085976,-0.035226,2.321989,-1.301461,0.307993,0.453076,-5.489380,1.958843,2.693404,9.861674,9.751465,-0.132275,-0.239671,0.000000,-0.575428,-0.091725,-0.000000
1.130000,-2.350782,-0.178864,-1.507539,1.231660,-0.099263,-0.032047,2.326656,-1.355835,0.328080,0.480441,-5.382915,2.059815,2.764023,11.432768,10.442049,-0.137989,-0.240624,0.000000,-0.567234,-0.097137,-0.000000
1.140000,-2.338349,-0.179925,-1.507843,1.254951,-0.113089,-0.028661,2.331599,-1.409067,0.349212,0.508044,-5.260705,2.167651,2.740879,13.009802,11.122982,-0.143615,-0.241633,0.000000,-0.557669,-0.102789,0.000000
1.150000,-2.325683,-0.181127,-1.508112,1.278293,-0.127440,-0.025059,2.336815,-1.460997,0.371456,0.534940,-5.122710,2.282219,2.622384,14.589505,11.787052,-0.149138,-0.242702,0.000000,-0.546740,-0.108591,-0.000000
1.160000,-2.312783,-0.182476,-1.508343,1.301688,-0.142304,-0.021228,2.342306,-1.511469,0.394873,0.561448,-4.968962,2.402809,2.374627,16.169730,12.439761,-0.154545,-0.243831,0.000000,-0.534446,-0.114565,0.000000
1.170000,-2.299649,-0.183975,-1.508535,1.325139,-0.157664,-0.017157,2.348034,-1.560324,0.419533,0.583561,-4.799379,2.530337,2.032304,17.745937,13.059621,-0.159823,-0.245020,0.000000,-0.520815,-0.120345,-0.000000
1.180000,-2.286280,-0.185631,-1.508686,1.348649,-0.173505,-0.012833,2.353964,-1.607404,0.445500,0.601787,-4.614068,2.663862,1.597784,19.314714,13.637863,-0.164957,-0.246269,0.000000,-0.505846,-0.125966,-0.000000
1.190000,-2.272676,-0.187447,-1.508791,1.372219,-0.189806,-0.008242,2.360054,-1.652553,0.472829,0.615217,-4.413121,2.802926,1.073439,20.872649,14.165716,-0.169935,-0.247574,0.000000,-0.489546,-0.131332,-0.000000
1.200000,-2.258836,-0.189428,-1.508850,1.395850,-0.206549,-0.003372,2.366250,-1.695615,0.501575,0.622964,-4.196662,2.946980,0.461639,22.416330,14.634408,-0.174744,-0.248933,0.000000,-0.471919,-0.136349,-0.000000
1.210000,-2.244759,-0.191579,-1.508858,1.419544,-0.223711,0.001794,2.372499,-1.736438,0.531784,0.624837,-3.965122,3.095426,-0.252200,23.949149,15.034195,-0.179369,-0.250342,0.000000,-0.452992,-0.140986,-0.000000
1.220000,-2.230444,-0.193904,-1.508813,1.443300,-0.241269,0.007269,2.378721,-1.774866,0.563495,0.618408,-3.718056,3.247452,-1.046677,25.460056,15.357399,-0.183799,-0.251796,0.000000,-0.432707,-0.144987,-0.000000
1.230000,-2.215892,-0.196406,-1.508711,1.467118,-0.259200,0.013069,2.384839,-1.810749,0.596742,0.603650,-3.456008,3.402290,-1.917343,26.944807,15.595370,-0.188019,-0.253289,0.000000,-0.411088,-0.148330,0.000000
1.240000,-2.201102,-0.199089,-1.508550,1.490996,-0.277475,0.019209,2.390764,-1.843937,0.631548,0.579822,-3.179261,3.559046,-2.859751,28.399158,15.739455,-0.192016,-0.254814,0.000000,-0.388129,-0.150918,0.000000
1.250000,-2.186072,-0.201956,-1.508326,1.514932,-0.296069,0.025705,2.396403,-1.874286,0.667926,0.546231,-2.888141,3.716737,-3.869455,29.818861,15.781003,-0.195777,-0.256361,0.000000,-0.363820,-0.152652,0.000000
1.260000,-2.170803,-0.205011,-1.508035,1.538923,-0.314951,0.032573,2.401665,-1.901659,0.705889,0.503234,-2.583517,3.874991,-4.967526,31.212378,15.693809,-0.199289,-0.257924,0.000000,-0.338210,-0.153555,0.000000
1.270000,-2.155294,-0.208256,-1.507673,1.562964,-0.334091,0.039828,2.406430,-1.925911,0.745421,0.447835,-2.264609,4.031005,-6.120872,32.561203,15.488924,-0.202537,-0.259491,0.000000,-0.311138,-0.153239,0.000000
1.280000,-2.139544,-0.211694,-1.507237,1.587049,-0.353458,0.047486,2.410582,-1.946907,0.786501,0.380658,-1.932461,4.184355,-7.321924,33.859535,15.159847,-0.205507,-0.261049,0.000000,-0.282652,-0.151741,0.000000
1.290000,-2.123553,-0.215326,-1.506722,1.611173,-0.373018,0.055563,2.414002,-1.964518,0.829095,0.301263,-1.587606,4.333766,-8.563109,35.101573,14.700075,-0.208185,-0.262586,0.000000,-0.252730,-0.148964,-0.000000
1.300000,-2.107320,-0.219155,-1.506124,1.635326,-0.392737,0.064073,2.416566,-1.978619,0.873158,0.209287,-1.230637,4.477899,-9.836855,36.281518,14.103107,-0.210557,-0.264089,0.000000,-0.221350,-0.144810,0.000000
1.310000,-2.090846,-0.223181,-1.505439,1.659501,-0.412578,0.073030,2.418153,-1.989097,0.918646,0.105133,-0.862598,4.616778,-11.153033,37.403564,13.326349,-0.212608,-0.265544,0.000000,-0.188552,-0.139292,0.000000
1.320000,-2.074130,-0.227407,-1.504662,1.683685,-0.432506,0.082450,2.418624,-1.995835,0.965466,-0.013046,-0.483261,4.745551,-12.484493,38.450691,12.403810,-0.214323,-0.266934,0.000000,-0.154146,-0.132052,-0.000000
1.330000,-2.057172,-0.231831,-1.503788,1.707869,-0.452482,0.092344,2.417847,-1.998728,1.013524,-0.144575,-0.093857,4.864362,-13.821527,39.415873,11.333408,-0.215685,-0.268241,0.000000,-0.118182,-0.123119,-0.000000
1.340000,-2.039973,-0.236456,-1.502813,1.732038,-0.472468,0.102724,2.415688,-1.997681,1.062715,-0.289463,0.304760,4.971720,-15.154428,40.292087,10.113058,-0.216681,-0.269448,0.000000,-0.080632,-0.112403,-0.000000
1.350000,-2.022532,-0.241281,-1.501732,1.756178,-0.492423,0.113602,2.412014,-1.992605,1.112915,-0.447618,0.711665,5.066116,-16.473489,41.072308,8.740679,-0.217293,-0.270537,0.000000,-0.041473,-0.099817,-0.000000
1.360000,-2.004849,-0.246304,-1.500540,1.780272,-0.512306,0.124985,2.406696,-1.983424,1.164011,-0.618465,1.125789,5.148104,-17.778829,41.751366,7.161529,-0.217505,-0.271487,0.000000,-0.000736,-0.085377,0.000000
1.370000,-1.986926,-0.251526,-1.499231,1.804305,-0.532077,0.136883,2.399601,-1.970069,1.215822,-0.802641,1.546241,5.211198,-19.049709,42.320155,5.432633,-0.217302,-0.272278,0.000000,0.041719,-0.068765,-0.000000
1.380000,-1.968764,-0.256945,-1.497800,1.828258,-0.551693,0.149303,2.390602,-1.952482,1.268175,-0.999308,1.971800,5.256272,-20.275219,42.771422,3.558354,-0.216666,-0.272888,0.000000,0.085842,-0.050021,-0.000000
1.390000,-1.950362,-0.262560,-1.496243,1.852111,-0.571112,0.162248,2.379575,-1.930620,1.320883,-1.207958,2.401254,5.281895,-21.444449,43.097915,1.543058,-0.215580,-0.273295,0.000000,0.131630,-0.029084,-0.000000
1.400000,-1.931722,-0.268367,-1.494554,1.875842,-0.590291,0.175721,2.366405,-1.904448,1.373744,-1.427973,2.833319,5.286678,-22.546487,43.292384,-0.608890,-0.214027,-0.273476,0.000000,0.179069,-0.005902,-0.000000
1.410000,-1.912845,-0.274365,-1.492727,1.899431,-0.609187,0.189722,2.350978,-1.873943,1.426569,-1.658846,3.267229,5.271694,-23.564888,43.332643,-2.954198,-0.211993,-0.273409,0.000000,0.228137,0.019514,0.000000
1.420000,-1.893734,-0.280550,-1.490757,1.922854,-0.627756,0.204251,2.333195,-1.839105,1.479097,-1.899223,3.700156,5.229919,-24.494953,43.228202,-5.419950,-0.209459,-0.273069,0.000000,0.278765,0.047305,-0.000000
1.430000,-1.874389,-0.286918,-1.488640,1.946087,-0.645955,0.219302,2.312964,-1.799946,1.531083,-2.148417,4.131292,5.162933,-25.326449,42.973638,-7.994302,-0.206412,-0.272434,0.000000,0.330890,0.077423,0.000000
1.440000,-1.854813,-0.293467,-1.486370,1.969105,-0.663741,0.234870,2.290201,-1.756490,1.582268,-2.405390,4.559110,5.069711,-26.049142,42.563526,-10.665411,-0.202837,-0.271479,0.000000,0.384415,0.109850,-0.000000
1.450000,-1.835007,-0.300192,-1.483941,1.991882,-0.681070,0.250944,2.264834,-1.708780,1.632387,-2.669003,4.982026,4.949342,-26.652799,41.992443,-13.421434,-0.198720,-0.270183,0.000000,0.439211,0.144546,-0.000000
1.460000,-1.814976,-0.307087,-1.481349,2.014393,-0.697903,0.267512,2.236791,-1.656856,1.681185,-2.939108,5.399866,4.803152,-27.099566,41.218034,-16.303907,-0.194048,-0.268523,0.000000,0.495233,0.181498,0.000000
1.470000,-1.794721,-0.314148,-1.478589,2.036610,-0.714194,0.284562,2.206039,-1.600811,1.728353,-3.211773,5.807478,4.625465,-27.410213,40.276330,-19.241071,-0.188812,-0.266477,0.000000,0.552005,0.220470,0.000000
1.480000,-1.774245,-0.321369,-1.475656,2.058505,-0.729905,0.302073,2.172548,-1.540740,1.773596,-3.486836,6.204832,4.418209,-27.577888,39.166430,-22.214545,-0.183006,-0.264027,0.000000,0.609410,0.261389,0.000000
1.490000,-1.753552,-0.328744,-1.472546,2.080051,-0.744996,0.320026,2.136300,-1.476754,1.816617,-3.762832,6.590243,4.181114,-27.595739,37.887432,-25.205951,-0.176623,-0.261155,0.000000,0.667160,0.304080,-0.000000
1.500000,-1.732645,-0.336267,-1.469254,2.101222,-0.759428,0.338397,2.097293,-1.408981,1.857118,-4.038228,6.962014,3.914092,-27.456916,36.438437,-28.196908,-0.169662,-0.257845,0.000000,0.724917,0.348328,0.000000
1.510000,-1.711529,-0.343930,-1.465777,2.121989,-0.773164,0.357159,2.055520,-1.337541,1.894810,-4.313471,7.320648,3.618178,-27.102894,34.762817,-31.192750,-0.162123,-0.254081,0.000000,0.782532,0.394084,0.000000
1.520000,-1.690207,-0.351728,-1.462110,2.142324,-0.786168,0.376282,2.011038,-1.262626,1.929383,-4.582046,7.659208,3.291429,-26.584822,32.922221,-34.148479,-0.154015,-0.249855,0.000000,0.839003,0.440541,-0.000000
1.530000,-1.668684,-0.359651,-1.458250,2.162201,-0.798406,0.395735,1.963899,-1.184421,1.960541,-4.844619,7.978563,2.935413,-25.902177,30.922571,-37.042814,-0.145348,-0.245163,0.000000,0.894107,0.487584,0.000000
1.540000,-1.646964,-0.367693,-1.454194,2.181593,-0.809846,0.415481,1.914171,-1.103124,1.987996,-5.099540,8.277149,2.550848,-25.054436,28.769789,-39.854471,-0.136139,-0.240000,0.000000,0.947313,0.534821,-0.000000
1.550000,-1.625053,-0.375845,-1.449940,2.200476,-0.820459,0.435482,1.861939,-1.018952,2.011466,-5.345155,8.553468,2.138670,-24.041073,26.469797,-42.562167,-0.126410,-0.234368,0.000000,0.998051,0.581817,-0.000000
1.560000,-1.602956,-0.384099,-1.445484,2.218825,-0.830217,0.455696,1.807277,-0.932110,2.030672,-5.582374,8.808310,1.699193,-22.796730,23.972061,-45.123670,-0.116185,-0.228269,0.000000,1.046004,0.628434,-0.000000
1.570000,-1.580679,-0.392447,-1.440825,2.236615,-0.839094,0.476080,1.750336,-0.842871,2.045367,-5.803455,9.035001,1.235741,-21.393657,21.345873,-47.541210,-0.105502,-0.221718,0.000000,1.089886,0.673371,0.000000
1.580000,-1.558226,-0.400878,-1.435962,2.253824,-0.847067,0.496588,1.691257,-0.751499,2.055309,-6.009743,9.234842,0.748911,-19.839271,18.604070,-49.796069,-0.094402,-0.214732,0.000000,1.129391,0.716482,0.000000
1.590000,-1.535604,-0.409385,-1.430893,2.270433,-0.854117,0.517170,1.630196,-0.658268,2.060273,-6.199761,9.406740,0.240424,-18.140986,15.759486,-51.869528,-0.082931,-0.207332,0.000000,1.163913,0.757237,0.000000
1.600000,-1.512820,-0.417957,-1.425619,2.286422,-0.860227,0.537776,1.567321,-0.563461,2.060051,-6.372108,9.549732,-0.287812,-16.306219,12.824957,-53.742871,-0.071142,-0.199545,0.000000,1.192881,0.795105,-0.000000
1.610000,-1.489878,-0.426586,-1.420138,2.301775,-0.865383,0.558354,1.502792,-0.467358,2.054430,-6.527738,9.664342,-0.836213,-14.284725,9.778979,-55.334001,-0.059092,-0.191397,0.000000,1.215954,0.829910,-0.000000
1.620000,-1.466786,-0.435262,-1.414452,2.316474,-0.869572,0.578847,1.436835,-0.370277,2.043278,-6.659994,9.746644,-1.396556,-12.148639,6.672931,-56.695337,-0.046845,-0.182931,0.000000,1.232237,0.860347,-0.000000
1.630000,-1.443551,-0.443974,-1.408561,2.330507,-0.872786,0.599200,1.369665,-0.272529,2.026458,-6.770377,9.797657,-1.969317,-9.912438,3.523856,-57.815923,-0.034470,-0.174186,0.000000,1.241585,0.886365,-0.000000
1.640000,-1.420178,-0.452714,-1.402468,2.343864,-0.875021,0.619357,1.301504,-0.174429,2.003858,-6.857958,9.817035,-2.552035,-7.590598,0.348794,-58.684800,-0.022037,-0.165209,0.000000,1.243746,0.907586,-0.000000
1.650000,-1.396676,-0.461472,-1.396175,2.356535,-0.876275,0.639258,1.232584,-0.076294,1.975392,-6.921952,9.804603,-3.142138,-5.197595,-2.835215,-59.291011,-0.009619,-0.156047,0.000000,1.238588,0.923700,-0.000000
1.660000,-1.373050,-0.470237,-1.389684,2.368514,-0.876548,0.658846,1.163132,0.021558,1.940961,-6.963008,9.760451,-3.740552,-2.715397,-6.013490,-59.532457,0.002710,-0.146749,0.000000,1.226107,0.934698,-0.000000
1.670000,-1.349308,-0.478999,-1.382999,2.379797,-0.875845,0.678059,1.093408,0.118809,1.900578,-6.977584,9.684523,-4.335944,-0.194969,-9.166341,-59.500482,0.014879,-0.137371,0.000000,1.206403,0.939902,0.000000
1.680000,-1.325456,-0.487750,-1.376125,2.390382,-0.874175,0.696838,1.023664,0.215144,1.854247,-6.966841,9.577266,-4.929651,2.345235,-12.276439,-59.195287,0.026815,-0.127967,0.000000,1.179749,0.939528,-0.000000
1.690000,-1.301502,-0.496480,-1.369064,2.400271,-0.871547,0.715124,0.954156,0.310252,1.802000,-6.930675,9.439195,-5.518940,4.886755,-15.326454,-58.617077,0.038452,-0.118591,0.000000,1.146514,0.933630,-0.000000
1.700000,-1.277453,-0.505178,-1.361824,2.409467,-0.867975,0.732858,0.885135,0.403827,1.743892,-6.869163,9.270995,-6.101083,7.411138,-18.299056,-57.766052,0.049725,-0.109298,0.000000,1.107177,0.922348,-0.000000
1.710000,-1.253315,-0.513836,-1.354409,2.417976,-0.863476,0.749984,0.816859,0.495562,1.679971,-6.782285,9.072406,-6.677022,9.892709,-21.148554,-56.549722,0.060575,-0.100138,0.000000,1.062137,0.905917,0.000000
1.720000,-1.229096,-0.522444,-1.346826,2.425808,-0.858070,0.766440,0.749572,0.585182,1.610397,-6.671164,8.847120,-7.235345,12.321112,-23.889454,-55.072333,0.070952,-0.091162,0.000000,1.012424,0.884619,0.000000
1.730000,-1.204801,-0.530994,-1.339083,2.432972,-0.851780,0.782173,0.683516,0.672415,1.535318,-6.536098,8.595025,-7.777637,14.678774,-26.507899,-53.345438,0.080810,-0.082416,0.000000,0.958544,0.858841,-0.000000
1.740000,-1.180439,-0.539477,-1.331186,2.439483,-0.844631,0.797129,0.618927,0.756998,1.454906,-6.377883,8.317416,-8.301461,16.948124,-28.990032,-51.380591,0.090111,-0.073943,0.000000,0.901209,0.829010,-0.000000
1.750000,-1.156014,-0.547884,-1.323143,2.445356,-0.836650,0.811254,0.556032,0.838683,1.369358,-6.197489,8.015725,-8.804494,19.111586,-31.321998,-49.189345,0.098825,-0.065781,0.000000,0.841136,0.795589,0.000000
1.760000,-1.131534,-0.556208,-1.314963,2.450609,-0.827867,0.824500,0.495068,0.917215,1.278865,-5.994183,7.689520,-9.287088,21.104115,-33.439338,-46.718679,0.106924,-0.057966,0.000000,0.778772,0.758868,-0.000000
1.770000,-1.107004,-0.564439,-1.306656,2.455264,-0.818316,0.836817,0.436213,0.992406,1.183702,-5.773738,7.345252,-9.741099,22.961425,-35.384993,-44.052625,0.114396,-0.050525,0.000000,0.715428,0.719832,-0.000000
1.780000,-1.082430,-0.572571,-1.298230,2.459341,-0.808031,0.848160,0.379652,1.064059,1.084135,-5.535445,6.982418,-10.167554,24.671757,-37.151303,-41.210645,0.121230,-0.043481,0.000000,0.651441,0.678756,0.000000
1.790000,-1.057819,-0.580597,-1.289696,2.462865,-0.797047,0.858486,0.325558,1.131998,0.980448,-5.280832,6.602849,-10.564791,26.223351,-38.730607,-38.212198,0.127424,-0.036855,0.000000,0.587395,0.636132,-0.000000
1.800000,-1.033175,-0.588510,-1.281064,2.465861,-0.785404,0.867756,0.274085,1.196066,0.872941,-5.011546,6.208455,-10.931341,27.604449,-40.115244,-35.076742,0.132980,-0.030659,0.000000,0.523819,0.592433,-0.000000
1.810000,-1.008503,-0.596303,-1.272345,2.468355,-0.773139,0.875933,0.225400,1.256099,0.761919,-4.726620,5.798923,-11.266738,28.734328,-41.239566,-31.803412,0.137901,-0.024906,0.000000,0.460924,0.547815,-0.000000
1.820000,-0.983809,-0.603971,-1.263549,2.470378,-0.760295,0.882984,0.179587,1.312011,0.647717,-4.434399,5.381751,-11.567998,29.678635,-42.161000,-28.434482,0.142203,-0.019598,0.000000,0.399741,0.503403,0.000000
1.830000,-0.959097,-0.611507,-1.254689,2.471957,-0.746912,0.888878,0.136740,1.363707,0.530673,-4.133677,4.956381,-11.835183,30.434056,-42.878988,-24.991903,0.145902,-0.014735,0.000000,0.340310,0.459234,-0.000000
1.840000,-0.934371,-0.618908,-1.245776,2.473123,-0.733035,0.893589,0.096935,1.411118,0.411129,-3.826359,4.524851,-12.067664,30.997275,-43.392969,-21.497622,0.149016,-0.010313,0.000000,0.282916,0.415648,-0.000000
1.850000,-0.909636,-0.626167,-1.236821,2.473906,-0.718705,0.897093,0.060229,1.454190,0.289436,-3.514383,4.089204,-12.265036,31.364977,-43.702383,-17.973589,0.151568,-0.006326,0.000000,0.227786,0.372946,-0.000000
1.860000,-0.884895,-0.633280,-1.227838,2.474337,-0.703965,0.899371,0.026686,1.492873,0.165956,-3.197052,3.649494,-12.426171,31.466418,-43.756335,-14.465472,0.153578,-0.002767,0.000000,0.174917,0.331124,0.000000
1.870000,-0.860150,-0.640245,-1.218838,2.474449,-0.688861,0.900407,-0.003712,1.527182,0.041030,-2.882691,3.212495,-12.553324,31.373969,-43.610765,-10.968595,0.155075,0.000380,0.000000,0.124890,0.291063,0.000000
1.880000,-0.835406,-0.647056,-1.209834,2.474273,-0.673436,0.900188,-0.030975,1.557131,-0.084994,-2.570203,2.777925,-12.645644,31.092571,-43.271274,-7.502005,0.156085,0.003130,0.000000,0.077582,0.252636,-0.000000
1.890000,-0.810666,-0.653713,-1.200838,2.473840,-0.657733,0.898705,-0.055129,1.582755,-0.211768,-2.261453,2.347697,-12.703528,30.627166,-42.743466,-4.084743,0.156636,0.005501,0.000000,0.033052,0.215997,-0.000000
1.900000,-0.785930,-0.660210,-1.191864,2.473181,-0.641795,0.895952,-0.076222,1.604106,-0.338952,-1.958256,1.923665,-12.727566,29.982696,-42.032946,-0.735856,0.156755,0.007510,0.000000,-0.008672,0.181273,0.000000
1.910000,-0.761203,-0.666548,-1.182924,2.472325,-0.625664,0.891925,-0.094298,1.621241,-0.466186,-1.660485,1.506357,-12.716346,29.116252,-41.113198,2.470273,0.156471,0.009176,0.000000,-0.047672,0.148383,-0.000000
1.920000,-0.736484,-0.672723,-1.174030,2.471304,-0.609383,0.886628,-0.109463,1.634266,-0.593173,-1.374340,1.100526,-12.676023,28.086485,-40.025876,5.576715,0.155811,0.010522,0.000000,-0.083752,0.117829,-0.000000
1.930000,-0.711777,-0.678735,-1.165195,2.470145,-0.592992,0.880063,-0.121822,1.643290,-0.719604,-1.099264,0.706366,-12.605185,26.904195,-38.780518,8.571202,0.154805,0.011569,0.000000,-0.117048,0.089453,0.000000
1.940000,-0.687082,-0.684583,-1.156433,2.468876,-0.576531,0.872239,-0.131491,1.648438,-0.845179,-0.836728,0.325411,-12.505013,25.580184,-37.386659,11.441465,0.153479,0.012340,0.000000,-0.147605,0.063282,0.000000
1.950000,-0.662400,-0.690266,-1.147755,2.467524,-0.560036,0.863164,-0.138603,1.649848,-0.969611,-0.588096,-0.040904,-12.376810,24.125251,-35.853837,14.175237,0.151862,0.012857,0.000000,-0.175478,0.039329,0.000000
1.960000,-0.637732,-0.695783,-1.139174,2.466112,-0.543545,0.852850,-0.143292,1.647668,-1.092598,-0.353654,-0.391702,-12.219332,22.525699,-34.179794,16.692773,0.149978,0.013142,0.000000,-0.200739,0.017505,0.000000
1.970000,-0.613078,-0.701137,-1.130702,2.464665,-0.527094,0.841316,-0.145731,1.642071,-1.213916,-0.136843,-0.724631,-12.040452,20.819827,-32.387304,19.057543,0.147855,0.013219,0.000000,-0.223443,-0.002003,-0.000000
1.980000,-0.588438,-0.706326,-1.122351,2.463204,-0.510715,0.828578,-0.146088,1.633237,-1.333331,0.062435,-1.039090,-11.838704,19.021435,-30.487348,21.265542,0.145518,0.013109,0.000000,-0.243668,-0.019321,0.000000
1.990000,-0.563814,-0.711351,-1.114134,2.461750,-0.494439,0.814657,-0.144543,1.621354,-1.450619,0.243323,-1.334057,-11.615677,17.144324,-28.490906,23.312764,0.142990,0.012835,0.000000,-0.261489,-0.034488,0.000000
2.000000,-0.539203,-0.716215,-1.106062,2.460319,-0.478297,0.799574,-0.141285,1.606624,-1.565579,0.405105,-1.608623,-11.372998,15.202293,-26.408958,25.195203,0.140296,0.012419,0.000000,-0.276982,-0.047550,0.000000
2.010000,-0.514607,-0.720918,-1.098146,2.458929,-0.462316,0.783353,-0.136511,1.589256,-1.677993,0.546792,-1.861690,-11.109884,13.219414,-24.259988,26.846927,0.137458,0.011882,0.000000,-0.290172,-0.058523,-0.000000
2.020000,-0.490025,-0.725462,-1.090399,2.457593,-0.446520,0.766022,-0.130416,1.569463,-1.787724,0.668906,-2.093273,-10.833846,11.197960,-22.046555,28.333440,0.134500,0.011244,0.000000,-0.301262,-0.067556,-0.000000
2.030000,-0.465455,-0.729849,-1.082830,2.456325,-0.430934,0.747608,-0.123201,1.547465,-1.894623,0.770664,-2.302440,-10.543754,9.150472,-19.778721,29.658318,0.131440,0.010525,0.000000,-0.310264,-0.074667,-0.000000
2.040000,-0.440898,-0.734081,-1.075450,2.455132,-0.415578,0.728140,-0.115071,1.523490,-1.998558,0.851870,-2.488699,-10.241206,7.089493,-17.466546,30.825139,0.128301,0.009744,0.000000,-0.317249,-0.079921,-0.000000
2.050000,-0.416352,-0.738161,-1.068270,2.454025,-0.400470,0.707647,-0.106232,1.497769,-2.099411,0.912451,-2.651657,-9.927766,5.027567,-15.120093,31.837479,0.125102,0.008920,0.000000,-0.322285,-0.083388,0.000000
2.060000,-0.391817,-0.742091,-1.061300,2.453010,-0.385627,0.686161,-0.096900,1.470542,-2.197063,0.951654,-2.790446,-9.603251,2.997603,-12.763932,32.655766,0.121862,0.008070,0.000000,-0.325379,-0.085071,-0.000000
2.070000,-0.367292,-0.745875,-1.054550,2.452089,-0.371063,0.663716,-0.087267,1.442039,-2.291451,0.971566,-2.906235,-9.273198,0.989283,-10.391839,33.332011,0.118600,0.007211,0.000000,-0.326747,-0.085204,0.000000
2.080000,-0.342775,-0.749514,-1.048029,2.451265,-0.356790,0.640343,-0.077535,1.412497,-2.382507,0.971545,-2.998257,-8.937055,-0.987344,-8.012100,33.875072,0.115333,0.006359,0.000000,-0.326378,-0.083781,0.000000
2.090000,-0.318266,-0.753011,-1.041746,2.450538,-0.342816,0.616077,-0.067901,1.382153,-2.470176,0.951958,-3.066479,-8.596111,-2.922229,-5.633000,34.293811,0.112078,0.005529,0.000000,-0.324332,-0.080877,-0.000000
2.100000,-0.293764,-0.756371,-1.035710,2.449906,-0.329149,0.590951,-0.058559,1.351246,-2.554417,0.913273,-3.110947,-8.251564,-4.805323,-3.262825,34.597088,0.108852,0.004736,0.000000,-0.320665,-0.076566,-0.000000
2.110000,-0.269268,-0.759596,-1.029930,2.449365,-0.315793,0.565000,-0.049710,1.320019,-2.635190,0.854931,-3.131189,-7.903717,-6.598099,-0.925105,34.773383,0.105671,0.003994,0.000000,-0.315379,-0.070834,0.000000
2.120000,-0.244776,-0.762688,-1.024413,2.448910,-0.302749,0.538259,-0.041519,1.288700,-2.712487,0.780268,-3.128847,-7.555504,-8.322473,1.388987,34.854433,0.102549,0.003316,0.000000,-0.308658,-0.063971,-0.000000
2.130000,-0.220289,-0.765652,-1.019167,2.448532,-0.290018,0.510762,-0.034160,1.257519,-2.786299,0.688731,-3.103509,-7.206908,-9.971884,3.673033,34.851593,0.099502,0.002712,0.000000,-0.300490,-0.055950,-0.000000
2.140000,-0.195805,-0.768489,-1.014200,2.448223,-0.277597,0.482545,-0.027798,1.226705,-2.856627,0.581102,-3.055508,-6.858714,-11.539768,5.920615,34.776221,0.096544,0.002195,0.000000,-0.290926,-0.046846,0.000000
2.150000,-0.171324,-0.771204,-1.009519,2.447972,-0.265482,0.453641,-0.022589,1.196483,-2.923477,0.458229,-2.985240,-6.511588,-13.019565,8.125316,34.639671,0.093688,0.001774,0.000000,-0.280012,-0.036731,0.000000
2.160000,-0.146846,-0.773800,-1.005130,2.447768,-0.253665,0.424087,-0.018697,1.167078,-2.986864,0.319597,-2.892715,-6.166124,-14.368600,10.269316,34.454249,0.090949,0.001461,0.000000,-0.267762,-0.025572,-0.000000
2.170000,-0.122369,-0.776279,-1.001039,2.447594,-0.242137,0.393915,-0.016241,1.138699,-3.046806,0.169568,-2.779526,-5.822674,-15.620845,12.358995,34.230246,0.088337,0.001263,0.000000,-0.254306,-0.013707,0.000000
2.180000,-0.097894,-0.778644,-0.997253,2.447437,-0.230887,0.363162,-0.015346,1.111556,-3.103326,0.007509,-2.645733,-5.481610,-16.774161,14.389328,33.978902,0.085867,0.001188,0.000000,-0.239648,-0.001082,-0.000000
2.190000,-0.073420,-0.780897,-0.993778,2.447282,-0.219901,0.331860,-0.016127,1.085851,-3.156447,-0.165579,-2.491954,-5.143149,-17.826407,16.355295,33.711458,0.083548,0.001244,0.000000,-0.223833,0.012234,0.000000
2.200000,-0.048948,-0.783043,-0.990618,2.447109,-0.209165,0.300044,-0.018691,1.061782,-3.206198,-0.348675,-2.318858,-4.807397,-18.775445,18.251871,33.439154,0.081394,0.001436,0.000000,-0.206906,0.026170,0.000000
2.210000,-0.024478,-0.785081,-0.987778,2.446902,-0.198660,0.267748,-0.023140,1.039536,-3.252612,-0.541561,-2.127151,-4.475109,-19.598299,20.073705,33.192527,0.079414,0.001771,0.000000,-0.188915,0.040723,0.000000
2.220000,-0.000010,-0.787016,-0.985264,2.446640,-0.188367,0.235003,-0.029547,1.019298,-3.295708,-0.741221,-1.917634,-4.144357,-20.316216,21.816145,32.961158,0.077619,0.002255,0.000000,-0.169897,0.055676,0.000000
2.230000,0.024454,-0.788849,-0.983080,2.446304,-0.178266,0.201844,-0.037986,1.001240,-3.335507,-0.947537,-1.691110,-3.815806,-20.929606,23.474210,32.753923,0.076019,0.002890,0.000000,-0.149900,0.071036,0.000000
2.240000,0.048915,-0.790582,-0.981229,2.445873,-0.168335,0.168304,-0.048517,0.985530,-3.372030,-1.159466,-1.448447,-3.489169,-21.438883,25.042917,32.579698,0.074624,0.003681,0.000000,-0.128972,0.086741,-0.000000
2.250000,0.073371,-0.792217,-0.979715,2.445327,-0.158547,0.134415,-0.061191,0.972322,-3.405295,-1.375969,-1.190566,-3.164072,-21.844456,26.517286,32.447362,0.073442,0.004630,0.000000,-0.107160,0.102731,-0.000000
2.260000,0.097821,-0.793754,-0.978541,2.444642,-0.148879,0.100209,-0.076055,0.961764,-3.435329,-1.596613,-0.918636,-2.841289,-22.131529,27.897474,32.397023,0.072483,0.005742,0.000000,-0.084534,0.118993,-0.000000
2.270000,0.122264,-0.795194,-0.977712,2.443798,-0.139303,0.065719,-0.093131,0.953994,-3.462122,-1.818942,-0.633196,-2.517340,-22.317584,29.172730,32.402501,0.071754,0.007017,0.000000,-0.061093,0.135363,-0.000000
2.280000,0.146697,-0.796540,-0.977228,2.442772,-0.129790,0.030978,-0.112438,0.949140,-3.485674,-2.042636,-0.335550,-2.193036,-22.404894,30.337443,32.468850,0.071264,0.008457,0.000000,-0.036915,0.151839,-0.000000
2.290000,0.171119,-0.797790,-0.977093,2.441542,-0.120310,-0.003983,-0.133985,0.947320,-3.505979,-2.266718,-0.026834,-1.867743,-22.395735,31.386001,32.601122,0.071018,0.010062,0.000000,-0.012053,0.168372,0.000000
2.300000,0.195527,-0.798946,-0.977308,2.440085,-0.110833,-0.039131,-0.157771,0.948637,-3.523024,-2.490236,0.291764,-1.540777,-22.292380,32.312793,32.804371,0.071025,0.011833,0.000000,0.013436,0.184911,0.000000
2.310000,0.219919,-0.800007,-0.977876,2.438379,-0.101326,-0.074432,-0.183787,0.953182,-3.536804,-2.712478,0.618795,-1.212954,-22.091571,33.117311,33.122834,0.071289,0.013769,0.000000,0.039469,0.201428,-0.000000
2.320000,0.244294,-0.800972,-0.978797,2.436402,-0.091758,-0.109856,-0.212012,0.961037,-3.547271,-2.932018,0.953437,-0.879815,-21.801791,33.788216,33.517581,0.071816,0.015871,0.000000,0.066041,0.217844,0.000000
2.330000,0.268646,-0.801842,-0.980073,2.434132,-0.082094,-0.145367,-0.242416,0.972270,-3.554386,-3.148228,1.294093,-0.542347,-21.425991,34.319271,33.988865,0.072611,0.018137,0.000000,0.093062,0.234137,0.000000
2.340000,0.292975,-0.802614,-0.981705,2.431547,-0.072301,-0.180932,-0.274963,0.986934,-3.558101,-3.360261,1.639335,-0.199782,-20.967122,34.704240,34.536940,0.073678,0.020566,0.000000,0.120464,0.250270,0.000000
2.350000,0.317276,-0.803287,-0.983692,2.428626,-0.062344,-0.216517,-0.309605,1.005067,-3.558362,-3.567303,1.987671,0.148649,-20.428134,34.936887,35.162063,0.075021,0.023155,0.000000,0.148179,0.266210,-0.000000
2.360000,0.341546,-0.803860,-0.986035,2.425348,-0.052188,-0.252087,-0.346289,1.026694,-3.555125,-3.768525,2.337626,0.501934,-19.813028,35.008931,35.909507,0.076643,0.025904,0.000000,0.176129,0.281920,0.000000
2.370000,0.365782,-0.804330,-0.988734,2.421693,-0.041799,-0.287607,-0.384954,1.051820,-3.548297,-3.963269,2.687392,0.865069,-19.123578,34.916432,36.728994,0.078544,0.028810,0.000000,0.204249,0.297388,-0.000000
2.380000,0.389979,-0.804695,-0.991787,2.417642,-0.031140,-0.323041,-0.425530,1.080436,-3.537795,-4.150758,3.035386,1.236737,-18.362606,34.653402,37.615264,0.080728,0.031869,0.000000,0.232458,0.312583,-0.000000
2.390000,0.414133,-0.804952,-0.995194,2.413176,-0.020178,-0.358350,-0.467942,1.112516,-3.523532,-4.330292,3.379872,1.617579,-17.532935,34.213856,38.563060,0.083194,0.035081,0.000000,0.260673,0.327483,0.000000
2.400000,0.438241,-0.805098,-0.998953,2.408278,-0.008878,-0.393498,-0.512107,1.148015,-3.505411,-4.501197,3.719055,2.008186,-16.637388,33.591809,39.567122,0.085941,0.038441,0.000000,0.288810,0.342070,-0.000000
2.410000,0.462297,-0.805128,-1.003063,2.402929,0.002793,-0.428445,-0.557934,1.186880,-3.483354,-4.662672,4.051751,2.407226,-15.682778,32.764323,40.669321,0.088970,0.041946,0.000000,0.316820,0.356307,-0.000000
2.420000,0.486298,-0.805040,-1.007521,2.397114,0.014870,-0.463151,-0.605328,1.229020,-3.457229,-4.814472,4.374456,2.819601,-14.667447,31.744439,41.811499,0.092277,0.045594,0.000000,0.344523,0.370225,-0.000000
2.430000,0.510238,-0.804830,-1.012325,2.390817,0.027384,-0.497576,-0.654188,1.274332,-3.426923,-4.955826,4.685985,3.243553,-13.593731,30.528248,42.982627,0.095859,0.049381,0.000000,0.371868,0.383792,-0.000000
2.440000,0.534113,-0.804491,-1.017472,2.384025,0.040367,-0.531675,-0.704408,1.322696,-3.392319,-5.086160,4.984354,3.679314,-12.463963,29.111837,44.171675,0.099713,0.053304,0.000000,0.398760,0.396999,-0.000000
2.450000,0.557917,-0.804021,-1.022958,2.376725,0.053848,-0.565407,-0.755873,1.373968,-3.353297,-5.204926,5.267541,4.127009,-11.280477,27.491298,45.367614,0.103832,0.057360,0.000000,0.425100,0.409838,0.000000
2.460000,0.581646,-0.803412,-1.028779,2.368904,0.067855,-0.598726,-0.808465,1.428006,-3.309756,-5.311512,5.535057,4.585023,-10.047798,25.623041,46.600552,0.108213,0.061544,0.000000,0.450890,0.422286,0.000000
2.470000,0.605293,-0.802662,-1.034931,2.360552,0.082416,-0.631586,-0.862061,1.484604,-3.261556,-5.405620,5.781083,5.057116,-8.765800,23.547693,47.813286,0.112847,0.065854,0.000000,0.475773,0.434373,0.000000
2.480000,0.628855,-0.801762,-1.041409,2.351660,0.097555,-0.663941,-0.916534,1.543555,-3.208574,-5.486670,6.005324,5.541168,-7.436550,21.266203,48.989747,0.117726,0.070286,0.000000,0.499760,0.446079,-0.000000
2.490000,0.652325,-0.800708,-1.048208,2.342219,0.113294,-0.695741,-0.971749,1.604631,-3.150694,-5.554200,6.205723,6.036737,-6.062113,18.779519,50.113870,0.122839,0.074837,0.000000,0.522741,0.457400,-0.000000
2.500000,0.675697,-0.799494,-1.055321,2.332223,0.129654,-0.726938,-1.027571,1.667583,-3.087803,-5.607769,6.380234,6.543218,-4.644554,16.088590,51.169589,0.128177,0.079502,0.000000,0.544603,0.468332,0.000000
2.510000,0.698967,-0.798113,-1.062744,2.321666,0.146650,-0.757480,-1.083858,1.732170,-3.019805,-5.647069,6.529319,7.058958,-3.183036,13.131172,52.163294,0.133729,0.084280,0.000000,0.565407,0.478871,-0.000000
2.520000,0.722129,-0.796559,-1.070469,2.310545,0.164300,-0.787317,-1.140463,1.798068,-2.946592,-5.671430,6.645029,7.585137,-1.682883,9.979143,53.053710,0.139480,0.089165,0.000000,0.584598,0.489005,-0.000000
2.530000,0.745176,-0.794825,-1.078488,2.298856,0.182615,-0.816394,-1.197236,1.864962,-2.868075,-5.680606,6.728282,8.119625,-0.146517,6.641190,53.822022,0.145416,0.094154,0.000000,0.602257,0.498730,0.000000
2.540000,0.768104,-0.792905,-1.086794,2.286600,0.201602,-0.844660,-1.254023,1.932519,-2.784177,-5.674248,6.777262,8.661107,1.423641,3.125998,54.449413,0.151520,0.099245,0.000000,0.618257,0.508038,0.000000
2.550000,0.790906,-0.790791,-1.095378,2.273776,0.221266,-0.872060,-1.310668,2.000387,-2.694835,-5.652029,6.790241,9.208081,3.025169,-0.557746,54.917065,0.157775,0.104432,0.000000,0.632467,0.516916,0.000000
2.560000,0.813578,-0.788477,-1.104232,2.260388,0.241609,-0.898539,-1.367014,2.068232,-2.599997,-5.614013,6.768651,9.759307,4.664878,-4.479046,55.194708,0.164166,0.109712,0.000000,0.644996,0.525383,0.000000
2.570000,0.836112,-0.785956,-1.113346,2.246438,0.262628,-0.924041,-1.422893,2.135627,-2.499642,-5.559059,6.703656,10.311833,6.329985,-8.542012,55.276383,0.170668,0.115081,0.000000,0.655117,0.533340,-0.000000
2.580000,0.858505,-0.783222,-1.122709,2.231932,0.284318,-0.948513,-1.478139,2.202167,-2.393761,-5.487341,6.597399,10.864123,8.016938,-12.728447,55.144675,0.177260,0.120534,0.000000,0.662961,0.540800,0.000000
2.590000,0.880749,-0.780268,-1.132312,2.216878,0.306667,-0.971898,-1.532584,2.267434,-2.282368,-5.398659,6.448736,11.413957,9.722187,-17.020150,54.782170,0.183919,0.126068,0.000000,0.668379,0.547736,0.000000
2.600000,0.902840,-0.777087,-1.142144,2.201284,0.329661,-0.994142,-1.586055,2.330997,-2.165498,-5.292848,6.256705,11.958939,11.442179,-21.398923,54.171455,0.190619,0.131675,0.000000,0.671217,0.554111,-0.000000
2.610000,0.924773,-0.773672,-1.152191,2.185161,0.353279,-1.015191,-1.638389,2.392452,-2.043189,-5.170371,6.023428,12.498767,13.188324,-25.919816,53.237891,0.197337,0.137353,0.000000,0.671584,0.559960,0.000000
2.620000,0.946542,-0.770019,-1.162443,2.168520,0.377501,-1.034989,-1.689405,2.451314,-1.915559,-5.029730,5.741440,13.025332,14.940279,-30.482412,52.028296,0.204041,0.143094,0.000000,0.668672,0.565056,0.000000
2.630000,0.968142,-0.766121,-1.172887,2.151377,0.402296,-1.053485,-1.738926,2.507128,-1.782728,-4.871564,5.413731,13.538378,16.692658,-35.059540,50.532263,0.210700,0.148891,0.000000,0.662607,0.569423,0.000000
2.640000,0.989568,-0.761971,-1.183508,2.133747,0.427632,-1.070627,-1.786778,2.559437,-1.644846,-4.695893,5.040292,14.034988,18.440079,-39.624033,48.739384,0.217282,0.154737,0.000000,0.653208,0.572993,-0.000000
2.650000,1.010815,-0.757566,-1.194295,2.115648,0.453471,-1.086365,-1.832785,2.607783,-1.502093,-4.502796,4.621383,14.512141,20.177158,-44.148723,46.639255,0.223753,0.160624,0.000000,0.640288,0.575689,0.000000
2.660000,1.031879,-0.752900,-1.205231,2.097099,0.479772,-1.100654,-1.876783,2.651732,-1.354634,-4.293070,4.159177,14.970805,21.915378,-48.647779,44.118133,0.230078,0.166544,0.000000,0.623871,0.577540,-0.000000
2.670000,1.052756,-0.747969,-1.216303,2.078120,0.506489,-1.113445,-1.918589,2.690818,-1.202766,-4.065319,3.650604,15.398066,23.630423,-53.047632,41.281599,0.236217,0.172484,0.000000,0.603240,0.578170,-0.000000
2.680000,1.073440,-0.742769,-1.227495,2.058735,0.533571,-1.124696,-1.958033,2.724600,-1.046773,-3.820564,3.098663,15.795393,25.314846,-57.316051,38.131900,0.242129,0.178433,0.000000,0.578420,0.577591,0.000000
2.690000,1.093929,-0.737297,-1.238791,2.038968,0.560962,-1.134368,-1.994945,2.752651,-0.886968,-3.559149,2.504828,16.159667,26.961198,-61.420806,34.671280,0.247771,0.184378,0.000000,0.549188,0.575674,-0.000000
2.700000,1.114218,-0.731549,-1.250177,2.018845,0.588603,-1.142424,-2.029162,2.774563,-0.723700,-3.281492,1.870899,16.487790,28.562029,-65.329665,30.901987,0.253097,0.190304,0.000000,0.515320,0.572277,0.000000
2.710000,1.134305,-0.725524,-1.261634,1.998394,0.616432,-1.148833,-2.060527,2.789935,-0.557287,-2.988551,1.198296,16.781898,30.121672,-68.992726,26.694599,0.258061,0.196196,0.000000,0.476636,0.567384,-0.000000
2.720000,1.154185,-0.719220,-1.273148,1.977644,0.644379,-1.153562,-2.088882,2.798411,-0.388207,-2.679791,0.491117,17.026600,31.619455,-72.397594,22.199152,0.262613,0.202034,0.000000,0.432761,0.560496,0.000000
2.730000,1.173857,-0.712637,-1.284700,1.956627,0.672376,-1.156589,-2.114074,2.799649,-0.216909,-2.356398,-0.248695,17.224983,33.046486,-75.514203,17.434015,0.266699,0.207797,0.000000,0.383504,0.551572,-0.000000
2.740000,1.193317,-0.705773,-1.296274,1.935374,0.700347,-1.157895,-2.135963,2.793338,-0.043870,-2.019126,-1.018106,17.374442,34.393875,-78.312485,12.417559,0.270264,0.213462,0.000000,0.328611,0.540404,-0.000000
2.750000,1.212564,-0.698630,-1.307852,1.913919,0.728216,-1.157463,-2.154413,2.779199,0.130408,-1.668816,-1.813783,17.472557,35.652731,-80.762375,7.168151,0.273251,0.219003,0.000000,0.267829,0.526772,-0.000000
2.760000,1.231595,-0.691209,-1.319417,1.892298,0.755905,-1.155285,-2.169298,2.756948,0.305455,-1.306322,-2.635657,17.522001,36.812275,-82.743769,1.580114,0.275598,0.224394,0.000000,0.200694,0.510547,-0.000000
2.770000,1.250409,-0.683513,-1.330952,1.870545,0.783329,-1.151355,-2.180503,2.726426,0.480659,-0.932840,-3.471353,17.509094,37.865734,-84.327661,-4.188948,0.277244,0.229604,0.000000,0.127462,0.491236,0.000000
2.780000,1.269005,-0.675544,-1.342438,1.848700,0.810406,-1.145674,-2.187922,2.687475,0.655442,-0.549389,-4.320822,17.437731,38.804448,-85.495009,-10.105475,0.278125,0.234597,0.000000,0.047668,0.468688,0.000000
2.790000,1.287383,-0.667306,-1.353860,1.826800,0.837050,-1.138249,-2.191462,2.639978,0.829214,-0.157162,-5.179802,17.306605,39.619757,-86.226772,-16.135909,0.278175,0.239339,0.000000,-0.038899,0.442632,-0.000000
2.800000,1.305541,-0.658804,-1.365198,1.804884,0.863176,-1.129095,-2.191040,2.583862,1.001372,0.242565,-6.043842,17.114745,40.303001,-86.503907,-22.246692,0.277324,0.243791,0.000000,-0.132419,0.412795,-0.000000
2.810000,1.323481,-0.650045,-1.376436,1.782992,0.888700,-1.118230,-2.186580,2.519035,1.171336,0.649307,-6.914266,16.864373,40.823331,-86.156714,-28.476460,0.275497,0.247909,0.000000,-0.233568,0.378894,0.000000
