time,x,y,z,vx,vy,vz,ax,ay,az,jx,jy,jz,sx,sy,sz,roll,pitch,yaw,p,q,r
0.000000,-3.326978,-0.179737,-1.455833,0.009091,0.002093,0.015097,-0.007468,-0.258625,-0.104524,-4.223426,6.287633,0.442309,310.427359,-84.647749,-46.346968,-0.026080,0.000753,0.000000,0.632598,0.425872,0.000000
0.010000,-3.326888,-0.179728,-1.455687,0.008856,-0.000193,0.014067,-0.034836,-0.199773,-0.102364,-1.314600,5.503005,-0.004820,271.841766,-72.505981,-43.052548,-0.020151,0.003514,0.000000,0.554956,0.132592,-0.000000
0.020000,-3.326802,-0.179739,-1.455552,0.008485,-0.001927,0.013036,-0.034996,-0.148182,-0.104508,1.223277,4.833067,-0.418249,236.216247,-61.697955,-39.610364,-0.014945,0.003530,0.000000,0.487986,-0.123516,0.000000
0.030000,-3.326718,-0.179765,-1.455427,0.008235,-0.003177,0.011963,-0.011511,-0.102772,-0.110612,3.419161,4.264835,-0.796601,203.421778,-52.153039,-36.040366,-0.010359,0.001160,0.000000,0.430678,-0.344726,-0.000000
0.040000,-3.326636,-0.179801,-1.455313,0.008323,-0.004000,0.010812,0.032339,-0.062588,-0.120319,5.300719,3.786032,-1.138697,173.329333,-43.800600,-32.362507,-0.006303,-0.003257,0.000000,0.381976,-0.533402,0.000000
0.050000,-3.326550,-0.179844,-1.455211,0.008939,-0.004443,0.009546,0.093544,-0.026792,-0.133262,6.894325,3.385084,-1.443558,145.809889,-36.570006,-28.596735,-0.002694,-0.009407,0.000000,0.340831,-0.691937,-0.000000
0.060000,-3.326455,-0.179889,-1.455122,0.010242,-0.004548,0.008137,0.169350,0.005337,-0.149064,8.225063,3.051127,-1.710405,120.734421,-30.390625,-24.763002,0.000536,-0.017003,0.000000,0.306223,-0.822729,-0.000000
0.070000,-3.326342,-0.179934,-1.455049,0.012366,-0.004347,0.006557,0.257248,0.034420,-0.167341,9.316730,2.774003,-1.938658,97.973905,-25.191824,-20.881257,0.003449,-0.025778,0.000000,0.277182,-0.928156,0.000000
0.080000,-3.326204,-0.179975,-1.454992,0.015420,-0.003868,0.004783,0.354963,0.060975,-0.187707,10.191828,2.544258,-2.127937,77.399316,-20.902972,-16.971452,0.006095,-0.035489,0.000000,0.252799,-1.010567,-0.000000
0.090000,-3.326031,-0.180010,-1.454954,0.019491,-0.003134,0.002797,0.460434,0.085433,-0.209769,10.871572,2.353146,-2.278060,58.881631,-17.453436,-13.053536,0.008517,-0.045920,0.000000,0.232230,-1.072261,0.000000
0.100000,-3.325811,-0.180037,-1.454937,0.024648,-0.002165,0.000583,0.571809,0.108140,-0.233137,11.375887,2.192627,-2.389047,42.291825,-14.772583,-9.147461,0.010750,-0.056874,0.000000,0.214703,-1.115478,-0.000000
0.110000,-3.325534,-0.180053,-1.454943,0.030942,-0.000976,-0.001869,0.687429,0.129363,-0.257421,11.723405,2.055367,-2.461115,27.500873,-12.789782,-5.273176,0.012819,-0.068177,0.000000,0.199519,-1.142376,-0.000000
0.120000,-3.325188,-0.180056,-1.454975,0.038406,0.000418,-0.004567,0.805813,0.149303,-0.282231,11.931470,1.934740,-2.494683,14.379751,-11.434400,-1.450632,0.014746,-0.079676,0.000000,0.186052,-1.155016,0.000000
0.130000,-3.324762,-0.180044,-1.455035,0.047063,0.002006,-0.007514,0.925647,0.168094,-0.307188,12.016136,1.824823,-2.490367,2.799436,-10.635804,2.300220,0.016544,-0.091239,0.000000,0.173749,-1.155343,-0.000000
0.140000,-3.324243,-0.180015,-1.455126,0.056920,0.003776,-0.010710,1.045774,0.185817,-0.331915,11.992165,1.720403,-2.448984,-7.369098,-10.323363,5.959429,0.018223,-0.102751,0.000000,0.162131,-1.145169,0.000000
0.150000,-3.323619,-0.179968,-1.455250,0.067976,0.005719,-0.014150,1.165174,0.202505,-0.356047,11.873030,1.616971,-2.371550,-16.254875,-10.426444,9.507047,0.019788,-0.114116,0.000000,0.150791,-1.126156,0.000000
0.160000,-3.322879,-0.179900,-1.455410,0.080218,0.007823,-0.017828,1.282958,0.218147,-0.379230,11.670913,1.510725,-2.259282,-23.986919,-10.874415,12.923121,0.021239,-0.125254,0.000000,0.139390,-1.099809,-0.000000
0.170000,-3.322011,-0.179811,-1.455608,0.093627,0.010078,-0.021731,1.398352,0.232700,-0.401122,11.396707,1.398568,-2.113593,-30.694255,-11.596644,16.187702,0.022574,-0.136097,0.000000,0.127659,-1.067465,0.000000
0.180000,-3.321003,-0.179698,-1.455845,0.108175,0.012473,-0.025845,1.510684,0.246091,-0.421396,11.060014,1.278113,-1.936099,-36.505906,-12.522498,19.280839,0.023790,-0.146593,0.000000,0.115392,-1.030288,-0.000000
0.190000,-3.319844,-0.179561,-1.456125,0.123829,0.014996,-0.030152,1.619372,0.258229,-0.439744,10.669145,1.147675,-1.728614,-41.550897,-13.581344,22.182582,0.024880,-0.156696,0.000000,0.102448,-0.989266,-0.000000
0.200000,-3.318523,-0.179398,-1.456449,0.140549,0.017633,-0.034632,1.723910,0.269008,-0.455875,10.231121,1.006278,-1.493152,-45.958253,-14.702552,24.872979,0.025837,-0.166374,0.000000,0.088747,-0.945211,-0.000000
0.210000,-3.317030,-0.179208,-1.456818,0.158283,0.020376,-0.039261,1.824189,0.278118,-0.469519,9.782352,0.835321,-1.231753,-50.631838,-15.352485,27.327728,0.026633,-0.175630,0.000000,0.072503,-0.901647,-0.000000
0.220000,-3.315354,-0.178990,-1.457235,0.177005,0.023197,-0.044014,1.919409,0.285693,-0.480432,9.254657,0.678633,-0.947239,-54.830958,-15.980208,29.531763,0.027285,-0.184405,0.000000,0.057935,-0.852199,-0.000000
0.230000,-3.313486,-0.178743,-1.457699,0.196652,0.026085,-0.048860,2.009149,0.291670,-0.488395,8.687201,0.515837,-0.642018,-58.589758,-16.571784,31.465669,0.027791,-0.192673,0.000000,0.043053,-0.800594,-0.000000
0.240000,-3.311418,-0.178468,-1.458212,0.217168,0.029025,-0.053771,2.093035,0.295991,-0.493213,8.084216,0.347364,-0.318890,-61.942385,-17.113273,33.110027,0.028146,-0.200417,0.000000,0.027871,-0.747200,0.000000
0.250000,-3.309140,-0.178163,-1.458774,0.238493,0.031999,-0.058713,2.170728,0.298600,-0.494723,7.449593,0.173785,0.019152,-64.922984,-17.590739,34.445421,0.028347,-0.207618,0.000000,0.012408,-0.692310,0.000000
0.260000,-3.306646,-0.177828,-1.459386,0.260559,0.034992,-0.063655,2.242020,0.299407,-0.492746,6.794956,-0.008352,0.373024,-67.769617,-17.885148,35.348860,0.028389,-0.214273,0.000000,-0.003699,-0.636974,0.000000
0.270000,-3.303927,-0.177463,-1.460047,0.283308,0.037983,-0.068558,2.306538,0.298425,-0.487238,6.104400,-0.188346,0.729636,-70.287544,-18.100526,35.917182,0.028273,-0.220358,0.000000,-0.019501,-0.579378,0.000000
0.280000,-3.300978,-0.177068,-1.460757,0.306666,0.040955,-0.073388,2.364030,0.295634,-0.478140,5.390270,-0.370095,1.090228,-72.485943,-18.235803,36.143653,0.027998,-0.225861,0.000000,-0.035415,-0.520579,0.000000
0.290000,-3.297792,-0.176644,-1.461515,0.330564,0.043889,-0.078109,2.414275,0.291020,-0.465431,4.655716,-0.552792,1.451347,-74.373990,-18.289909,36.021537,0.027564,-0.230770,0.000000,-0.051423,-0.460663,0.000000
0.300000,-3.294365,-0.176191,-1.462319,0.354927,0.046769,-0.082685,2.457086,0.284578,-0.449123,3.903794,-0.735619,1.809475,-75.960861,-18.261775,35.544100,0.026970,-0.235075,0.000000,-0.067508,-0.399682,0.000000
0.310000,-3.290692,-0.175709,-1.463168,0.379680,0.049575,-0.087081,2.492336,0.276304,-0.429198,3.140476,-0.918299,2.167119,-77.331622,-18.136455,34.550636,0.026213,-0.238768,0.000000,-0.083692,-0.338075,-0.000000
0.320000,-3.286770,-0.175199,-1.464060,0.404747,0.052289,-0.091259,2.519855,0.266217,-0.405820,2.361523,-1.098692,2.506195,-78.410269,-17.928455,33.207235,0.025296,-0.241835,0.000000,-0.099864,-0.274859,0.000000
0.330000,-3.282596,-0.174663,-1.464992,0.430051,0.054893,-0.095186,2.539535,0.254338,-0.379124,1.573245,-1.276595,2.830137,-79.196685,-17.638406,31.526015,0.024216,-0.244263,0.000000,-0.116046,-0.210492,0.000000
0.340000,-3.278169,-0.174102,-1.465962,0.455511,0.057370,-0.098831,2.551298,0.240696,-0.349279,0.778564,-1.451189,3.135629,-79.690754,-17.266936,29.519097,0.022975,-0.246042,0.000000,-0.132216,-0.144963,0.000000
0.350000,-3.273486,-0.173517,-1.466968,0.481050,0.059701,-0.102162,2.555095,0.225328,-0.316484,-0.019595,-1.621664,3.419474,-79.892361,-16.814675,27.198598,0.021572,-0.247159,0.000000,-0.148346,-0.078265,0.000000
0.360000,-3.268548,-0.172909,-1.468005,0.506586,0.061871,-0.105153,2.550915,0.208277,-0.280908,-0.817328,-1.787478,3.684433,-79.826143,-16.275609,24.429209,0.020008,-0.247606,0.000000,-0.164417,-0.010623,-0.000000
0.370000,-3.263354,-0.172280,-1.469070,0.532041,0.063862,-0.107774,2.538756,0.189598,-0.242892,-1.614027,-1.947210,3.913735,-79.464200,-15.657825,21.388530,0.018284,-0.247368,0.000000,-0.180351,0.058495,-0.000000
0.380000,-3.257907,-0.171632,-1.470159,0.557335,0.065658,-0.110004,2.518652,0.169354,-0.202739,-2.405616,-2.100377,4.111400,-78.803385,-14.962767,18.106732,0.016401,-0.246432,0.000000,-0.196114,0.128799,-0.000000
0.390000,-3.252208,-0.170967,-1.471268,0.582388,0.067244,-0.111823,2.490670,0.147615,-0.160777,-3.189088,-2.246213,4.275167,-77.840550,-14.191877,14.613988,0.014362,-0.244788,0.000000,-0.211643,0.200223,0.000000
0.400000,-3.246261,-0.170288,-1.472394,0.607122,0.068605,-0.113215,2.454907,0.124457,-0.117355,-3.961409,-2.383967,4.403077,-76.572549,-13.346599,10.940467,0.012170,-0.242424,0.000000,-0.226867,0.272665,0.000000
0.410000,-3.240067,-0.169596,-1.473531,0.631461,0.069729,-0.114167,2.411474,0.099960,-0.072803,-4.720905,-2.513326,4.496937,-74.961034,-12.417666,7.028887,0.009826,-0.239330,0.000000,-0.241740,0.346039,-0.000000
0.420000,-3.233633,-0.168894,-1.474676,0.655327,0.070600,-0.114670,2.360548,0.074223,-0.027549,-5.461178,-2.632564,4.547194,-73.042369,-11.418542,3.007582,0.007336,-0.235500,0.000000,-0.256073,0.420027,0.000000
0.430000,-3.226963,-0.168185,-1.475823,0.678648,0.071209,-0.114717,2.302320,0.047343,0.018005,-6.180733,-2.741472,4.556859,-70.817718,-10.351982,-1.082567,0.004707,-0.230928,0.000000,-0.269795,0.494445,-0.000000
0.440000,-3.220062,-0.167471,-1.476969,0.701350,0.071544,-0.114310,2.237013,0.019430,0.063451,-6.876516,-2.839388,4.525449,-68.288244,-9.220741,-5.200679,0.001943,-0.225611,0.000000,-0.282783,0.568990,0.000000
0.450000,-3.212938,-0.166755,-1.478108,0.723365,0.071595,-0.113450,2.164879,-0.009406,0.108377,-7.545485,-2.925680,4.452888,-65.455110,-8.027574,-9.305875,-0.000946,-0.219549,0.000000,-0.294897,0.643302,-0.000000
0.460000,-3.205597,-0.166040,-1.479236,0.744627,0.071353,-0.112145,2.086166,-0.039051,0.152369,-8.187957,-3.000428,4.339177,-62.234933,-6.757926,-13.348838,-0.003952,-0.212743,0.000000,-0.306059,0.717293,0.000000
0.470000,-3.198048,-0.165329,-1.480349,0.765069,0.070812,-0.110407,2.001232,-0.069371,0.195027,-8.792988,-3.061431,4.185847,-58.723776,-5.433980,-17.298157,-0.007063,-0.205207,0.000000,-0.315942,0.789668,-0.000000
0.480000,-3.190299,-0.164625,-1.481443,0.784632,0.069964,-0.108251,1.910428,-0.100234,0.235957,-9.361501,-3.108943,3.993659,-54.933155,-4.060610,-21.113984,-0.010267,-0.196956,0.000000,-0.324459,0.860264,-0.000000
0.490000,-3.182358,-0.163931,-1.482513,0.803259,0.068806,-0.105695,1.814133,-0.131503,0.274776,-9.890758,-3.142494,3.764145,-50.874587,-2.642690,-24.756474,-0.013547,-0.188009,0.000000,-0.331440,0.928484,-0.000000
0.500000,-3.174237,-0.163250,-1.483555,0.820898,0.067333,-0.102763,1.712752,-0.163036,0.311122,-10.378138,-3.161664,3.499240,-46.559587,-1.185095,-28.185778,-0.016890,-0.178394,0.000000,-0.336717,0.993688,0.000000
0.510000,-3.165944,-0.162585,-1.484567,0.837500,0.065545,-0.099481,1.606677,-0.194695,0.344603,-10.824916,-3.166795,3.196850,-41.904138,0.325355,-31.250341,-0.020276,-0.168140,0.000000,-0.340191,1.055662,0.000000
0.520000,-3.157490,-0.161940,-1.485544,0.853019,0.063440,-0.095880,1.496413,-0.226321,0.374961,-11.219747,-3.155871,2.870177,-37.026989,1.863523,-34.035703,-0.023687,-0.157292,0.000000,-0.341552,1.112603,0.000000
0.530000,-3.148887,-0.161317,-1.486484,0.867416,0.061019,-0.091993,1.382448,-0.257761,0.401918,-11.564794,-3.129456,2.517154,-31.951352,3.422322,-36.515695,-0.027100,-0.145899,0.000000,-0.340742,1.164348,0.000000
0.540000,-3.140146,-0.160720,-1.487383,0.880657,0.058286,-0.087854,1.265289,-0.288858,0.425227,-11.858190,-3.087379,2.140968,-26.700444,4.994668,-38.664150,-0.030494,-0.134016,0.000000,-0.337652,1.210227,-0.000000
0.550000,-3.131278,-0.160153,-1.488240,0.892713,0.055243,-0.083501,1.145462,-0.319456,0.444672,-12.098296,-3.029541,1.745064,-21.297477,6.573477,-40.454898,-0.033845,-0.121704,0.000000,-0.332198,1.249607,0.000000
0.560000,-3.122296,-0.159617,-1.489052,0.903560,0.051899,-0.078972,1.023478,-0.349397,0.459994,-12.286312,-2.955959,1.325742,-15.699938,8.152872,-41.674666,-0.037130,-0.109029,0.000000,-0.324305,1.282263,0.000000
0.570000,-3.113211,-0.159116,-1.489819,0.913178,0.048258,-0.074313,0.899924,-0.378522,0.471153,-12.414904,-2.866563,0.904508,-10.004818,9.724411,-42.507301,-0.040323,-0.096067,0.000000,-0.314016,1.306841,-0.000000
0.580000,-3.104036,-0.158652,-1.490538,0.921555,0.044331,-0.069563,0.775371,-0.406676,0.478063,-12.486187,-2.761522,0.476897,-4.243379,11.280863,-42.949546,-0.043402,-0.082897,0.000000,-0.301336,1.323368,-0.000000
0.590000,-3.094784,-0.158230,-1.491210,0.928684,0.040129,-0.064766,0.650393,-0.433701,0.480682,-12.499655,-2.641021,0.046829,1.553116,12.814995,-42.998143,-0.046342,-0.069602,0.000000,-0.286330,1.331566,-0.000000
0.600000,-3.085467,-0.157851,-1.491834,0.934563,0.035662,-0.059964,0.525571,-0.459446,0.479005,-12.455112,-2.505320,-0.381743,7.353405,14.319574,-42.649836,-0.049121,-0.056266,0.000000,-0.269099,1.331279,-0.000000
0.610000,-3.076097,-0.157517,-1.492409,0.939198,0.030944,-0.055197,0.401481,-0.483754,0.472979,-12.352965,-2.354335,-0.812821,13.133476,15.776839,-41.699621,-0.051716,-0.042972,0.000000,-0.249690,1.322533,-0.000000
0.620000,-3.066687,-0.157233,-1.492938,0.942597,0.025992,-0.050515,0.278703,-0.506484,0.462786,-12.192965,-2.189456,-1.223479,18.853929,17.191375,-40.370689,-0.054109,-0.029808,0.000000,-0.228484,1.305277,0.000000
0.630000,-3.057249,-0.156998,-1.493420,0.944778,0.020820,-0.045955,0.157811,-0.527496,0.448560,-11.976193,-2.010670,-1.619044,24.482611,18.557239,-38.684487,-0.056280,-0.016856,0.000000,-0.205573,1.279833,-0.000000
0.640000,-3.047795,-0.156817,-1.493858,0.945762,0.015448,-0.041557,0.039365,-0.546653,0.430467,-11.703726,-1.818493,-1.996050,29.987373,19.868487,-36.662458,-0.058215,-0.004197,0.000000,-0.181164,1.246550,0.000000
0.650000,-3.038338,-0.156690,-1.494252,0.945575,0.009894,-0.037358,-0.076083,-0.563824,0.408712,-11.376965,-1.613502,-2.351245,35.336064,21.119176,-34.326050,-0.059899,0.008093,0.000000,-0.155476,1.205880,0.000000
0.660000,-3.028888,-0.156620,-1.494605,0.944251,0.004178,-0.033392,-0.187978,-0.578875,0.383463,-10.995716,-1.395625,-2.687360,40.448136,22.285536,-31.551075,-0.061320,0.019939,0.000000,-0.128615,1.158137,-0.000000
0.670000,-3.019456,-0.156607,-1.494921,0.941829,-0.001676,-0.029697,-0.295830,-0.591698,0.355061,-10.566557,-1.167229,-2.987923,45.345762,23.381632,-28.522445,-0.062469,0.031278,0.000000,-0.101063,1.104441,0.000000
0.680000,-3.010055,-0.156653,-1.495200,0.938350,-0.007648,-0.026301,-0.399150,-0.602184,0.323809,-10.089603,-0.928239,-3.257094,50.002718,24.403705,-25.279437,-0.063339,0.042052,0.000000,-0.072900,1.045208,-0.000000
0.690000,-3.000693,-0.156760,-1.495448,0.933862,-0.013712,-0.023230,-0.497471,-0.610230,0.290030,-9.567392,-0.679415,-3.492928,54.392780,25.347994,-21.861330,-0.063925,0.052208,0.000000,-0.044313,0.981116,0.000000
0.700000,-2.991381,-0.156928,-1.495666,0.928419,-0.019844,-0.020507,-0.590356,-0.615742,0.254067,-9.002725,-0.421551,-3.693868,58.489723,26.210739,-18.307402,-0.064225,0.061701,0.000000,-0.015471,0.912850,-0.000000
0.710000,-2.982127,-0.157157,-1.495859,0.922074,-0.026018,-0.018154,-0.677357,-0.618627,0.216260,-8.395210,-0.154820,-3.860006,62.180138,26.971414,-14.625316,-0.064234,0.070487,0.000000,0.013552,0.840727,0.000000
0.720000,-2.972942,-0.157448,-1.496031,0.914891,-0.032208,-0.016187,-0.758143,-0.618815,0.176991,-7.756346,0.118335,-3.987608,65.535661,27.645076,-10.889836,-0.063954,0.078541,0.000000,0.042452,0.766279,0.000000
0.730000,-2.963832,-0.157801,-1.496184,0.906933,-0.038385,-0.014618,-0.832378,-0.616239,0.136632,-7.085665,0.397785,-4.077768,68.540744,28.230018,-7.144114,-0.063385,0.085837,0.000000,0.071213,0.689714,-0.000000
0.740000,-2.954806,-0.158216,-1.496324,0.898266,-0.044523,-0.013456,-0.899762,-0.610841,0.095560,-6.386751,0.682634,-4.130600,71.179838,28.724533,-3.431298,-0.062530,0.092358,0.000000,0.099756,0.611612,-0.000000
0.750000,-2.945869,-0.158692,-1.496455,0.888961,-0.050593,-0.012708,-0.960031,-0.602571,0.054143,-5.663340,0.971969,-4.146648,73.437395,29.126913,0.205462,-0.061391,0.098090,0.000000,0.128020,0.532509,-0.000000
0.760000,-2.937028,-0.159227,-1.496580,0.879089,-0.056565,-0.012375,-1.012907,-0.591383,0.012790,-4.914429,1.265486,-4.122861,75.174156,29.419628,3.621293,-0.059970,0.103021,0.000000,0.156001,0.452448,-0.000000
0.770000,-2.928289,-0.159822,-1.496704,0.868726,-0.062411,-0.012452,-1.058269,-0.577254,-0.028203,-4.155660,1.560756,-4.070181,76.513432,29.618730,6.887225,-0.058272,0.107155,0.000000,0.183587,0.372942,0.000000
0.780000,-2.919655,-0.160475,-1.496830,0.857949,-0.068100,-0.012936,-1.095982,-0.560163,-0.068508,-3.385487,1.857549,-3.985718,77.454820,29.724450,9.972562,-0.056300,0.110494,0.000000,0.210803,0.293859,-0.000000
0.790000,-2.911131,-0.161184,-1.496964,0.846833,-0.073604,-0.013819,-1.125954,-0.540101,-0.107818,-2.607891,2.154934,-3.871434,77.997920,29.737018,12.846612,-0.054057,0.113044,0.000000,0.237644,0.215537,0.000000
0.800000,-2.902719,-0.161946,-1.497108,0.835456,-0.078892,-0.015088,-1.148129,-0.517065,-0.145845,-1.826857,2.451980,-3.729593,78.142332,29.656663,15.478680,-0.051548,0.114815,0.000000,0.264112,0.138270,0.000000
0.810000,-2.894423,-0.162761,-1.497267,0.823895,-0.083936,-0.016733,-1.162446,-0.491062,-0.182244,-1.042102,2.748033,-3.555182,77.779744,29.476682,17.646453,-0.048776,0.115814,0.000000,0.290203,0.061986,-0.000000
0.820000,-2.886242,-0.163624,-1.497444,0.812231,-0.088704,-0.018730,-1.168989,-0.462112,-0.216881,-0.267732,3.041518,-3.369042,77.030880,29.205088,19.534320,-0.045745,0.116062,0.000000,0.315949,-0.012291,-0.000000
0.830000,-2.878178,-0.164534,-1.497642,0.800541,-0.093168,-0.021064,-1.167832,-0.430242,-0.249566,0.497271,3.331833,-3.165453,75.908553,28.842960,21.135051,-0.042459,0.115574,0.000000,0.341335,-0.084744,-0.000000
0.840000,-2.870231,-0.165487,-1.497866,0.788900,-0.097299,-0.023714,-1.159087,-0.395489,-0.280141,1.249237,3.618079,-2.947322,74.425577,28.391378,22.441415,-0.038920,0.114372,0.000000,0.366357,-0.155195,0.000000
0.850000,-2.862400,-0.166479,-1.498118,0.777384,-0.101068,-0.026659,-1.142903,-0.357897,-0.308474,1.984623,3.899366,-2.717630,72.594765,27.851421,23.446183,-0.035133,0.112475,0.000000,0.391005,-0.223484,0.000000
0.860000,-2.854683,-0.167507,-1.498400,0.766065,-0.104448,-0.029878,-1.119435,-0.317520,-0.334382,2.702479,4.174934,-2.471761,70.366688,27.221196,23.948463,-0.031101,0.109906,0.000000,0.415252,-0.289621,-0.000000
0.870000,-2.847077,-0.168566,-1.498716,0.755018,-0.107410,-0.033342,-1.088933,-0.274421,-0.357898,3.393687,4.443637,-2.230990,67.824023,26.505119,24.158400,-0.026829,0.106689,0.000000,0.439098,-0.353085,-0.000000
0.880000,-2.839581,-0.169653,-1.499068,0.744309,-0.109927,-0.037028,-1.051651,-0.228673,-0.379000,4.057979,4.704755,-1.989512,64.987204,25.704632,24.092476,-0.022321,0.102850,0.000000,0.462483,-0.413911,-0.000000
0.890000,-2.832190,-0.170763,-1.499457,0.734006,-0.111975,-0.040914,-1.007872,-0.180354,-0.397695,4.692518,4.957453,-1.750005,61.876664,24.821179,23.767174,-0.017581,0.098418,0.000000,0.485353,-0.471957,0.000000
0.900000,-2.824899,-0.171891,-1.499887,0.724172,-0.113526,-0.044974,-0.957908,-0.129554,-0.414015,5.294668,5.200907,-1.514979,58.512839,23.856202,23.198977,-0.012616,0.093419,0.000000,0.507643,-0.527080,0.000000
0.910000,-2.817705,-0.173032,-1.500357,0.714867,-0.114558,-0.049187,-0.902080,-0.076366,-0.427969,5.863389,5.434672,-1.282345,54.881053,22.801988,22.292357,-0.007430,0.087884,0.000000,0.529309,-0.579233,-0.000000
0.920000,-2.810600,-0.174180,-1.500871,0.706149,-0.115046,-0.053528,-0.840765,-0.020897,-0.439695,6.393163,5.657097,-1.064785,51.041149,21.670259,21.189524,-0.002032,0.081845,0.000000,0.550185,-0.628036,-0.000000
0.930000,-2.803580,-0.175331,-1.501428,0.698069,-0.114969,-0.057974,-0.774348,0.036737,-0.449304,6.883601,5.867828,-0.859108,47.017861,20.463577,19.920678,0.003571,0.075335,0.000000,0.570205,-0.673441,-0.000000
0.940000,-2.796636,-0.176478,-1.502031,0.690677,-0.114305,-0.062507,-0.703230,0.096418,-0.456922,7.332991,6.066127,-0.666824,42.835924,19.184509,18.516017,0.009369,0.068388,0.000000,0.589260,-0.715296,-0.000000
0.950000,-2.789764,-0.177615,-1.502679,0.684019,-0.113034,-0.067107,-0.627830,0.158016,-0.462689,7.739873,6.251285,-0.489140,38.520071,17.835617,17.005740,0.015352,0.061040,0.000000,0.607234,-0.753448,0.000000
0.960000,-2.782953,-0.178737,-1.503373,0.678134,-0.111138,-0.071755,-0.548590,0.221396,-0.466759,8.101988,6.422530,-0.327161,34.121326,16.421625,15.425105,0.021509,0.053331,0.000000,0.623999,-0.787652,0.000000
0.970000,-2.776198,-0.179836,-1.504114,0.673059,-0.108600,-0.076437,-0.465938,0.286418,-0.469286,8.420833,6.579405,-0.181016,29.634913,14.942674,13.798632,0.027828,0.045297,0.000000,0.639455,-0.818004,0.000000
0.980000,-2.769489,-0.180906,-1.504902,0.668825,-0.105405,-0.081136,-0.380324,0.352934,-0.470434,8.694466,6.721175,-0.051243,25.082348,13.401064,12.155902,0.034294,0.036978,0.000000,0.653468,-0.844261,0.000000
0.990000,-2.762819,-0.181942,-1.505736,0.665460,-0.101537,-0.085841,-0.292201,0.420790,-0.470366,8.922332,6.847225,0.062146,20.485144,11.799096,10.526494,0.040892,0.028416,0.000000,0.665921,-0.866303,-0.000000
1.000000,-2.756177,-0.182935,-1.506618,0.662988,-0.096985,-0.090540,-0.202031,0.489824,-0.469245,9.104092,6.956963,0.159430,15.864816,10.139070,8.939987,0.047607,0.019652,0.000000,0.676698,-0.884028,-0.000000
1.010000,-2.749556,-0.183879,-1.507547,0.661425,-0.091738,-0.095222,-0.110286,0.559876,-0.467271,9.238506,7.050111,0.237336,11.271068,8.415937,7.523226,0.054420,0.010731,0.000000,0.685700,-0.897245,-0.000000
1.020000,-2.742946,-0.184767,-1.508523,0.660786,-0.085785,-0.099882,-0.017414,0.630768,-0.464544,9.328309,7.125435,0.305853,6.693773,6.640245,6.196616,0.061314,0.001695,0.000000,0.692814,-0.906146,0.000000
1.030000,-2.736337,-0.185592,-1.509545,0.661079,-0.079120,-0.104511,0.076128,0.702324,-0.461196,9.372497,7.182752,0.361628,2.150995,4.815195,4.977825,0.068270,-0.007412,0.000000,0.697973,-0.910588,0.000000
1.040000,-2.729721,-0.186347,-1.510613,0.662310,-0.071737,-0.109104,0.169886,0.774362,-0.457350,9.371505,7.221585,0.405828,-2.339202,2.943986,3.884523,0.075267,-0.016545,0.000000,0.701112,-0.910567,-0.000000
1.050000,-2.723088,-0.187025,-1.511727,0.664476,-0.063632,-0.113656,0.263410,0.846693,-0.453114,9.325948,7.241488,0.439796,-6.758756,1.029818,2.934378,0.082285,-0.025660,0.000000,0.702185,-0.906111,0.000000
1.060000,-2.716428,-0.187617,-1.512886,0.667576,-0.054803,-0.118164,0.356245,0.919129,-0.448639,9.235369,7.242282,0.459827,-11.057881,-0.930012,2.277035,0.089304,-0.034712,0.000000,0.701135,-0.897134,0.000000
1.070000,-2.709733,-0.188118,-1.514090,0.671598,-0.045250,-0.122627,0.447976,0.991473,-0.443936,9.103718,7.223032,0.479986,-15.254120,-2.925678,1.782029,0.096301,-0.043660,0.000000,0.698004,-0.884061,-0.000000
1.080000,-2.702993,-0.188520,-1.515338,0.676530,-0.034974,-0.127042,0.538182,1.063523,-0.439054,8.930677,7.183662,0.496013,-19.333297,-4.953259,1.450868,0.103257,-0.052462,0.000000,0.692779,-0.866862,-0.000000
1.090000,-2.696200,-0.188815,-1.516630,0.682355,-0.023981,-0.131407,0.626455,1.135078,-0.434024,8.717489,7.123873,0.509554,-23.281231,-7.008831,1.285063,0.110150,-0.061077,0.000000,0.685483,-0.845686,-0.000000
1.100000,-2.689343,-0.188997,-1.517966,0.689052,-0.012275,-0.135722,0.712402,1.205932,-0.428865,8.465537,7.043405,0.522271,-27.083745,-9.088473,1.286121,0.116959,-0.069466,0.000000,0.676153,-0.820707,0.000000
1.110000,-2.682416,-0.189059,-1.519345,0.696595,0.000135,-0.139983,0.795627,1.275872,-0.423625,8.174947,6.941621,0.531339,-30.691319,-11.177750,1.569200,0.123665,-0.077590,0.000000,0.664745,-0.791950,0.000000
1.120000,-2.675409,-0.188992,-1.520766,0.704954,0.013239,-0.144192,0.875784,1.344694,-0.418226,7.850698,6.819323,0.549101,-34.129442,-13.284539,2.008245,0.130248,-0.085416,0.000000,0.651541,-0.760036,-0.000000
1.130000,-2.668314,-0.188791,-1.522228,0.714099,0.027024,-0.148347,0.952529,1.412188,-0.412626,7.492956,6.675880,0.571982,-37.388264,-15.406204,2.590850,0.136690,-0.092910,0.000000,0.636507,-0.725011,-0.000000
1.140000,-2.661124,-0.188450,-1.523732,0.723993,0.041477,-0.152444,1.025537,1.478141,-0.406765,7.103563,6.511158,0.601355,-40.457933,-17.540111,3.304610,0.142972,-0.100043,0.000000,0.619714,-0.687116,0.000000
1.150000,-2.653832,-0.187960,-1.525277,0.734596,0.056581,-0.156481,1.094501,1.542340,-0.400573,6.684461,6.325046,0.638470,-43.328599,-19.683623,4.137117,0.149078,-0.106785,0.000000,0.601234,-0.646598,-0.000000
1.160000,-2.646430,-0.187316,-1.526862,0.745868,0.072318,-0.160453,1.159123,1.604571,-0.393993,6.236701,6.117508,0.681983,-45.965505,-21.835268,5.138324,0.154991,-0.113110,0.000000,0.581104,-0.603588,0.000000
1.170000,-2.638912,-0.186511,-1.528486,0.757764,0.088666,-0.164358,1.219151,1.664618,-0.386898,5.764757,5.888379,0.738740,-48.386755,-23.991105,6.225829,0.160695,-0.118996,0.000000,0.559460,-0.558625,0.000000
1.180000,-2.631273,-0.185540,-1.530149,0.770235,0.105602,-0.168189,1.274342,1.722266,-0.379181,5.269708,5.637681,0.806721,-50.585547,-26.148358,7.379590,0.166176,-0.124422,0.000000,0.536329,-0.511822,-0.000000
1.190000,-2.623506,-0.184397,-1.531849,0.783234,0.123102,-0.171939,1.324476,1.777300,-0.370725,4.753811,5.365416,0.886486,-52.555078,-28.304248,8.579566,0.171417,-0.129370,0.000000,0.511758,-0.463418,0.000000
1.200000,-2.615607,-0.183077,-1.533587,0.796707,0.141139,-0.175601,1.369356,1.829503,-0.361410,4.219393,5.071610,0.978399,-54.288549,-30.455998,9.805714,0.176406,-0.133823,0.000000,0.485783,-0.413643,-0.000000
1.210000,-2.607570,-0.181573,-1.535361,0.810603,0.159682,-0.179164,1.408794,1.878664,-0.351116,3.667446,4.756647,1.082620,-55.743722,-32.609107,11.038008,0.181129,-0.137767,0.000000,0.458464,-0.362586,-0.000000
1.220000,-2.599393,-0.179881,-1.537170,0.824865,0.178701,-0.182619,1.442661,1.924564,-0.339717,3.103754,4.419833,1.199112,-56.953569,-34.751507,12.256388,0.185571,-0.141192,0.000000,0.429727,-0.310773,0.000000
1.230000,-2.591072,-0.177997,-1.539013,0.839437,0.198162,-0.185955,1.470833,1.966989,-0.327093,2.529201,4.061665,1.327635,-57.915628,-36.879407,13.440809,0.189719,-0.144089,0.000000,0.399609,-0.258248,-0.000000
1.240000,-2.582604,-0.175917,-1.540889,0.854262,0.218028,-0.189157,1.493217,2.005727,-0.313126,1.946276,3.682306,1.467748,-58.627435,-38.989015,14.571227,0.193558,-0.146449,0.000000,0.368090,-0.205193,-0.000000
1.250000,-2.573986,-0.173636,-1.542796,0.869282,0.238263,-0.192212,1.509739,2.040565,-0.297702,1.357495,3.281958,1.618813,-59.086529,-41.076540,15.627598,0.197076,-0.148269,0.000000,0.335137,-0.151776,0.000000
1.260000,-2.565218,-0.171151,-1.544732,0.884438,0.258826,-0.195106,1.520347,2.071304,-0.280694,0.764584,2.861564,1.782022,-59.269939,-43.155932,16.538467,0.200257,-0.149543,0.000000,0.300811,-0.098106,-0.000000
1.270000,-2.556297,-0.168458,-1.546697,0.899670,0.279675,-0.197821,1.525029,2.097728,-0.262033,0.172031,2.419738,1.951518,-59.198222,-45.203487,17.341495,0.203087,-0.150271,0.000000,0.264792,-0.044444,-0.000000
1.280000,-2.547224,-0.165556,-1.548688,0.914919,0.300765,-0.200341,1.523794,2.119631,-0.241638,-0.418530,1.957620,2.128447,-58.871424,-47.213240,18.022934,0.205548,-0.150451,0.000000,0.227126,0.009127,-0.000000
1.290000,-2.537999,-0.162442,-1.550703,0.930126,0.322052,-0.202648,1.516674,2.136814,-0.219443,-1.004548,1.475619,2.311525,-58.289595,-49.179228,18.569035,0.207623,-0.150085,0.000000,0.187729,0.062476,0.000000
1.300000,-2.528622,-0.159115,-1.552740,0.945233,0.343485,-0.204724,1.503727,2.149079,-0.195392,-1.583472,0.974201,2.499331,-57.452782,-51.095487,18.966048,0.209296,-0.149175,0.000000,0.146504,0.115477,-0.000000
1.310000,-2.519095,-0.155572,-1.554797,0.960182,0.365016,-0.206550,1.485025,2.156247,-0.169411,-2.153798,0.454952,2.693485,-56.334642,-52.982759,19.119866,0.210549,-0.147725,0.000000,0.103513,0.168059,0.000000
1.320000,-2.509419,-0.151814,-1.556871,0.974915,0.386592,-0.208107,1.460692,2.158116,-0.141520,-2.710504,-0.084045,2.884760,-54.964848,-54.805106,19.106938,0.211359,-0.145740,0.000000,0.058246,0.219968,-0.000000
1.330000,-2.499597,-0.147840,-1.558958,0.989377,0.408160,-0.209375,1.430865,2.154506,-0.111720,-3.252267,-0.640903,3.075055,-53.346678,-56.553293,18.923356,0.211706,-0.143228,0.000000,0.010776,0.271136,0.000000
1.340000,-2.489633,-0.143651,-1.561057,1.003514,0.429663,-0.210335,1.395705,2.145241,-0.080028,-3.776621,-1.214833,3.262645,-51.483414,-58.218087,18.565211,0.211567,-0.140197,0.000000,-0.039010,0.321429,-0.000000
1.350000,-2.479528,-0.139248,-1.563164,1.017274,0.451045,-0.210969,1.355399,2.130155,-0.046482,-4.281130,-1.804956,3.445764,-49.378335,-59.790255,18.028593,0.210918,-0.136656,0.000000,-0.091224,0.370703,-0.000000
1.360000,-2.469289,-0.134631,-1.565275,1.030606,0.472246,-0.211259,1.310141,2.109100,-0.011098,-4.764835,-2.409471,3.625911,-46.998281,-61.281462,17.226195,0.209736,-0.132618,0.000000,-0.145823,0.418905,-0.000000
1.370000,-2.458918,-0.129803,-1.567388,1.043462,0.493207,-0.211186,1.260185,2.081918,0.026007,-5.221953,-3.029273,3.793424,-44.387434,-62.659016,16.247718,0.207993,-0.128095,0.000000,-0.203263,0.465634,-0.000000
1.380000,-2.448421,-0.124768,-1.569498,1.055795,0.513864,-0.210734,1.205793,2.048471,0.064735,-5.651840,-3.662233,3.950299,-41.553537,-63.911124,15.099466,0.205661,-0.123105,0.000000,-0.263456,0.510817,-0.000000
1.390000,-2.437804,-0.119527,-1.571601,1.067564,0.534155,-0.209887,1.147246,2.008634,0.104972,-6.052306,-4.307038,4.094869,-38.504331,-65.025995,13.787741,0.202714,-0.117665,0.000000,-0.326463,0.554255,-0.000000
1.400000,-2.427072,-0.114086,-1.573694,1.078727,0.554015,-0.208630,1.084852,1.962296,0.146586,-6.421235,-4.962257,4.225530,-35.247560,-65.991834,12.318846,0.199123,-0.111796,0.000000,-0.392320,0.595732,-0.000000
1.410000,-2.416231,-0.108449,-1.575772,1.089250,0.573379,-0.206951,1.018912,1.909359,0.189459,-6.758620,-5.626344,4.343313,-31.739720,-66.796711,10.634171,0.194859,-0.105517,0.000000,-0.460982,0.635190,-0.000000
1.420000,-2.405289,-0.102620,-1.577832,1.099096,0.592180,-0.204838,0.949799,1.849745,0.233394,-7.057698,-6.297622,4.440656,-28.046072,-67.428990,8.812881,0.189894,-0.098856,0.000000,-0.532548,0.671953,0.000000
1.430000,-2.394252,-0.096607,-1.579868,1.108236,0.610351,-0.202281,0.877884,1.783389,0.278209,-7.318969,-6.974310,4.519163,-24.180635,-67.876893,6.869227,0.184199,-0.091842,0.000000,-0.606885,0.705943,0.000000
1.440000,-2.383127,-0.090416,-1.581876,1.116645,0.627825,-0.199271,0.803551,1.710247,0.323711,-7.540784,-7.654506,4.577680,-20.157424,-68.128645,4.817461,0.177747,-0.084505,0.000000,-0.683873,0.736871,0.000000
1.450000,-2.371921,-0.084053,-1.583852,1.124300,0.644533,-0.195805,0.727205,1.630294,0.369693,-7.721638,-8.336189,4.615199,-15.990457,-68.172472,2.671834,0.170513,-0.076880,0.000000,-0.763336,0.764432,0.000000
1.460000,-2.360643,-0.077528,-1.585790,1.131185,0.660408,-0.191877,0.649235,1.543511,0.415956,-7.862480,-9.018503,4.632202,-11.635172,-67.964251,0.412472,0.162472,-0.069002,0.000000,-0.845152,0.788546,-0.000000
1.470000,-2.349300,-0.070848,-1.587688,1.137282,0.675381,-0.187486,0.570102,1.449934,0.462260,-7.956595,-9.696160,4.624768,-7.171337,-67.528513,-1.908069,0.153603,-0.060913,0.000000,-0.928765,0.808332,0.000000
1.480000,-2.337900,-0.064023,-1.589539,1.142584,0.689385,-0.182633,0.490253,1.349607,0.508373,-8.005616,-10.368289,4.593899,-2.620142,-66.857443,-4.271359,0.143891,-0.052657,0.000000,-1.013928,0.823724,-0.000000
1.490000,-2.326451,-0.057064,-1.591339,1.147086,0.702351,-0.177320,0.410143,1.242595,0.554059,-8.008777,-11.032498,4.539260,1.997223,-65.943227,-6.658969,0.133321,-0.044282,0.000000,-1.100203,0.834403,0.000000
1.500000,-2.314961,-0.049980,-1.593083,1.150788,0.714215,-0.171554,0.330232,1.128991,0.599079,-7.965522,-11.686317,4.460700,6.659567,-64.778048,-9.052467,0.121885,-0.035837,0.000000,-1.187082,0.840062,0.000000
1.510000,-2.303438,-0.042783,-1.594768,1.153694,0.724910,-0.165341,0.250968,1.008883,0.643194,-7.877359,-12.329821,4.358335,11.392498,-63.287803,-11.435512,0.109576,-0.027371,0.000000,-1.274269,0.840613,-0.000000
1.520000,-2.291890,-0.035486,-1.596389,1.155812,0.734372,-0.158694,0.172843,0.882449,0.686167,-7.739771,-12.954171,4.232187,16.122299,-61.539083,-13.787331,0.096402,-0.018942,0.000000,-1.360447,0.835317,-0.000000
1.530000,-2.280325,-0.028100,-1.597941,1.157156,0.742539,-0.151623,0.096330,0.749862,0.727761,-7.555013,-13.559742,4.082754,20.822050,-59.532190,-16.089237,0.082372,-0.010606,0.000000,-1.445224,0.824180,0.000000
1.540000,-2.268749,-0.020640,-1.599420,1.157745,0.749349,-0.144144,0.021898,0.611325,0.767746,-7.323520,-14.143955,3.910631,25.464830,-57.267427,-18.322544,0.067505,-0.002422,0.000000,-1.527847,0.807028,0.000000
1.550000,-2.257172,-0.013118,-1.600822,1.157602,0.754746,-0.136274,-0.049987,0.467063,0.805900,-7.045996,-14.704232,3.716595,30.023721,-54.745095,-20.468567,0.051825,0.005552,0.000000,-1.607524,0.783746,-0.000000
1.560000,-2.245600,-0.005550,-1.602144,1.156755,0.758673,-0.128032,-0.118873,0.317293,0.841999,-6.723564,-15.241268,3.500737,34.475556,-51.882939,-22.486498,0.035363,0.013254,0.000000,-1.683804,0.754298,-0.000000
1.570000,-2.234039,0.002050,-1.603382,1.155236,0.761076,-0.119441,-0.184312,0.162337,0.875850,-6.357113,-15.744754,3.266284,38.789201,-48.773927,-24.382482,0.018165,0.020627,0.000000,-1.754985,0.718670,-0.000000
1.580000,-2.222497,0.009667,-1.604532,1.153082,0.761904,-0.110523,-0.245874,0.002506,0.907263,-5.948332,-16.215959,3.013547,42.937275,-45.428471,-26.140541,0.000281,0.027611,0.000000,-1.820673,0.676979,0.000000
1.590000,-2.210980,0.017283,-1.605591,1.150333,0.761111,-0.101305,-0.303144,-0.161867,0.936064,-5.499011,-16.652570,2.743986,46.892400,-41.856982,-27.744699,-0.018228,0.034148,0.000000,-1.880097,0.629405,-0.000000
1.600000,-2.199492,0.024883,-1.606557,1.147035,0.758653,-0.091811,-0.355726,-0.330423,0.962092,-5.011218,-17.052380,2.459219,50.627194,-38.069872,-29.178979,-0.037297,0.040183,0.000000,-1.932538,0.576215,0.000000
1.610000,-2.188041,0.032450,-1.607427,1.143235,0.754490,-0.082072,-0.403219,-0.502813,0.985188,-4.484621,-17.415910,2.159565,54.046786,-34.011200,-30.390520,-0.056856,0.045660,0.000000,-1.977633,0.517445,0.000000
1.620000,-2.176629,0.039967,-1.608198,1.138988,0.748586,-0.072117,-0.445309,-0.678603,1.005246,-3.928159,-17.734943,1.850420,57.199551,-29.765854,-31.404745,-0.076822,0.050533,0.000000,-2.014145,0.454261,-0.000000
1.630000,-2.165262,0.047416,-1.608868,1.134348,0.740908,-0.061978,-0.481681,-0.857367,1.022166,-3.341583,-18.010667,1.532166,60.066376,-25.352369,-32.210193,-0.097110,0.054758,0.000000,-2.041960,0.386809,0.000000
1.640000,-2.153943,0.054779,-1.609437,1.129374,0.731430,-0.051685,-0.512050,-1.038666,1.035867,-2.727848,-18.241492,1.206950,62.628144,-20.789283,-32.795403,-0.117632,0.058293,0.000000,-2.060760,0.315645,0.000000
1.650000,-2.142676,0.062039,-1.609902,1.124128,0.720128,-0.041271,-0.536158,-1.222043,1.046289,-2.090100,-18.426016,0.877031,64.865740,-16.095130,-33.148915,-0.138295,0.061103,0.000000,-2.070359,0.241379,0.000000
1.660000,-2.131461,0.069176,-1.610262,1.118671,0.706984,-0.030769,-0.553730,-1.407042,1.053377,-1.426784,-18.564262,0.542722,66.636439,-11.257059,-33.207241,-0.159009,0.063151,0.000000,-2.070800,0.164096,0.000000
1.670000,-2.120303,0.076172,-1.610517,1.113074,0.691984,-0.020214,-0.564641,-1.593165,1.057146,-0.753011,-18.652258,0.211391,68.059871,-6.328837,-33.017317,-0.179680,0.064420,0.000000,-2.061908,0.085821,0.000000
1.680000,-2.109200,0.083009,-1.610666,1.107401,0.675119,-0.009637,-0.568748,-1.779921,1.057615,-0.066757,-18.690613,-0.116779,69.132057,-1.332844,-32.574055,-0.200217,0.064891,0.000000,-2.044018,0.006597,0.000000
1.690000,-2.098155,0.089668,-1.610710,1.101722,0.656385,0.000928,-0.565946,-1.966810,1.054830,0.628446,-18.678763,-0.439229,69.849016,3.708541,-31.872364,-0.220532,0.064552,0.000000,-2.017459,-0.072901,0.000000
1.700000,-2.087166,0.096131,-1.610648,1.096105,0.635784,0.011449,-0.556162,-2.153328,1.048859,1.329026,-18.616366,-0.753348,70.206769,8.772937,-30.907154,-0.240539,0.063395,0.000000,-1.982667,-0.152017,0.000000
1.710000,-2.076232,0.102378,-1.610481,1.090620,0.613321,0.021895,-0.539306,-2.338962,1.039768,2.036319,-18.502689,-1.059368,70.076351,13.822483,-29.600301,-0.260158,0.061415,0.000000,-1.940026,-0.230678,0.000000
1.720000,-2.065352,0.108391,-1.610210,1.085341,0.589009,0.032235,-0.515446,-2.523214,1.027719,2.734960,-18.339291,-1.347732,69.594072,18.852178,-28.028693,-0.279316,0.058624,0.000000,-1.890474,-0.306949,0.000000
1.730000,-2.054524,0.114152,-1.609837,1.080335,0.562863,0.042440,-0.484629,-2.705581,1.012870,3.427066,-18.125780,-1.619072,68.771257,23.841537,-26.196182,-0.297946,0.055034,0.000000,-1.834524,-0.380939,-0.000000
1.740000,-2.043745,0.119642,-1.609362,1.075671,0.534905,0.052484,-0.446937,-2.885564,0.995403,4.109288,-17.862663,-1.870799,67.619232,28.770077,-24.106621,-0.315987,0.050661,0.000000,-1.772878,-0.452176,-0.000000
1.750000,-2.033010,0.124844,-1.608788,1.071418,0.505162,0.062340,-0.402487,-3.062671,0.975528,4.778391,-17.550650,-2.100361,66.149322,33.617313,-21.763863,-0.333387,0.045527,0.000000,-1.706266,-0.520254,-0.000000
1.760000,-2.022315,0.129740,-1.608116,1.067643,0.473662,0.071988,-0.351389,-3.236387,0.953440,5.434423,-17.187882,-2.308806,64.292778,38.292707,-19.081828,-0.350094,0.039655,0.000000,-1.635020,-0.585178,0.000000
1.770000,-2.011655,0.134312,-1.607349,1.064411,0.440446,0.081404,-0.293865,-3.406275,0.929445,6.066869,-16.782047,-2.485231,62.150803,42.854409,-16.165315,-0.366076,0.033079,0.000000,-1.560828,-0.645836,-0.000000
1.780000,-2.001024,0.138543,-1.606489,1.061786,0.405551,0.090572,-0.230128,-3.571878,0.903836,6.676558,-16.331213,-2.631380,59.744527,47.290512,-13.029188,-0.381302,0.025833,0.000000,-1.483943,-0.702433,0.000000
1.790000,-1.990417,0.142417,-1.605538,1.059828,0.369024,0.099476,-0.160418,-3.732753,0.876925,7.260949,-15.836695,-2.745132,57.095079,51.589111,-9.688312,-0.395748,0.017956,0.000000,-1.405034,-0.754841,-0.000000
1.800000,-1.979825,0.145918,-1.604500,1.058597,0.330913,0.108107,-0.085001,-3.888471,0.849048,7.817719,-15.299929,-2.824513,54.223590,55.738301,-6.157553,-0.409398,0.009485,0.000000,-1.324731,-0.802995,-0.000000
1.810000,-1.969242,0.149030,-1.603377,1.058146,0.291272,0.116456,-0.004156,-4.038575,0.820515,8.345365,-14.718635,-2.871431,51.135697,59.629398,-2.357519,-0.422235,0.000462,0.000000,-1.243110,-0.846950,0.000000
1.820000,-1.958660,0.151739,-1.602172,1.058530,0.250160,0.124518,0.081801,-4.182717,0.791748,8.840532,-14.103558,-2.875376,47.869919,63.359124,1.591127,-0.434260,-0.009070,0.000000,-1.161915,-0.886608,0.000000
1.830000,-1.948069,0.154029,-1.600887,1.059798,0.207639,0.132292,0.172543,-4.320524,0.763142,9.302247,-13.451991,-2.839202,44.449283,66.927425,5.661978,-0.445474,-0.019070,0.000000,-1.081031,-0.922144,0.000000
1.840000,-1.937461,0.155887,-1.599527,1.061996,0.163772,0.139782,0.267729,-4.451640,0.735102,9.729078,-12.765548,-2.761817,40.896814,70.334245,9.828626,-0.455883,-0.029494,0.000000,-1.000855,-0.953706,-0.000000
1.850000,-1.926826,0.157300,-1.598093,1.065166,0.118629,0.146997,0.367004,-4.575724,0.708045,10.119821,-12.045844,-2.642398,37.235541,73.579528,14.064666,-0.465494,-0.040300,0.000000,-0.921723,-0.981474,0.000000
1.860000,-1.916154,0.158255,-1.596588,1.069349,0.072281,0.153949,0.469983,-4.692421,0.682361,10.471745,-11.291638,-2.483595,33.532874,76.591035,18.424873,-0.474317,-0.051445,0.000000,-0.843526,-1.005476,-0.000000
1.870000,-1.905435,0.158742,-1.595015,1.074578,0.024805,0.160652,0.576315,-4.801459,0.658519,10.788269,-10.511311,-2.277502,29.762021,79.449734,22.791716,-0.482370,-0.062892,0.000000,-0.767394,-1.026390,0.000000
1.880000,-1.894659,0.158748,-1.593375,1.080885,-0.023721,0.167127,0.685622,-4.902554,0.636956,11.066817,-9.703123,-2.027860,25.940573,82.164410,27.128848,-0.489671,-0.074604,0.000000,-0.693029,-1.044262,0.000000
1.890000,-1.883814,0.158264,-1.591673,1.088299,-0.073218,0.173400,0.797523,-4.995433,0.618106,11.306971,-8.868473,-1.735146,22.086121,84.743846,31.399921,-0.496237,-0.086547,0.000000,-0.620510,-1.059350,-0.000000
1.900000,-1.872889,0.157281,-1.589908,1.096843,-0.123602,0.179500,0.911632,-5.079840,0.602394,11.508488,-8.008668,-1.400203,18.216258,87.196827,35.568588,-0.502087,-0.098687,0.000000,-0.549859,-1.071922,0.000000
1.910000,-1.861873,0.155789,-1.588083,1.106539,-0.174786,0.185460,1.027531,-5.155526,0.590219,11.668293,-7.124799,-1.025971,14.424610,89.528845,39.642315,-0.507240,-0.110991,0.000000,-0.480966,-1.081943,-0.000000
1.920000,-1.850754,0.153783,-1.586199,1.117399,-0.226682,0.191318,1.144872,-5.222260,0.582008,11.793621,-6.218306,-0.609914,10.643424,91.752379,43.535575,-0.511713,-0.123434,0.000000,-0.413919,-1.090388,0.000000
1.930000,-1.839521,0.151254,-1.584257,1.129439,-0.279201,0.197115,1.263278,-5.279819,0.578147,11.881224,-5.290082,-0.156000,6.880981,93.876615,47.206657,-0.515523,-0.135994,0.000000,-0.348490,-1.097163,0.000000
1.940000,-1.828162,0.148197,-1.582257,1.142667,-0.332248,0.202896,1.382372,-5.327992,0.579006,11.931331,-4.341074,0.333340,3.145561,95.910740,50.613846,-0.518687,-0.148649,0.000000,-0.284486,-1.102496,-0.000000
1.950000,-1.816664,0.144607,-1.580199,1.157088,-0.385728,0.208712,1.501780,-5.366574,0.584923,11.944253,-3.372137,0.855258,-0.554553,97.863941,53.715430,-0.521217,-0.161378,0.000000,-0.221669,-1.106595,-0.000000
1.960000,-1.805016,0.140481,-1.578082,1.172703,-0.439545,0.214612,1.621109,-5.395408,0.596218,11.918073,-2.387494,1.407368,-4.152688,99.832790,56.447539,-0.523127,-0.174161,0.000000,-0.160090,-1.109449,-0.000000
1.970000,-1.793206,0.135816,-1.575906,1.189510,-0.493602,0.220655,1.740023,-5.414260,0.613155,11.858741,-1.379626,1.983910,-7.706106,101.728389,58.793331,-0.524421,-0.186988,0.000000,-0.098624,-1.111689,0.000000
1.980000,-1.781222,0.130609,-1.573669,1.207501,-0.547797,0.226895,1.858166,-5.422939,0.635968,11.764104,-0.353175,2.581817,-11.213674,103.549225,60.713807,-0.525100,-0.199843,0.000000,-0.037289,-1.113216,0.000000
1.990000,-1.769052,0.124860,-1.571368,1.226669,-0.602026,0.233394,1.975188,-5.421264,0.664848,11.634624,0.691104,3.196639,-14.674261,105.293785,62.169967,-0.525165,-0.212715,0.000000,0.024312,-1.114125,-0.000000
2.000000,-1.756685,0.118568,-1.569000,1.247000,-0.656187,0.240213,2.090744,-5.409060,0.699941,11.470779,1.752441,3.823538,-18.086735,106.960555,63.122811,-0.524612,-0.225592,0.000000,0.086612,-1.114473,-0.000000
2.010000,-1.744108,0.111736,-1.566562,1.268478,-0.710170,0.247413,2.204485,-5.386227,0.741392,11.272503,2.823990,4.461921,-21.436063,108.701097,63.416300,-0.523437,-0.238464,0.000000,0.149379,-1.114333,0.000000
2.020000,-1.731311,0.104366,-1.564050,1.291083,-0.763873,0.255060,2.316083,-5.352524,0.789180,11.041599,3.919297,5.095199,-24.736718,110.342079,63.142806,-0.521618,-0.251320,0.000000,0.214785,-1.113564,0.000000
2.030000,-1.718283,0.096460,-1.561459,1.314792,-0.817184,0.263217,2.425208,-5.307788,0.843277,10.777929,5.030432,5.722805,-27.989272,111.863244,62.277662,-0.519133,-0.264148,0.000000,0.282564,-1.112149,0.000000
2.040000,-1.705012,0.088024,-1.558784,1.339578,-0.869992,0.271947,2.531534,-5.251867,0.903597,10.481972,6.156095,6.338698,-31.194295,113.244336,60.796199,-0.515957,-0.276934,0.000000,0.353263,-1.109977,0.000000
2.050000,-1.691488,0.079062,-1.556018,1.365412,-0.922184,0.281309,2.634741,-5.184622,0.969991,10.154200,7.294785,6.936592,-34.352359,114.465097,58.673750,-0.512056,-0.289664,0.000000,0.427454,-1.106884,-0.000000
2.060000,-1.677700,0.069583,-1.553155,1.392261,-0.973644,0.291363,2.734536,-5.105998,1.042345,9.797170,8.438837,7.519010,-37.516828,115.655761,55.656919,-0.507404,-0.302328,0.000000,0.504865,-1.103105,-0.000000
2.070000,-1.663639,0.059592,-1.550188,1.420089,-1.024263,0.302172,2.830580,-5.015810,1.120259,9.406395,9.600451,8.057734,-40.629014,116.627152,51.977774,-0.501943,-0.314899,0.000000,0.588174,-1.097307,-0.000000
2.080000,-1.649295,0.049101,-1.547109,1.448859,-1.073921,0.313786,2.922561,-4.913961,1.203366,8.984783,10.770520,8.556369,-43.683026,117.340587,47.639654,-0.495622,-0.327354,0.000000,0.677016,-1.089645,0.000000
2.090000,-1.634659,0.038118,-1.543910,1.478526,-1.122503,0.326255,3.010175,-4.800380,1.291231,8.532948,11.946274,9.008342,-46.672970,117.757383,42.645897,-0.488382,-0.339663,0.000000,0.771999,-1.079728,0.000000
2.100000,-1.619722,0.026655,-1.540581,1.509047,-1.169890,0.339625,3.093122,-4.675027,1.383356,8.051557,13.124550,9.407113,-49.592951,117.838853,36.999844,-0.480159,-0.351795,0.000000,0.873721,-1.067102,0.000000
2.110000,-1.604475,0.014724,-1.537114,1.540371,-1.215964,0.353931,3.171142,-4.537910,1.479314,7.544276,14.300166,9.759037,-52.511188,117.587689,30.379982,-0.470890,-0.363722,0.000000,0.982120,-1.051997,0.000000
2.120000,-1.588912,0.002340,-1.533499,1.572451,-1.260608,0.369217,3.243912,-4.389039,1.578305,7.004945,15.473065,10.027195,-55.338602,116.918765,23.154279,-0.460490,-0.375389,0.000000,1.099258,-1.032082,-0.000000
2.130000,-1.573024,-0.010483,-1.529726,1.605231,-1.303706,0.385504,3.311148,-4.228479,1.679607,6.437856,16.637003,10.220247,-58.060224,115.788333,15.365854,-0.448877,-0.386746,0.000000,1.224852,-1.007505,-0.000000
2.140000,-1.556805,-0.023728,-1.525786,1.638654,-1.345139,0.402814,3.372580,-4.056344,1.782442,5.844143,17.787147,10.332780,-60.661086,114.152640,7.057824,-0.435964,-0.397734,0.000000,1.359244,-0.977559,-0.000000
2.150000,-1.540249,-0.037380,-1.521667,1.672662,-1.384794,0.421156,3.427947,-3.872799,1.885978,5.225087,18.918226,10.359815,-63.126221,111.967937,-1.726695,-0.421662,-0.408292,0.000000,1.502637,-0.941489,-0.000000
2.160000,-1.523350,-0.051418,-1.517359,1.707192,-1.422560,0.440529,3.477018,-3.677995,1.989481,4.583609,20.030729,10.309958,-65.478259,109.033890,-11.276876,-0.405879,-0.418356,0.000000,1.655202,-0.899238,0.000000
2.170000,-1.506104,-0.065824,-1.512853,1.742180,-1.458320,0.460937,3.519543,-3.472293,2.091853,3.917768,21.103836,10.147947,-67.660030,105.482506,-21.176623,-0.388529,-0.427840,0.000000,1.816394,-0.848261,0.000000
2.180000,-1.488505,-0.080577,-1.508137,1.777560,-1.491970,0.482359,3.555304,-3.256047,2.192105,3.231042,22.138240,9.885539,-69.651960,101.289207,-31.342128,-0.369524,-0.436658,0.000000,1.985756,-0.788510,0.000000
2.190000,-1.470551,-0.095656,-1.503202,1.813263,-1.523407,0.504769,3.584101,-3.029679,2.289221,2.525427,23.127399,9.520498,-71.434477,96.429418,-41.689585,-0.348789,-0.444720,0.000000,2.162331,-0.719188,-0.000000
2.200000,-1.452239,-0.111038,-1.498039,1.849218,-1.552532,0.528129,3.605757,-2.793673,2.382168,1.803115,24.064525,9.051421,-72.988011,90.878560,-52.135190,-0.326258,-0.451931,0.000000,2.344693,-0.639572,-0.000000
2.210000,-1.433566,-0.126699,-1.492637,1.885354,-1.579255,0.552393,3.620109,-2.548433,2.469977,1.065877,24.956647,8.484759,-74.277370,84.256876,-62.772262,-0.301868,-0.458194,0.000000,2.532257,-0.549359,0.000000
2.220000,-1.414532,-0.142615,-1.486988,1.921596,-1.603477,0.577506,3.627036,-2.294772,2.551510,0.317758,25.763196,7.804187,-75.300513,76.938462,-73.318179,-0.275610,-0.463404,0.000000,2.719208,-0.447398,-0.000000
2.230000,-1.395134,-0.158760,-1.481084,1.957870,-1.625124,0.603398,3.626435,-2.033424,2.625712,-0.439187,26.493156,7.019051,-76.039780,68.942233,-83.667446,-0.247492,-0.467459,0.000000,2.903698,-0.333813,-0.000000
2.240000,-1.375375,-0.175108,-1.474918,1.994099,-1.644123,0.629992,3.618232,-1.765187,2.691550,-1.202032,27.139844,6.131845,-76.477510,60.287102,-93.714569,-0.217558,-0.470257,0.000000,3.081761,-0.208716,-0.000000
2.250000,-1.355253,-0.191633,-1.468482,2.030209,-1.660408,0.657198,3.602385,-1.490926,2.748020,-1.967674,27.696765,5.146118,-76.596045,50.991986,-103.354052,-0.185894,-0.471703,0.000000,3.248799,-0.072597,-0.000000
2.260000,-1.334771,-0.208307,-1.461772,2.066123,-1.673929,0.684919,3.578839,-1.211384,2.794107,-2.736638,28.174949,4.061680,-76.281556,40.637947,-112.359312,-0.152612,-0.471699,0.000000,3.401912,0.074312,-0.000000
2.270000,-1.313931,-0.225102,-1.454782,2.101762,-1.684628,0.713044,3.547668,-0.927782,2.828964,-3.496455,28.527243,2.895539,-75.624328,29.735365,-120.760769,-0.117929,-0.470175,0.000000,3.530393,0.228932,-0.000000
2.280000,-1.292737,-0.241990,-1.447510,2.137051,-1.692475,0.741458,3.508938,-0.641211,2.851749,-4.247962,28.768070,1.648780,-74.618475,18.356770,-128.467755,-0.082096,-0.467069,0.000000,3.631233,0.390135,0.000000
2.290000,-1.271192,-0.258942,-1.439953,2.171915,-1.697446,0.770037,3.462748,-0.352807,2.861695,-4.987643,28.893033,0.328801,-73.258114,6.574691,-135.389602,-0.045414,-0.462334,0.000000,3.699338,0.555547,-0.000000
2.300000,-1.249300,-0.275930,-1.432109,2.206281,-1.699529,0.798647,3.409236,-0.063748,2.858109,-5.711923,28.898460,-1.056093,-71.537359,-5.538344,-141.435641,-0.008233,-0.455941,0.000000,3.730359,0.722376,-0.000000
2.310000,-1.227068,-0.292923,-1.423980,2.240078,-1.698727,0.827157,3.348507,0.224885,2.840204,-6.423237,28.793431,-2.513571,-69.297076,-18.213563,-146.088853,0.029075,-0.447870,0.000000,3.722513,0.889152,0.000000
2.320000,-1.204501,-0.309895,-1.415567,2.273231,-1.695042,0.855408,3.280852,0.511695,2.807699,-7.103528,28.547254,-3.993554,-66.703397,-31.037484,-149.737127,0.066076,-0.438164,0.000000,3.670482,1.048665,-0.000000
2.330000,-1.181606,-0.326815,-1.406873,2.305673,-1.688503,0.883261,3.206529,0.795401,2.760229,-7.756170,28.172551,-5.504835,-63.769203,-43.900384,-152.342003,0.102343,-0.426873,0.000000,3.576050,1.199581,-0.000000
2.340000,-1.158390,-0.343655,-1.397903,2.337340,-1.679148,0.910562,3.125832,1.074718,2.697533,-8.377820,27.669482,-7.036788,-60.507375,-56.692538,-153.865019,0.137461,-0.414076,0.000000,3.440971,1.338898,-0.000000
2.350000,-1.134862,-0.360388,-1.388664,2.368169,-1.667028,0.937160,3.039087,1.348367,2.619461,-8.965268,27.039302,-8.578401,-56.930794,-69.304223,-154.267713,0.171038,-0.399879,0.000000,3.268611,1.463976,-0.000000
2.360000,-1.111030,-0.376987,-1.379163,2.398104,-1.652204,0.962907,2.946588,1.615082,2.525728,-9.521217,26.283832,-10.140727,-52.906164,-81.612253,-152.944638,0.202719,-0.384391,0.000000,3.063072,1.574326,-0.000000
2.370000,-1.086903,-0.393424,-1.369409,2.427085,-1.634753,0.987631,2.848801,1.873639,2.416709,-10.029014,25.407784,-11.658846,-48.610442,-93.522014,-150.493744,0.232211,-0.367790,0.000000,2.831365,1.664313,-0.000000
2.380000,-1.062491,-0.409673,-1.359414,2.455064,-1.614762,1.011191,2.746155,2.122849,2.292651,-10.492625,24.415080,-13.146946,-44.074409,-104.925431,-146.945999,0.259278,-0.350247,0.000000,2.579235,1.735110,-0.000000
2.390000,-1.037805,-0.425711,-1.349190,2.481994,-1.592331,1.033435,2.639103,2.361571,2.153906,-10.909803,23.311323,-14.594213,-39.328844,-115.714428,-142.332367,0.283749,-0.331951,0.000000,2.313061,1.786533,0.000000
2.400000,-1.012855,-0.441512,-1.338750,2.507833,-1.567569,1.054221,2.528120,2.588727,2.000938,-11.278606,22.103199,-15.990144,-34.404528,-125.780929,-136.683814,0.305513,-0.313094,0.000000,2.038982,1.818980,-0.000000
2.410000,-0.987652,-0.457055,-1.328111,2.532546,-1.540594,1.073414,2.413669,2.803163,1.834109,-11.600063,20.784716,-17.342920,-29.264992,-134.669374,-129.567146,0.324498,-0.293859,0.000000,1.760563,1.834195,0.000000
2.420000,-0.962208,-0.472317,-1.317288,2.556098,-1.511546,1.090867,2.296292,3.004140,1.654332,-11.866545,19.397286,-18.599154,-24.016499,-142.661722,-121.534323,0.340735,-0.274453,0.000000,1.487724,1.831359,0.000000
2.430000,-0.936534,-0.487279,-1.306300,2.578463,-1.480559,1.106460,2.176514,3.190858,1.462408,-12.080160,17.934687,-19.770845,-18.698066,-149.692446,-112.673148,0.354277,-0.255057,0.000000,1.222169,1.813194,0.000000
2.440000,-0.910643,-0.501922,-1.295165,2.599622,-1.447779,1.120077,2.054867,3.362616,1.259223,-12.240403,16.406861,-20.850149,-13.348706,-155.696019,-103.071420,0.365213,-0.235841,0.000000,0.967142,1.781533,-0.000000
2.450000,-0.884546,-0.516229,-1.283905,2.619556,-1.413359,1.131610,1.931885,3.518813,1.045736,-12.347161,14.824408,-21.830098,-8.007436,-160.606916,-92.816942,0.373663,-0.216958,0.000000,0.725102,1.738291,0.000000
2.460000,-0.858256,-0.530185,-1.272540,2.638256,-1.377450,1.140963,1.808118,3.658732,0.822897,-12.399157,13.177546,-22.711549,-2.752469,-163.828249,-81.822114,0.379740,-0.198540,0.000000,0.495626,1.685369,-0.000000
2.470000,-0.831785,-0.543774,-1.261093,2.655717,-1.340231,1.148043,1.684075,3.782276,0.591880,-12.400732,11.527984,-23.472852,2.421179,-165.890917,-70.371615,0.383630,-0.180699,0.000000,0.285159,1.624636,-0.000000
2.480000,-0.805145,-0.556985,-1.249587,2.671939,-1.301860,1.152777,1.560274,3.889242,0.353828,-12.351119,9.863591,-24.117826,7.479294,-166.794458,-58.574724,0.385500,-0.163527,0.000000,0.091649,1.557821,-0.000000
2.490000,-0.778350,-0.569808,-1.238046,2.686925,-1.262502,1.155100,1.437219,3.979537,0.109921,-12.251645,8.195960,-24.643556,12.387660,-166.538409,-46.540720,0.385520,-0.147096,0.000000,-0.084787,1.486503,-0.000000
2.500000,-0.751411,-0.582233,-1.226494,2.700687,-1.222325,1.154960,1.315402,4.053189,-0.138639,-12.103979,6.536690,-25.048215,17.112064,-165.122309,-34.378882,0.383861,-0.131457,0.000000,-0.244347,1.412089,0.000000
2.510000,-0.724340,-0.594252,-1.214955,2.713238,-1.181488,1.152314,1.195345,4.110124,-0.390571,-11.905430,4.877684,-25.325012,21.499563,-162.048144,-22.351541,0.380672,-0.116652,0.000000,-0.388897,1.335354,-0.000000
2.520000,-0.697150,-0.605861,-1.203456,2.724600,-1.140169,1.147139,1.077436,4.150864,-0.644739,-11.669480,3.277182,-25.488653,25.649207,-157.873929,-10.396182,0.376137,-0.102695,0.000000,-0.515563,1.258481,0.000000
2.530000,-0.669852,-0.617054,-1.192021,2.734795,-1.098523,1.139416,0.962089,4.175824,-0.899948,-11.393304,1.723670,-25.533477,29.541319,-152.660125,1.396658,0.370412,-0.089591,0.000000,-0.626788,1.181761,-0.000000
2.540000,-0.642458,-0.627831,-1.180676,2.743851,-1.056704,1.129141,0.849695,4.185527,-1.155020,-11.079578,0.227243,-25.461563,33.156222,-146.467195,12.936440,0.363650,-0.077337,0.000000,-0.723390,1.105902,-0.000000
2.550000,-0.614979,-0.638188,-1.169447,2.751800,-1.014861,1.116320,0.740613,4.180591,-1.408800,-10.731170,-1.202611,-25.275894,36.474239,-139.355602,24.132628,0.355991,-0.065920,0.000000,-0.806219,1.031473,-0.000000
2.560000,-0.587426,-0.648128,-1.158358,2.758674,-0.973135,1.100968,0.635237,4.161602,-1.660012,-10.345592,-2.568509,-24.965708,39.335370,-131.095338,34.524656,0.347563,-0.055326,0.000000,-0.876610,0.958434,0.000000
2.570000,-0.559809,-0.657652,-1.147435,2.764516,-0.931669,1.083126,0.533792,4.129509,-1.907776,-9.939261,-3.834945,-24.570479,41.877443,-122.072903,44.437324,0.338499,-0.045523,0.000000,-0.934241,0.888344,-0.000000
2.580000,-0.532139,-0.666763,-1.136704,2.769364,-0.890585,1.062828,0.436531,4.085215,-2.151100,-9.509115,-5.007746,-24.078710,44.097964,-112.384329,53.825403,0.328916,-0.036480,0.000000,-0.980463,0.820823,-0.000000
2.590000,-0.504425,-0.675465,-1.126187,2.773261,-0.850002,1.040122,0.343678,4.029687,-2.389046,-9.058382,-6.080731,-23.495871,45.994438,-102.125647,62.643667,0.318925,-0.028165,0.000000,-1.016049,0.756029,0.000000
2.600000,-0.476677,-0.683765,-1.115909,2.776253,-0.810026,1.015068,0.255421,3.963951,-2.620733,-8.590315,-7.048679,-22.827887,47.564370,-91.392887,70.846885,0.308628,-0.020545,0.000000,-1.041735,0.694061,0.000000
2.610000,-0.448903,-0.691668,-1.105893,2.778384,-0.770753,0.987726,0.171965,3.889066,-2.845169,-8.103937,-7.908432,-22.065267,48.697808,-80.254219,77.989069,0.298124,-0.013588,0.000000,-1.057962,0.634649,-0.000000
2.620000,-0.421112,-0.699183,-1.096162,2.779707,-0.732271,0.958185,0.093375,3.806159,-3.061812,-7.612623,-8.654078,-21.252402,49.512872,-68.836946,84.474825,0.287497,-0.007254,0.000000,-1.066019,0.578600,-0.000000
2.630000,-0.393311,-0.706317,-1.086737,2.780268,-0.694653,0.926518,0.019734,3.716369,-3.270012,-7.114705,-9.284574,-20.377946,50.020228,-57.240510,90.307998,0.276830,-0.001509,0.000000,-1.066177,0.525488,0.000000
2.640000,-0.365509,-0.713079,-1.077638,2.780118,-0.657962,0.892815,-0.048907,3.620855,-3.469187,-6.613209,-9.798623,-19.448405,50.230536,-45.564353,95.492434,0.266198,0.003683,0.000000,-1.058994,0.475262,-0.000000
2.650000,-0.337711,-0.719479,-1.068887,2.779307,-0.622251,0.857166,-0.112528,3.520785,-3.658818,-6.111049,-10.195926,-18.470247,50.154462,-33.907917,100.031977,0.255673,0.008355,0.000000,-1.044998,0.427855,0.000000
2.660000,-0.309924,-0.725527,-1.060501,2.777884,-0.587560,0.819669,-0.171114,3.417399,-3.838335,-5.609110,-10.470235,-17.439166,49.753962,-22.546026,103.659311,0.245327,0.012537,0.000000,-1.024041,0.383068,0.000000
2.670000,-0.282155,-0.731234,-1.052499,2.775900,-0.553913,0.780431,-0.224728,3.311756,-4.007491,-5.114659,-10.639674,-16.386968,49.094369,-11.381264,106.682646,0.235211,0.016263,0.000000,-0.998166,0.341119,-0.000000
2.680000,-0.254408,-0.736609,-1.044898,2.773405,-0.521329,0.739554,-0.273434,3.204973,-4.165983,-4.628031,-10.698777,-15.307403,48.192312,-0.491600,109.139030,0.225381,0.019562,0.000000,-0.967037,0.301765,0.000000
2.690000,-0.226689,-0.741664,-1.037713,2.770448,-0.489814,0.697147,-0.317322,3.098138,-4.313566,-4.151566,-10.650683,-14.205954,47.064419,10.045001,111.065513,0.215886,0.022464,0.000000,-0.931058,0.264915,0.000000
2.700000,-0.199001,-0.746409,-1.030960,2.767075,-0.459363,0.653320,-0.356506,2.992304,-4.450046,-3.687440,-10.499314,-13.087736,45.727316,20.150571,112.499142,0.206775,0.024995,0.000000,-0.890616,0.230477,0.000000
2.710000,-0.171348,-0.750855,-1.024651,2.763333,-0.429964,0.608183,-0.391121,2.888595,-4.575250,-3.237826,-10.238792,-11.954683,44.201784,29.480016,113.406044,0.198096,0.027182,0.000000,-0.845350,0.198378,-0.000000
2.720000,-0.143735,-0.755012,-1.018800,2.759267,-0.401585,0.561852,-0.421317,2.787830,-4.689117,-2.804178,-9.899636,-10.817815,42.499791,38.255207,113.902874,0.189879,0.029050,0.000000,-0.797388,0.168494,0.000000
2.730000,-0.116164,-0.758890,-1.013418,2.754921,-0.374195,0.514439,-0.447264,2.690885,-4.791596,-2.388365,-9.475687,-9.677840,40.637453,46.430886,114.035364,0.182159,0.030622,0.000000,-0.746220,0.140764,-0.000000
2.740000,-0.088637,-0.762499,-1.008515,2.750335,-0.347751,0.466058,-0.469148,2.598578,-4.882675,-1.991909,-8.973167,-8.538170,38.630891,53.961795,113.849248,0.174965,0.031920,0.000000,-0.692169,0.115112,-0.000000
2.750000,-0.061158,-0.765848,-1.004099,2.745551,-0.322205,0.416823,-0.487171,2.511662,-4.962370,-1.616174,-8.398751,-7.401764,36.496223,60.802678,113.390257,0.168324,0.032967,0.000000,-0.635548,0.091469,-0.000000
2.760000,-0.033727,-0.768946,-1.000181,2.740604,-0.297501,0.366849,-0.501559,2.430933,-5.030774,-1.263627,-7.749123,-6.275277,34.281605,66.644546,112.809058,0.162268,0.033783,0.000000,-0.576029,0.069845,0.000000
2.770000,-0.006346,-0.771800,-0.996765,2.735531,-0.273568,0.316247,-0.512519,2.356862,-5.087899,-0.932304,-7.056580,-5.150915,31.967196,71.738167,112.033602,0.156809,0.034389,0.000000,-0.515439,0.050004,0.000000
2.780000,0.020983,-0.774419,-0.993857,2.730365,-0.250340,0.265129,-0.520284,2.289958,-5.133821,-0.624575,-6.316897,-4.035143,29.565194,76.070577,111.096772,0.151964,0.034802,0.000000,-0.453346,0.031982,0.000000
2.790000,0.048261,-0.776809,-0.991463,2.725135,-0.227743,0.213607,-0.525092,2.230655,-5.168635,-0.341252,-5.537750,-2.929408,27.087794,79.628811,110.031453,0.147747,0.035042,0.000000,-0.390034,0.015734,-0.000000
